[{"id":"WaltDisneyWorldMagicKingdom_136550","waitTime":null,"status":"Closed","active":false,"lastUpdate":"2021-01-03T21:24:21.706Z","meta":{"singleRider":false,"latitude":28.4183977566,"longitude":-81.5797358751,"type":"ATTRACTION"},"fastPass":false,"name":"Monsters, Inc. Laugh Floor - Temporarily Unavailable"},{"id":"WaltDisneyWorldMagicKingdom_15743682","waitTime":null,"status":"Closed","active":false,"lastUpdate":"2020-09-15T11:33:17.406Z","fastPass":false,"name":"Meet Dashing Disney Pals as Circus Stars at Pete’s Silly Side Show - Temporarily Unavailable","meta":{"singleRider":false,"longitude":-81.578932,"latitude":28.421282}},{"id":"WaltDisneyWorldMagicKingdom_15850196","waitTime":null,"status":"Closed","active":false,"lastUpdate":"2020-09-15T11:33:17.374Z","name":"Meet Mickey Mouse at Town Square Theater - Temporarily Unavailable","fastPass":false,"meta":{"latitude":28.416727,"longitude":-81.580746,"singleRider":false}},{"id":"WaltDisneyWorldMagicKingdom_16124144","waitTime":null,"status":"Operating","active":true,"lastUpdate":"2021-01-17T14:02:45.731Z","meta":{"type":"ATTRACTION","singleRider":false,"longitude":-81.583738382,"latitude":28.4182264646},"name":"Walt Disney's Enchanted Tiki Room","fastPass":false},{"id":"WaltDisneyWorldMagicKingdom_16414579","waitTime":null,"status":"Operating","active":true,"lastUpdate":"2021-01-17T14:02:45.122Z","meta":{"type":"ATTRACTION","latitude":28.416944,"longitude":-81.58163,"singleRider":false},"fastPass":false,"name":"Sorcerers of the Magic Kingdom"},{"id":"WaltDisneyWorldMagicKingdom_16491297","waitTime":20,"status":"Operating","active":true,"lastUpdate":"2021-01-17T22:08:42.932Z","meta":{"longitude":-81.5783907473,"unsuitableForPregnantPeople":true,"singleRider":false,"type":"ATTRACTION","latitude":28.4207661576},"name":"The Barnstormer","fastPass":false},{"id":"WaltDisneyWorldMagicKingdom_16491299","waitTime":null,"status":"Refurbishment","active":false,"lastUpdate":"2021-01-03T21:24:18.928Z","meta":{"longitude":-81.578368,"type":"ATTRACTION","singleRider":false,"latitude":28.420934},"name":"Walt Disney World Railroad - Fantasyland - Temporarily Unavailable","fastPass":false},{"id":"WaltDisneyWorldMagicKingdom_16660079","waitTime":null,"status":"Operating","active":true,"lastUpdate":"2021-01-16T00:56:58.298Z","name":"Be Our Guest Restaurant","fastPass":false,"meta":{"longitude":-81.5807074858,"type":"RESTAURANT","latitude":28.4212491492,"singleRider":false}},{"id":"WaltDisneyWorldMagicKingdom_16767263","waitTime":25,"status":"Operating","active":true,"lastUpdate":"2021-01-17T21:23:12.248Z","meta":{"type":"ATTRACTION","longitude":-81.5799752427,"singleRider":false,"latitude":28.4211203226},"name":"Under the Sea ~ Journey of The Little Mermaid","fastPass":false},{"id":"WaltDisneyWorldMagicKingdom_16767276","waitTime":null,"status":"Closed","active":false,"lastUpdate":"2021-01-03T21:24:20.764Z","fastPass":false,"meta":{"latitude":28.42099058,"longitude":-81.58093011,"singleRider":false,"type":"ATTRACTION"},"name":"Enchanted Tales with Belle - Temporarily Unavailable"},{"id":"WaltDisneyWorldMagicKingdom_16767284","waitTime":80,"status":"Operating","active":true,"lastUpdate":"2021-01-17T21:56:12.125Z","name":"Seven Dwarfs Mine Train","meta":{"type":"ATTRACTION","unsuitableForPregnantPeople":true,"singleRider":false,"longitude":-81.58031,"latitude":28.42037},"fastPass":false},{"id":"WaltDisneyWorldMagicKingdom_16874126","waitTime":null,"status":"Closed","active":false,"lastUpdate":"2020-09-15T11:33:17.441Z","fastPass":false,"name":"Meet Ariel at Her Grotto - Temporarily Unavailable","meta":{"latitude":28.420893275289,"singleRider":false,"longitude":-81.579613144497}},{"id":"WaltDisneyWorldMagicKingdom_17272158","waitTime":null,"status":"Closed","active":false,"lastUpdate":"2021-01-03T21:24:21.210Z","fastPass":false,"name":"A Pirate's Adventure ~ Treasures of the Seven Seas - Temporarily Unavailable","meta":{"longitude":-81.58466913,"singleRider":false,"type":"ATTRACTION","latitude":28.41837254}},{"id":"WaltDisneyWorldMagicKingdom_17505397","waitTime":null,"status":"Closed","active":false,"lastUpdate":"2020-09-15T11:33:17.486Z","name":"Meet Rapunzel and Tiana at Princess Fairytale Hall - Temporarily Unavailable","meta":{"longitude":-81.580917439677,"singleRider":false,"latitude":28.420045752669},"fastPass":false},{"id":"WaltDisneyWorldMagicKingdom_17752793","waitTime":null,"status":"Closed","active":false,"lastUpdate":"2020-09-15T11:33:17.444Z","name":"Meet Tinker Bell at Town Square Theater - Temporarily Unavailable","fastPass":false,"meta":{"singleRider":false,"longitude":-81.580815,"latitude":28.416727}},{"id":"WaltDisneyWorldMagicKingdom_18185631","waitTime":null,"status":"Operating","active":true,"lastUpdate":"2021-01-17T22:15:11.659Z","meta":{"singleRider":false,"type":"RESTAURANT","longitude":-81.582592,"latitude":28.418491},"name":"Jungle Navigation Co. LTD Skipper Canteen","fastPass":false},{"id":"WaltDisneyWorldMagicKingdom_18498503","waitTime":null,"status":"Closed","active":false,"lastUpdate":"2020-09-15T11:33:17.494Z","fastPass":false,"name":"Meet Cinderella and Elena at Princess Fairytale Hall - Temporarily Unavailable","meta":{"singleRider":false,"latitude":28.420012,"longitude":-81.58094}},{"id":"WaltDisneyWorldMagicKingdom_2219610","waitTime":null,"status":"Refurbishment","active":false,"lastUpdate":"2021-01-03T21:23:08.615Z","meta":{"latitude":28.41969,"longitude":-81.585078,"singleRider":false,"type":"ATTRACTION"},"fastPass":false,"name":"Walt Disney World Railroad - Frontierland - Temporarily Unavailable"},{"id":"WaltDisneyWorldMagicKingdom_387133","waitTime":null,"status":"Closed","active":false,"lastUpdate":"2020-09-15T11:33:17.492Z","name":"Meet Daring Disney Pals as Circus Stars at Pete's Silly Side Show - Temporarily Unavailable","fastPass":false,"meta":{"latitude":28.421282,"singleRider":false,"longitude":-81.578932}},{"id":"WaltDisneyWorldMagicKingdom_80010107","waitTime":45,"status":"Operating","active":true,"lastUpdate":"2021-01-17T20:08:46.165Z","name":"Astro Orbiter","fastPass":false,"meta":{"longitude":-81.5789887902,"type":"ATTRACTION","latitude":28.4184926179,"singleRider":false}},{"id":"WaltDisneyWorldMagicKingdom_80010110","waitTime":65,"status":"Operating","active":true,"lastUpdate":"2021-01-17T22:07:13.609Z","meta":{"longitude":-81.5846422864,"unsuitableForPregnantPeople":true,"type":"ATTRACTION","latitude":28.4199638504,"singleRider":false},"fastPass":false,"name":"Big Thunder Mountain Railroad"},{"id":"WaltDisneyWorldMagicKingdom_80010114","waitTime":30,"status":"Operating","active":true,"lastUpdate":"2021-01-17T21:13:11.768Z","name":"Buzz Lightyear's Space Ranger Spin","fastPass":false,"meta":{"type":"ATTRACTION","longitude":-81.5794086456,"singleRider":false,"latitude":28.4182868839}},{"id":"WaltDisneyWorldMagicKingdom_80010117","waitTime":40,"status":"Operating","active":true,"lastUpdate":"2021-01-17T22:17:44.831Z","name":"Prince Charming Regal Carrousel","meta":{"type":"ATTRACTION","longitude":-81.581255,"singleRider":false,"latitude":28.420169},"fastPass":false},{"id":"WaltDisneyWorldMagicKingdom_80010129","waitTime":15,"status":"Operating","active":true,"lastUpdate":"2021-01-17T22:11:46.139Z","meta":{"longitude":-81.5789473057,"latitude":28.420509033,"type":"ATTRACTION","singleRider":false},"name":"Dumbo the Flying Elephant","fastPass":false},{"id":"WaltDisneyWorldMagicKingdom_80010149","waitTime":40,"status":"Operating","active":true,"lastUpdate":"2021-01-17T22:18:13.567Z","meta":{"type":"ATTRACTION","longitude":-81.5820392026,"singleRider":false,"latitude":28.4204816402},"name":"\"it's a small world\"","fastPass":false},{"id":"WaltDisneyWorldMagicKingdom_80010153","waitTime":45,"status":"Operating","active":true,"lastUpdate":"2021-01-17T22:07:12.425Z","meta":{"singleRider":false,"longitude":-81.5834393157,"type":"ATTRACTION","latitude":28.41797818},"name":"Jungle Cruise","fastPass":false},{"id":"WaltDisneyWorldMagicKingdom_80010160","waitTime":null,"status":"Refurbishment","active":false,"lastUpdate":"2021-01-03T21:23:48.006Z","fastPass":false,"meta":{"singleRider":false,"type":"ATTRACTION","longitude":-81.5827982677,"latitude":28.4195563399},"name":"Liberty Square Riverboat"},{"id":"WaltDisneyWorldMagicKingdom_80010162","waitTime":15,"status":"Operating","active":true,"lastUpdate":"2021-01-17T20:26:12.151Z","fastPass":false,"meta":{"singleRider":false,"type":"ATTRACTION","longitude":-81.5798248916,"latitude":28.4200230397},"name":"Mad Tea Party"},{"id":"WaltDisneyWorldMagicKingdom_80010165","waitTime":null,"status":"Closed","active":false,"lastUpdate":"2021-01-03T21:24:20.300Z","meta":{"singleRider":false,"type":"ATTRACTION","latitude":28.4168698711,"longitude":-81.5815081252},"fastPass":false,"name":"Main Street Vehicles - Temporarily Unavailable"},{"id":"WaltDisneyWorldMagicKingdom_80010170","waitTime":20,"status":"Operating","active":true,"lastUpdate":"2021-01-17T22:20:44.662Z","name":"Mickey's PhilharMagic","fastPass":false,"meta":{"longitude":-81.5814839853,"type":"ATTRACTION","singleRider":false,"latitude":28.4200304909}},{"id":"WaltDisneyWorldMagicKingdom_80010176","waitTime":40,"status":"Operating","active":true,"lastUpdate":"2021-01-17T22:09:10.336Z","fastPass":false,"meta":{"longitude":-81.5818916811,"latitude":28.4202640272,"type":"ATTRACTION","singleRider":false},"name":"Peter Pan's Flight"},{"id":"WaltDisneyWorldMagicKingdom_80010177","waitTime":50,"status":"Operating","active":true,"lastUpdate":"2021-01-17T22:17:43.706Z","name":"Pirates of the Caribbean","fastPass":false,"meta":{"singleRider":false,"latitude":28.41796992,"longitude":-81.5842252,"type":"ATTRACTION"}},{"id":"WaltDisneyWorldMagicKingdom_80010190","waitTime":45,"status":"Operating","active":true,"lastUpdate":"2021-01-17T21:32:46.907Z","meta":{"longitude":-81.5781962872,"type":"ATTRACTION","latitude":28.4188341691,"unsuitableForPregnantPeople":true,"singleRider":false},"fastPass":false,"name":"Space Mountain"},{"id":"WaltDisneyWorldMagicKingdom_80010192","waitTime":30,"status":"Operating","active":true,"lastUpdate":"2021-01-17T22:08:13.696Z","meta":{"latitude":28.419418,"longitude":-81.58498,"type":"ATTRACTION","unsuitableForPregnantPeople":true,"singleRider":false},"fastPass":false,"name":"Splash Mountain"},{"id":"WaltDisneyWorldMagicKingdom_80010196","waitTime":null,"status":"Operating","active":true,"lastUpdate":"2021-01-17T14:02:48.953Z","name":"Swiss Family Treehouse","meta":{"singleRider":false,"type":"ATTRACTION","latitude":28.4184325517,"longitude":-81.5827982677},"fastPass":false},{"id":"WaltDisneyWorldMagicKingdom_80010208","waitTime":20,"status":"Operating","active":true,"lastUpdate":"2021-01-17T22:05:16.395Z","name":"Haunted Mansion","meta":{"singleRider":false,"latitude":28.4202,"longitude":-81.58288,"type":"ATTRACTION"},"fastPass":false},{"id":"WaltDisneyWorldMagicKingdom_80010210","waitTime":15,"status":"Operating","active":true,"lastUpdate":"2021-01-17T21:58:13.443Z","name":"The Magic Carpets of Aladdin","meta":{"latitude":28.41843,"type":"ATTRACTION","longitude":-81.583472,"singleRider":false},"fastPass":false},{"id":"WaltDisneyWorldMagicKingdom_80010213","waitTime":20,"status":"Operating","active":true,"lastUpdate":"2021-01-17T22:21:11.861Z","fastPass":false,"meta":{"singleRider":false,"type":"ATTRACTION","longitude":-81.580266,"latitude":28.420212},"name":"The Many Adventures of Winnie the Pooh"},{"id":"WaltDisneyWorldMagicKingdom_80010220","waitTime":null,"status":"Refurbishment","active":false,"lastUpdate":"2021-01-03T21:24:19.374Z","name":"Tom Sawyer Island","fastPass":false,"meta":{"latitude":28.419503,"singleRider":false,"longitude":-81.58428,"type":"ATTRACTION"}},{"id":"WaltDisneyWorldMagicKingdom_80010222","waitTime":10,"status":"Operating","active":true,"lastUpdate":"2021-01-17T21:59:14.385Z","name":"Tomorrowland Speedway","meta":{"singleRider":false,"latitude":28.419368,"longitude":-81.579302,"unsuitableForPregnantPeople":true,"type":"ATTRACTION"},"fastPass":false},{"id":"WaltDisneyWorldMagicKingdom_80010224","waitTime":null,"status":"Refurbishment","active":false,"lastUpdate":"2021-01-03T21:24:19.826Z","name":"Tomorrowland Transit Authority PeopleMover - Temporarily Unavailable","fastPass":false,"meta":{"longitude":-81.579033,"type":"ATTRACTION","latitude":28.418155,"singleRider":false}},{"id":"WaltDisneyWorldMagicKingdom_80010230","waitTime":null,"status":"Refurbishment","active":false,"lastUpdate":"2021-01-03T21:23:09.088Z","fastPass":false,"meta":{"type":"ATTRACTION","singleRider":false,"longitude":-81.581204,"latitude":28.416543},"name":"Walt Disney World Railroad - Main Street, U.S.A. - Temporarily Unavailable"},{"id":"WaltDisneyWorldMagicKingdom_80010232","waitTime":30,"status":"Operating","active":true,"lastUpdate":"2021-01-17T22:17:44.247Z","name":"Walt Disney's Carousel of Progress","fastPass":false,"meta":{"singleRider":false,"type":"ATTRACTION","longitude":-81.5790083064,"latitude":28.4180310951}},{"id":"WaltDisneyWorldMagicKingdom_80069748","waitTime":15,"status":"Operating","active":true,"lastUpdate":"2021-01-17T22:08:42.381Z","fastPass":false,"meta":{"singleRider":false,"longitude":-81.5837222887,"type":"ATTRACTION","latitude":28.4187861348},"name":"Country Bear Jamboree"},{"id":"WaltDisneyWorldMagicKingdom_80069754","waitTime":null,"status":"Operating","active":true,"lastUpdate":"2021-01-17T14:02:44.024Z","meta":{"latitude":28.4194484171,"singleRider":false,"longitude":-81.5823248578,"type":"ATTRACTION"},"name":"The Hall of Presidents","fastPass":false},{"id":"WaltDisneyWorldMagicKingdom_90001819","waitTime":null,"status":"Operating","active":true,"lastUpdate":"2021-01-17T22:18:18.232Z","fastPass":false,"name":"Liberty Tree Tavern","meta":{"latitude":28.4191196055,"type":"RESTAURANT","longitude":-81.5826159743,"singleRider":false}},{"id":"WaltDisneyWorldMagicKingdom_90002464","waitTime":null,"status":"Operating","active":true,"lastUpdate":"2021-01-13T23:39:46.541Z","name":"Cinderella's Royal Table","meta":{"longitude":-81.581101,"latitude":28.4195,"type":"RESTAURANT","singleRider":false},"fastPass":false},{"id":"WaltDisneyWorldMagicKingdom_90002660","waitTime":null,"status":"Operating","active":true,"lastUpdate":"2021-01-17T21:54:54.343Z","fastPass":false,"name":"The Crystal Palace","meta":{"latitude":28.4181214892,"singleRider":false,"longitude":-81.5818970259,"type":"RESTAURANT"}},{"id":"WaltDisneyWorldMagicKingdom_90002670","waitTime":null,"status":"Operating","active":true,"lastUpdate":"2021-01-17T21:42:23.914Z","meta":{"longitude":-81.5809394969,"type":"RESTAURANT","latitude":28.4180247703,"singleRider":false},"name":"The Plaza Restaurant","fastPass":false},{"id":"WaltDisneyWorldMagicKingdom_90002678","waitTime":null,"status":"Operating","active":true,"lastUpdate":"2021-01-17T20:04:30.072Z","name":"Tony's Town Square Restaurant","meta":{"longitude":-81.5807276023,"latitude":28.4169323426,"singleRider":false,"type":"RESTAURANT"},"fastPass":false},{"id":"WaltDisneyWorldEpcot_107785","waitTime":10,"status":"Operating","active":true,"lastUpdate":"2021-01-17T19:43:08.294Z","meta":{"singleRider":false,"latitude":28.374904,"longitude":-81.550852,"type":"ATTRACTION"},"name":"The Seas with Nemo & Friends","fastPass":false},{"id":"WaltDisneyWorldEpcot_17564219","waitTime":null,"status":"Closed","active":false,"lastUpdate":"2020-09-15T11:33:07.103Z","meta":{"singleRider":false,"latitude":28.37097,"longitude":-81.547134},"fastPass":false,"name":"Meet Anna and Elsa at Royal Sommerhus - Temporarily Unavailable"},{"id":"WaltDisneyWorldEpcot_17720675","waitTime":75,"status":"Operating","active":true,"lastUpdate":"2021-01-17T22:20:24.676Z","meta":{"longitude":-81.551645,"singleRider":false,"type":"RESTAURANT","latitude":28.368468},"name":"Spice Road Table","fastPass":false},{"id":"WaltDisneyWorldEpcot_18269694","waitTime":null,"status":"Operating","active":true,"lastUpdate":"2021-01-17T16:02:44.446Z","name":"Disney and Pixar Short Film Festival","meta":{"latitude":28.37263,"longitude":-81.55115,"type":"ATTRACTION","singleRider":false},"fastPass":false},{"id":"WaltDisneyWorldEpcot_18375495","waitTime":55,"status":"Operating","active":true,"lastUpdate":"2021-01-17T22:14:15.493Z","fastPass":false,"name":"Frozen Ever After","meta":{"longitude":-81.54653,"type":"ATTRACTION","latitude":28.370745,"singleRider":false}},{"id":"WaltDisneyWorldEpcot_19463785","waitTime":null,"status":"Operating","active":true,"lastUpdate":"2021-01-17T16:02:46.204Z","name":"Beauty and the Beast Sing-Along","fastPass":false,"meta":{"latitude":28.368864,"type":"ATTRACTION","longitude":-81.552978,"singleRider":false}},{"id":"WaltDisneyWorldEpcot_19473173","waitTime":null,"status":"Operating","active":true,"lastUpdate":"2021-01-17T16:02:43.316Z","fastPass":false,"name":"Awesome Planet","meta":{"latitude":28.374301,"singleRider":false,"type":"ATTRACTION","longitude":-81.552138}},{"id":"WaltDisneyWorldEpcot_20194","waitTime":45,"status":"Operating","active":true,"lastUpdate":"2021-01-17T21:22:11.751Z","meta":{"longitude":-81.552248,"latitude":28.373592,"singleRider":false,"type":"ATTRACTION"},"name":"Soarin' Around the World","fastPass":false},{"id":"WaltDisneyWorldEpcot_207395","waitTime":10,"status":"Operating","active":true,"lastUpdate":"2021-01-17T16:05:45.288Z","fastPass":false,"name":"Gran Fiesta Tour Starring The Three Caballeros","meta":{"longitude":-81.547368,"latitude":28.371649,"type":"ATTRACTION","singleRider":false}},{"id":"WaltDisneyWorldEpcot_62992","waitTime":null,"status":"Closed","active":false,"lastUpdate":"2021-01-03T21:23:09.564Z","name":"Turtle Talk With Crush - Temporarily Unavailable","meta":{"type":"ATTRACTION","longitude":-81.551047,"singleRider":false,"latitude":28.375255},"fastPass":false},{"id":"WaltDisneyWorldEpcot_80010145","waitTime":null,"status":"Closed","active":false,"lastUpdate":"2021-01-17T00:47:49.359Z","meta":{"type":"ATTRACTION","longitude":-81.552978,"latitude":28.368864,"singleRider":false},"name":"Impressions de France","fastPass":false},{"id":"WaltDisneyWorldEpcot_80010152","waitTime":15,"status":"Operating","active":true,"lastUpdate":"2021-01-17T22:14:49.616Z","meta":{"longitude":-81.551401,"type":"ATTRACTION","latitude":28.372994,"singleRider":false},"fastPass":false,"name":"Journey Into Imagination With Figment"},{"id":"WaltDisneyWorldEpcot_80010161","waitTime":25,"status":"Operating","active":true,"lastUpdate":"2021-01-17T22:11:43.316Z","fastPass":false,"meta":{"type":"ATTRACTION","longitude":-81.552301,"singleRider":false,"latitude":28.374245},"name":"Living with the Land"},{"id":"WaltDisneyWorldEpcot_80010173","waitTime":35,"status":"Operating","active":true,"lastUpdate":"2021-01-17T20:43:09.132Z","name":"Mission: SPACE","meta":{"latitude":28.373927,"singleRider":false,"unsuitableForPregnantPeople":true,"longitude":-81.547156,"type":"ATTRACTION"},"fastPass":false},{"id":"WaltDisneyWorldEpcot_80010174","waitTime":null,"status":"Operating","active":true,"lastUpdate":"2021-01-17T16:02:46.709Z","fastPass":false,"name":"Canada Far and Wide in Circle-Vision 360","meta":{"singleRider":false,"type":"ATTRACTION","longitude":-81.55196,"latitude":28.371694}},{"id":"WaltDisneyWorldEpcot_80010180","waitTime":null,"status":"Operating","active":true,"lastUpdate":"2021-01-17T16:53:46.601Z","fastPass":false,"meta":{"singleRider":false,"latitude":28.369791,"type":"ATTRACTION","longitude":-81.546381},"name":"Reflections of China"},{"id":"WaltDisneyWorldEpcot_80010191","waitTime":25,"status":"Operating","active":true,"lastUpdate":"2021-01-17T22:17:10.329Z","name":"Spaceship Earth","fastPass":false,"meta":{"longitude":-81.549401,"type":"ATTRACTION","latitude":28.375583,"singleRider":false}},{"id":"WaltDisneyWorldEpcot_80010199","waitTime":75,"status":"Operating","active":true,"lastUpdate":"2021-01-17T20:36:03.202Z","name":"Test Track","fastPass":false,"meta":{"unsuitableForPregnantPeople":true,"singleRider":true,"latitude":28.373228,"longitude":-81.547489,"type":"ATTRACTION"}},{"id":"WaltDisneyWorldEpcot_80010200","waitTime":null,"status":"Operating","active":true,"lastUpdate":"2021-01-17T16:02:45.514Z","name":"The American Adventure","meta":{"singleRider":false,"latitude":28.367517,"type":"ATTRACTION","longitude":-81.549446},"fastPass":false},{"id":"WaltDisneyWorldEpcot_90001292","waitTime":50,"status":"Operating","active":true,"lastUpdate":"2021-01-17T22:20:25.282Z","name":"Biergarten Restaurant","fastPass":false,"meta":{"singleRider":false,"latitude":28.368153,"longitude":-81.546819,"type":"RESTAURANT"}},{"id":"WaltDisneyWorldEpcot_90001416","waitTime":null,"status":"Operating","active":true,"lastUpdate":"2021-01-17T22:15:00.834Z","meta":{"latitude":28.375096,"type":"RESTAURANT","longitude":-81.550458,"singleRider":false},"name":"Coral Reef Restaurant","fastPass":false},{"id":"WaltDisneyWorldEpcot_90001798","waitTime":null,"status":"Operating","active":true,"lastUpdate":"2021-01-17T17:31:40.530Z","name":"Le Cellier Steakhouse","meta":{"latitude":28.371657,"singleRider":false,"longitude":-81.551512,"type":"RESTAURANT"},"fastPass":false},{"id":"WaltDisneyWorldEpcot_90002084","waitTime":null,"status":"Operating","active":true,"lastUpdate":"2021-01-17T22:22:28.134Z","name":"Rose & Crown Dining Room","meta":{"type":"RESTAURANT","longitude":-81.551684,"latitude":28.370508,"singleRider":false},"fastPass":false},{"id":"WaltDisneyWorldEpcot_90002237","waitTime":null,"status":"Operating","active":true,"lastUpdate":"2021-01-17T21:52:31.211Z","name":"Garden Grill Restaurant","meta":{"longitude":-81.552324,"type":"RESTAURANT","singleRider":false,"latitude":28.374039},"fastPass":false},{"id":"WaltDisneyWorldHollywoodStudios_136","waitTime":null,"status":"Closed","active":false,"lastUpdate":"2020-09-15T11:33:12.086Z","name":"Indiana Jones™ Epic Stunt Spectacular! - Temporarily Unavailable","fastPass":false,"meta":{"longitude":-81.5586114479,"singleRider":false,"latitude":28.3566700675}},{"id":"WaltDisneyWorldHollywoodStudios_17842841","waitTime":null,"status":"Closed","active":false,"lastUpdate":"2020-09-15T11:33:12.046Z","name":"For the First Time in Forever: A Frozen Sing-Along Celebration - Temporarily Unavailable","meta":{"singleRider":false,"longitude":-81.5596944094,"latitude":28.3568243464},"fastPass":false},{"id":"WaltDisneyWorldHollywoodStudios_18189394","waitTime":null,"status":"Closed","active":false,"lastUpdate":"2020-09-15T11:33:12.077Z","name":"Star Wars Launch Bay: Meet Chewbacca - Temporarily Unavailable","fastPass":false,"meta":{"longitude":-81.560938,"latitude":28.35796,"singleRider":false}},{"id":"WaltDisneyWorldHollywoodStudios_18189398","waitTime":null,"status":"Closed","active":false,"lastUpdate":"2020-09-15T11:33:12.069Z","fastPass":false,"meta":{"singleRider":false,"latitude":28.35796,"longitude":-81.560938},"name":"Star Wars Launch Bay: Encounter Darth Vader - Temporarily Unavailable"},{"id":"WaltDisneyWorldHollywoodStudios_18360041","waitTime":null,"status":"Closed","active":false,"lastUpdate":"2021-01-03T21:23:31.878Z","name":"Star Wars Launch Bay Theater - Temporarily Unavailable","meta":{"singleRider":false,"type":"ATTRACTION","longitude":-81.561061,"latitude":28.357821},"fastPass":false},{"id":"WaltDisneyWorldHollywoodStudios_18368385","waitTime":null,"status":"Closed","active":false,"lastUpdate":"2020-09-15T11:33:12.104Z","name":"Celebrity Spotlight - Temporarily Unavailable","fastPass":false,"meta":{"singleRider":false,"longitude":-81.559158,"latitude":28.356072}},{"id":"WaltDisneyWorldHollywoodStudios_18368386","waitTime":null,"status":"Closed","active":false,"lastUpdate":"2020-09-15T11:33:12.095Z","fastPass":false,"meta":{"latitude":28.356068,"longitude":-81.559479,"singleRider":false},"name":"Mickey and Minnie Starring in Red Carpet Dreams - Temporarily Unavailable"},{"id":"WaltDisneyWorldHollywoodStudios_18669338","waitTime":null,"status":"Closed","active":false,"lastUpdate":"2020-09-15T11:33:12.121Z","fastPass":false,"name":"BB-8 Astromech on Duty - Temporarily Unavailable","meta":{"longitude":-81.560938,"singleRider":false,"latitude":28.35796}},{"id":"WaltDisneyWorldHollywoodStudios_18770880","waitTime":15,"status":"Operating","active":true,"lastUpdate":"2021-01-17T15:44:41.602Z","fastPass":false,"name":"Walt Disney Presents","meta":{"singleRider":false,"type":"ATTRACTION","latitude":28.35686,"longitude":-81.560982}},{"id":"WaltDisneyWorldHollywoodStudios_18904138","waitTime":65,"status":"Operating","active":true,"lastUpdate":"2021-01-17T22:22:12.881Z","name":"Slinky Dog Dash","fastPass":false,"meta":{"longitude":-81.562786,"latitude":28.356245,"singleRider":false,"unsuitableForPregnantPeople":true,"type":"ATTRACTION"}},{"id":"WaltDisneyWorldHollywoodStudios_18904172","waitTime":10,"status":"Operating","active":true,"lastUpdate":"2021-01-17T22:17:10.944Z","name":"Alien Swirling Saucers","meta":{"singleRider":false,"latitude":28.355385,"longitude":-81.562379,"type":"ATTRACTION"},"fastPass":false},{"id":"WaltDisneyWorldHollywoodStudios_19025682","waitTime":null,"status":"Operating","active":true,"lastUpdate":"2020-09-15T14:02:51.117Z","fastPass":false,"name":"Star Wars: Galaxy's Edge","meta":{"latitude":28.355234,"longitude":-81.559787,"singleRider":false}},{"id":"WaltDisneyWorldHollywoodStudios_19152250","waitTime":null,"status":"Closed","active":false,"lastUpdate":"2020-09-15T11:33:12.147Z","meta":{"longitude":-81.560984,"latitude":28.356865,"singleRider":false},"name":"Meet Sulley at Walt Disney Presents - Temporarily Unavailable","fastPass":false},{"id":"WaltDisneyWorldHollywoodStudios_19259335","waitTime":35,"status":"Operating","active":true,"lastUpdate":"2021-01-17T22:14:50.232Z","name":"Mickey & Minnie's Runaway Railway","meta":{"singleRider":false,"longitude":-81.5605667783,"type":"ATTRACTION","latitude":28.3566783801},"fastPass":false},{"id":"WaltDisneyWorldHollywoodStudios_19263735","waitTime":45,"status":"Operating","active":true,"lastUpdate":"2021-01-17T22:21:09.271Z","fastPass":false,"name":"Millennium Falcon: Smugglers Run","meta":{"singleRider":true,"type":"ATTRACTION","longitude":-81.561689,"unsuitableForPregnantPeople":true,"latitude":28.353889}},{"id":"WaltDisneyWorldHollywoodStudios_19263736","waitTime":null,"status":"Operating","active":true,"lastUpdate":"2021-01-17T14:00:11.235Z","name":"Star Wars: Rise of the Resistance","fastPass":false,"meta":{"longitude":-81.560457,"type":"ATTRACTION","latitude":28.354884,"singleRider":false,"unsuitableForPregnantPeople":true}},{"id":"WaltDisneyWorldHollywoodStudios_19267226","waitTime":null,"status":"Closed","active":false,"lastUpdate":"2021-01-03T21:23:32.330Z","fastPass":false,"meta":{"singleRider":false,"longitude":-81.562075,"type":"RESTAURANT","latitude":28.354095},"name":"Oga's Cantina at the Walt Disney World Resort"},{"id":"WaltDisneyWorldHollywoodStudios_19276204","waitTime":15,"status":"Operating","active":true,"lastUpdate":"2021-01-17T19:20:46.982Z","fastPass":false,"meta":{"longitude":-81.560707,"singleRider":false,"latitude":28.360035,"type":"ATTRACTION"},"name":"Lightning McQueen's Racing Academy"},{"id":"WaltDisneyWorldHollywoodStudios_19497952","waitTime":10,"status":"Operating","active":true,"lastUpdate":"2021-01-17T19:59:43.328Z","fastPass":false,"name":"Vacation Fun - An Original Animated Short with Mickey & Minnie","meta":{"longitude":-81.559031,"singleRider":false,"type":"ATTRACTION","latitude":28.356316}},{"id":"WaltDisneyWorldHollywoodStudios_19582977","waitTime":null,"status":"Closed","active":false,"lastUpdate":"2020-09-15T11:33:12.211Z","name":"Disney Society Orchestra and Friends","fastPass":false,"meta":{"longitude":-81.5595985008,"singleRider":false,"latitude":28.3589162565}},{"id":"WaltDisneyWorldHollywoodStudios_19583373","waitTime":null,"status":"Closed","active":false,"lastUpdate":"2020-09-15T11:33:12.219Z","meta":{"singleRider":false,"latitude":28.357613,"longitude":-81.560567},"name":"Disney Junior Play and Dance!","fastPass":false},{"id":"WaltDisneyWorldHollywoodStudios_202731","waitTime":null,"status":"Closed","active":false,"lastUpdate":"2020-09-15T11:33:12.226Z","meta":{"latitude":28.357613,"singleRider":false,"longitude":-81.560567},"name":"Disney Junior Dance Party! - Temporarily Unavailable","fastPass":false},{"id":"WaltDisneyWorldHollywoodStudios_209857","waitTime":25,"status":"Operating","active":true,"lastUpdate":"2021-01-17T22:00:13.212Z","fastPass":false,"meta":{"singleRider":false,"longitude":-81.561894,"latitude":28.356404,"type":"ATTRACTION"},"name":"Toy Story Mania!"},{"id":"WaltDisneyWorldHollywoodStudios_80010151","waitTime":15,"status":"Operating","active":true,"lastUpdate":"2021-01-17T21:24:11.651Z","name":"Muppet*Vision 3D","fastPass":false,"meta":{"singleRider":false,"type":"ATTRACTION","latitude":28.3550644708,"longitude":-81.5594643904}},{"id":"WaltDisneyWorldHollywoodStudios_80010182","waitTime":45,"status":"Operating","active":true,"lastUpdate":"2021-01-17T22:13:09.464Z","fastPass":false,"name":"Rock 'n' Roller Coaster Starring Aerosmith","meta":{"latitude":28.359712,"unsuitableForPregnantPeople":true,"longitude":-81.56059,"singleRider":true,"type":"ATTRACTION"}},{"id":"WaltDisneyWorldHollywoodStudios_80010193","waitTime":20,"status":"Operating","active":true,"lastUpdate":"2021-01-17T22:16:11.250Z","name":"Star Tours – The Adventures Continue","fastPass":false,"meta":{"longitude":-81.558891,"singleRider":false,"type":"ATTRACTION","latitude":28.355695,"unsuitableForPregnantPeople":true}},{"id":"WaltDisneyWorldHollywoodStudios_80010218","waitTime":85,"status":"Operating","active":true,"lastUpdate":"2021-01-17T21:56:44.163Z","meta":{"singleRider":false,"latitude":28.359553,"longitude":-81.559772,"type":"ATTRACTION","unsuitableForPregnantPeople":true},"name":"The Twilight Zone Tower of Terror™","fastPass":false},{"id":"WaltDisneyWorldHollywoodStudios_80010848","waitTime":null,"status":"Closed","active":false,"lastUpdate":"2020-09-15T11:33:12.284Z","name":"Beauty and the Beast-Live on Stage - Temporarily Unavailable","fastPass":false,"meta":{"singleRider":false,"latitude":28.3589162565,"longitude":-81.5595985008}},{"id":"WaltDisneyWorldHollywoodStudios_80010896","waitTime":null,"status":"Closed","active":false,"lastUpdate":"2020-09-15T11:33:12.290Z","name":"Voyage of The Little Mermaid - Temporarily Unavailable","fastPass":false,"meta":{"longitude":-81.5608484102,"latitude":28.3574862147,"singleRider":false}},{"id":"WaltDisneyWorldHollywoodStudios_90001216","waitTime":null,"status":"Operating","active":true,"lastUpdate":"2021-01-15T22:51:32.206Z","name":"50's Prime Time Café","meta":{"longitude":-81.558881,"latitude":28.357444,"type":"RESTAURANT","singleRider":false},"fastPass":false},{"id":"WaltDisneyWorldHollywoodStudios_90001744","waitTime":null,"status":"Closed","active":false,"lastUpdate":"2021-01-03T21:23:32.783Z","meta":{"longitude":-81.558975,"singleRider":false,"type":"RESTAURANT","latitude":28.357611},"fastPass":false,"name":"Hollywood & Vine"},{"id":"WaltDisneyWorldHollywoodStudios_90001865","waitTime":null,"status":"Operating","active":true,"lastUpdate":"2021-01-17T21:34:59.285Z","fastPass":false,"meta":{"type":"RESTAURANT","singleRider":false,"longitude":-81.559012,"latitude":28.354532},"name":"Mama Melrose's Ristorante Italiano"},{"id":"WaltDisneyWorldHollywoodStudios_90002114","waitTime":null,"status":"Operating","active":true,"lastUpdate":"2021-01-15T23:46:11.409Z","name":"Sci-Fi Dine-In Theater Restaurant","meta":{"longitude":-81.559495,"singleRider":false,"type":"RESTAURANT","latitude":28.3559},"fastPass":false},{"id":"WaltDisneyWorldHollywoodStudios_90002245","waitTime":55,"status":"Operating","active":true,"lastUpdate":"2021-01-17T22:22:25.560Z","name":"The Hollywood Brown Derby","fastPass":false,"meta":{"latitude":28.357648,"longitude":-81.560297,"singleRider":false,"type":"RESTAURANT"}},{"id":"WaltDisneyWorldAnimalKingdom_17421326","waitTime":null,"status":"Closed","active":false,"lastUpdate":"2020-09-15T11:33:02.632Z","fastPass":false,"name":"Meet Favorite Disney Pals at Adventurers Outpost - Temporarily Unavailable","meta":{"latitude":28.357972,"longitude":-81.589796,"singleRider":false}},{"id":"WaltDisneyWorldAnimalKingdom_18069632","waitTime":null,"status":"Operating","active":true,"lastUpdate":"2021-01-17T21:56:18.938Z","fastPass":false,"name":"Tiffins Restaurant","meta":{"type":"RESTAURANT","latitude":28.356846,"longitude":-81.591487,"singleRider":false}},{"id":"WaltDisneyWorldAnimalKingdom_18377778","waitTime":null,"status":"Operating","active":true,"lastUpdate":"2021-01-17T21:56:00.246Z","name":"Nomad Lounge","fastPass":false,"meta":{"latitude":28.356719,"longitude":-81.591487,"singleRider":false,"type":"RESTAURANT"}},{"id":"WaltDisneyWorldAnimalKingdom_18665185","waitTime":null,"status":"Closed","active":false,"lastUpdate":"2021-01-17T22:01:11.652Z","name":"Na'vi River Journey","fastPass":false,"meta":{"longitude":-81.591641,"latitude":28.355257,"type":"ATTRACTION","singleRider":false}},{"id":"WaltDisneyWorldAnimalKingdom_18665186","waitTime":null,"status":"Closed","active":false,"lastUpdate":"2021-01-17T22:01:12.237Z","name":"Avatar Flight of Passage","fastPass":false,"meta":{"type":"ATTRACTION","latitude":28.355554,"singleRider":false,"longitude":-81.592147,"unsuitableForPregnantPeople":true}},{"id":"WaltDisneyWorldAnimalKingdom_19330300","waitTime":null,"status":"Closed","active":false,"lastUpdate":"2021-01-03T21:23:41.561Z","fastPass":false,"meta":{"latitude":28.365188,"type":"ATTRACTION","singleRider":false,"longitude":-81.588669},"name":"The Animation Experience at Conservation Station"},{"id":"WaltDisneyWorldAnimalKingdom_26068","waitTime":null,"status":"Closed","active":false,"lastUpdate":"2021-01-17T22:01:12.892Z","name":"Expedition Everest - Legend of the Forbidden Mountain","meta":{"type":"ATTRACTION","unsuitableForPregnantPeople":true,"latitude":28.3584769119,"singleRider":false,"longitude":-81.5873781396},"fastPass":false},{"id":"WaltDisneyWorldAnimalKingdom_80010123","waitTime":null,"status":"Closed","active":false,"lastUpdate":"2021-01-17T22:01:15.312Z","fastPass":false,"meta":{"latitude":28.355307,"unsuitableForPregnantPeople":true,"type":"ATTRACTION","longitude":-81.588444,"singleRider":false},"name":"DINOSAUR"},{"id":"WaltDisneyWorldAnimalKingdom_80010150","waitTime":null,"status":"Closed","active":false,"lastUpdate":"2021-01-17T22:01:13.530Z","fastPass":false,"name":"It's Tough to be a Bug!","meta":{"singleRider":false,"latitude":28.357488,"longitude":-81.590118,"type":"ATTRACTION"}},{"id":"WaltDisneyWorldAnimalKingdom_80010154","waitTime":null,"status":"Refurbishment","active":false,"lastUpdate":"2021-01-04T05:02:16.994Z","fastPass":false,"name":"Kali River Rapids","meta":{"latitude":28.3587834288,"unsuitableForPregnantPeople":true,"longitude":-81.5889412165,"singleRider":false,"type":"ATTRACTION"}},{"id":"WaltDisneyWorldAnimalKingdom_80010157","waitTime":null,"status":"Closed","active":false,"lastUpdate":"2021-01-17T22:01:14.696Z","name":"Kilimanjaro Safaris","meta":{"latitude":28.359331,"unsuitableForPregnantPeople":true,"type":"ATTRACTION","longitude":-81.59228,"singleRider":false},"fastPass":false},{"id":"WaltDisneyWorldAnimalKingdom_80010164","waitTime":null,"status":"Closed","active":false,"lastUpdate":"2021-01-17T22:02:43.184Z","name":"Maharajah Jungle Trek","meta":{"type":"ATTRACTION","latitude":28.359379,"longitude":-81.589019,"singleRider":false},"fastPass":false},{"id":"WaltDisneyWorldAnimalKingdom_80010175","waitTime":null,"status":"Closed","active":false,"lastUpdate":"2021-01-17T21:32:46.337Z","meta":{"type":"ATTRACTION","latitude":28.359954,"longitude":-81.592149,"singleRider":false},"name":"Gorilla Falls Exploration Trail","fastPass":false},{"id":"WaltDisneyWorldAnimalKingdom_80010203","waitTime":null,"status":"Closed","active":false,"lastUpdate":"2021-01-03T21:23:41.107Z","fastPass":false,"name":"The Boneyard - Temporarily Unavailable","meta":{"singleRider":false,"latitude":28.3566787564,"type":"ATTRACTION","longitude":-81.5884791864}},{"id":"WaltDisneyWorldAnimalKingdom_80010228","waitTime":null,"status":"Closed","active":false,"lastUpdate":"2021-01-17T22:02:43.760Z","name":"TriceraTop Spin","meta":{"singleRider":false,"type":"ATTRACTION","longitude":-81.588074,"latitude":28.356503},"fastPass":false},{"id":"WaltDisneyWorldAnimalKingdom_80010235","waitTime":null,"status":"Closed","active":false,"lastUpdate":"2021-01-17T21:32:47.475Z","name":"Wildlife Express Train","meta":{"latitude":28.3598097347,"longitude":-81.5914175464,"singleRider":false,"type":"ATTRACTION"},"fastPass":false},{"id":"WaltDisneyWorldMagicKingdom_136550","waitTime":null,"status":"Closed","active":false,"lastUpdate":"2021-01-03T21:24:21.706Z","meta":{"singleRider":false,"latitude":28.4183977566,"longitude":-81.5797358751,"type":"ATTRACTION"},"fastPass":false,"name":"Monsters, Inc. Laugh Floor - Temporarily Unavailable"},{"id":"WaltDisneyWorldMagicKingdom_15743682","waitTime":null,"status":"Closed","active":false,"lastUpdate":"2020-09-15T11:33:17.406Z","fastPass":false,"name":"Meet Dashing Disney Pals as Circus Stars at Pete’s Silly Side Show - Temporarily Unavailable","meta":{"singleRider":false,"longitude":-81.578932,"latitude":28.421282}},{"id":"WaltDisneyWorldMagicKingdom_15850196","waitTime":null,"status":"Closed","active":false,"lastUpdate":"2020-09-15T11:33:17.374Z","name":"Meet Mickey Mouse at Town Square Theater - Temporarily Unavailable","fastPass":false,"meta":{"latitude":28.416727,"longitude":-81.580746,"singleRider":false}},{"id":"WaltDisneyWorldMagicKingdom_16124144","waitTime":null,"status":"Operating","active":true,"lastUpdate":"2021-01-17T14:02:45.731Z","meta":{"type":"ATTRACTION","singleRider":false,"longitude":-81.583738382,"latitude":28.4182264646},"name":"Walt Disney's Enchanted Tiki Room","fastPass":false},{"id":"WaltDisneyWorldMagicKingdom_16414579","waitTime":null,"status":"Operating","active":true,"lastUpdate":"2021-01-17T14:02:45.122Z","meta":{"type":"ATTRACTION","latitude":28.416944,"longitude":-81.58163,"singleRider":false},"fastPass":false,"name":"Sorcerers of the Magic Kingdom"},{"id":"WaltDisneyWorldMagicKingdom_16491297","waitTime":20,"status":"Operating","active":true,"lastUpdate":"2021-01-17T22:08:42.932Z","meta":{"longitude":-81.5783907473,"unsuitableForPregnantPeople":true,"singleRider":false,"type":"ATTRACTION","latitude":28.4207661576},"name":"The Barnstormer","fastPass":false},{"id":"WaltDisneyWorldMagicKingdom_16491299","waitTime":null,"status":"Refurbishment","active":false,"lastUpdate":"2021-01-03T21:24:18.928Z","meta":{"longitude":-81.578368,"type":"ATTRACTION","singleRider":false,"latitude":28.420934},"name":"Walt Disney World Railroad - Fantasyland - Temporarily Unavailable","fastPass":false},{"id":"WaltDisneyWorldMagicKingdom_16660079","waitTime":null,"status":"Operating","active":true,"lastUpdate":"2021-01-16T00:56:58.298Z","name":"Be Our Guest Restaurant","fastPass":false,"meta":{"longitude":-81.5807074858,"type":"RESTAURANT","latitude":28.4212491492,"singleRider":false}},{"id":"WaltDisneyWorldMagicKingdom_16767263","waitTime":25,"status":"Operating","active":true,"lastUpdate":"2021-01-17T21:23:12.248Z","meta":{"type":"ATTRACTION","longitude":-81.5799752427,"singleRider":false,"latitude":28.4211203226},"name":"Under the Sea ~ Journey of The Little Mermaid","fastPass":false},{"id":"WaltDisneyWorldMagicKingdom_16767276","waitTime":null,"status":"Closed","active":false,"lastUpdate":"2021-01-03T21:24:20.764Z","fastPass":false,"meta":{"latitude":28.42099058,"longitude":-81.58093011,"singleRider":false,"type":"ATTRACTION"},"name":"Enchanted Tales with Belle - Temporarily Unavailable"},{"id":"WaltDisneyWorldMagicKingdom_16767284","waitTime":80,"status":"Operating","active":true,"lastUpdate":"2021-01-17T21:56:12.125Z","name":"Seven Dwarfs Mine Train","meta":{"type":"ATTRACTION","unsuitableForPregnantPeople":true,"singleRider":false,"longitude":-81.58031,"latitude":28.42037},"fastPass":false},{"id":"WaltDisneyWorldMagicKingdom_16874126","waitTime":null,"status":"Closed","active":false,"lastUpdate":"2020-09-15T11:33:17.441Z","fastPass":false,"name":"Meet Ariel at Her Grotto - Temporarily Unavailable","meta":{"latitude":28.420893275289,"singleRider":false,"longitude":-81.579613144497}},{"id":"WaltDisneyWorldMagicKingdom_17272158","waitTime":null,"status":"Closed","active":false,"lastUpdate":"2021-01-03T21:24:21.210Z","fastPass":false,"name":"A Pirate's Adventure ~ Treasures of the Seven Seas - Temporarily Unavailable","meta":{"longitude":-81.58466913,"singleRider":false,"type":"ATTRACTION","latitude":28.41837254}},{"id":"WaltDisneyWorldMagicKingdom_17505397","waitTime":null,"status":"Closed","active":false,"lastUpdate":"2020-09-15T11:33:17.486Z","name":"Meet Rapunzel and Tiana at Princess Fairytale Hall - Temporarily Unavailable","meta":{"longitude":-81.580917439677,"singleRider":false,"latitude":28.420045752669},"fastPass":false},{"id":"WaltDisneyWorldMagicKingdom_17752793","waitTime":null,"status":"Closed","active":false,"lastUpdate":"2020-09-15T11:33:17.444Z","name":"Meet Tinker Bell at Town Square Theater - Temporarily Unavailable","fastPass":false,"meta":{"singleRider":false,"longitude":-81.580815,"latitude":28.416727}},{"id":"WaltDisneyWorldMagicKingdom_18185631","waitTime":null,"status":"Operating","active":true,"lastUpdate":"2021-01-17T22:15:11.659Z","meta":{"singleRider":false,"type":"RESTAURANT","longitude":-81.582592,"latitude":28.418491},"name":"Jungle Navigation Co. LTD Skipper Canteen","fastPass":false},{"id":"WaltDisneyWorldMagicKingdom_18498503","waitTime":null,"status":"Closed","active":false,"lastUpdate":"2020-09-15T11:33:17.494Z","fastPass":false,"name":"Meet Cinderella and Elena at Princess Fairytale Hall - Temporarily Unavailable","meta":{"singleRider":false,"latitude":28.420012,"longitude":-81.58094}},{"id":"WaltDisneyWorldMagicKingdom_2219610","waitTime":null,"status":"Refurbishment","active":false,"lastUpdate":"2021-01-03T21:23:08.615Z","meta":{"latitude":28.41969,"longitude":-81.585078,"singleRider":false,"type":"ATTRACTION"},"fastPass":false,"name":"Walt Disney World Railroad - Frontierland - Temporarily Unavailable"},{"id":"WaltDisneyWorldMagicKingdom_387133","waitTime":null,"status":"Closed","active":false,"lastUpdate":"2020-09-15T11:33:17.492Z","name":"Meet Daring Disney Pals as Circus Stars at Pete's Silly Side Show - Temporarily Unavailable","fastPass":false,"meta":{"latitude":28.421282,"singleRider":false,"longitude":-81.578932}},{"id":"WaltDisneyWorldMagicKingdom_80010107","waitTime":45,"status":"Operating","active":true,"lastUpdate":"2021-01-17T20:08:46.165Z","name":"Astro Orbiter","fastPass":false,"meta":{"longitude":-81.5789887902,"type":"ATTRACTION","latitude":28.4184926179,"singleRider":false}},{"id":"WaltDisneyWorldMagicKingdom_80010110","waitTime":65,"status":"Operating","active":true,"lastUpdate":"2021-01-17T22:07:13.609Z","meta":{"longitude":-81.5846422864,"unsuitableForPregnantPeople":true,"type":"ATTRACTION","latitude":28.4199638504,"singleRider":false},"fastPass":false,"name":"Big Thunder Mountain Railroad"},{"id":"WaltDisneyWorldMagicKingdom_80010114","waitTime":30,"status":"Operating","active":true,"lastUpdate":"2021-01-17T21:13:11.768Z","name":"Buzz Lightyear's Space Ranger Spin","fastPass":false,"meta":{"type":"ATTRACTION","longitude":-81.5794086456,"singleRider":false,"latitude":28.4182868839}},{"id":"WaltDisneyWorldMagicKingdom_80010117","waitTime":40,"status":"Operating","active":true,"lastUpdate":"2021-01-17T22:17:44.831Z","name":"Prince Charming Regal Carrousel","meta":{"type":"ATTRACTION","longitude":-81.581255,"singleRider":false,"latitude":28.420169},"fastPass":false},{"id":"WaltDisneyWorldMagicKingdom_80010129","waitTime":15,"status":"Operating","active":true,"lastUpdate":"2021-01-17T22:11:46.139Z","meta":{"longitude":-81.5789473057,"latitude":28.420509033,"type":"ATTRACTION","singleRider":false},"name":"Dumbo the Flying Elephant","fastPass":false},{"id":"WaltDisneyWorldMagicKingdom_80010149","waitTime":40,"status":"Operating","active":true,"lastUpdate":"2021-01-17T22:18:13.567Z","meta":{"type":"ATTRACTION","longitude":-81.5820392026,"singleRider":false,"latitude":28.4204816402},"name":"\"it's a small world\"","fastPass":false},{"id":"WaltDisneyWorldMagicKingdom_80010153","waitTime":45,"status":"Operating","active":true,"lastUpdate":"2021-01-17T22:07:12.425Z","meta":{"singleRider":false,"longitude":-81.5834393157,"type":"ATTRACTION","latitude":28.41797818},"name":"Jungle Cruise","fastPass":false},{"id":"WaltDisneyWorldMagicKingdom_80010160","waitTime":null,"status":"Refurbishment","active":false,"lastUpdate":"2021-01-03T21:23:48.006Z","fastPass":false,"meta":{"singleRider":false,"type":"ATTRACTION","longitude":-81.5827982677,"latitude":28.4195563399},"name":"Liberty Square Riverboat"},{"id":"WaltDisneyWorldMagicKingdom_80010162","waitTime":15,"status":"Operating","active":true,"lastUpdate":"2021-01-17T20:26:12.151Z","fastPass":false,"meta":{"singleRider":false,"type":"ATTRACTION","longitude":-81.5798248916,"latitude":28.4200230397},"name":"Mad Tea Party"},{"id":"WaltDisneyWorldMagicKingdom_80010165","waitTime":null,"status":"Closed","active":false,"lastUpdate":"2021-01-03T21:24:20.300Z","meta":{"singleRider":false,"type":"ATTRACTION","latitude":28.4168698711,"longitude":-81.5815081252},"fastPass":false,"name":"Main Street Vehicles - Temporarily Unavailable"},{"id":"WaltDisneyWorldMagicKingdom_80010170","waitTime":20,"status":"Operating","active":true,"lastUpdate":"2021-01-17T22:20:44.662Z","name":"Mickey's PhilharMagic","fastPass":false,"meta":{"longitude":-81.5814839853,"type":"ATTRACTION","singleRider":false,"latitude":28.4200304909}},{"id":"WaltDisneyWorldMagicKingdom_80010176","waitTime":40,"status":"Operating","active":true,"lastUpdate":"2021-01-17T22:09:10.336Z","fastPass":false,"meta":{"longitude":-81.5818916811,"latitude":28.4202640272,"type":"ATTRACTION","singleRider":false},"name":"Peter Pan's Flight"},{"id":"WaltDisneyWorldMagicKingdom_80010177","waitTime":50,"status":"Operating","active":true,"lastUpdate":"2021-01-17T22:17:43.706Z","name":"Pirates of the Caribbean","fastPass":false,"meta":{"singleRider":false,"latitude":28.41796992,"longitude":-81.5842252,"type":"ATTRACTION"}},{"id":"WaltDisneyWorldMagicKingdom_80010190","waitTime":45,"status":"Operating","active":true,"lastUpdate":"2021-01-17T21:32:46.907Z","meta":{"longitude":-81.5781962872,"type":"ATTRACTION","latitude":28.4188341691,"unsuitableForPregnantPeople":true,"singleRider":false},"fastPass":false,"name":"Space Mountain"},{"id":"WaltDisneyWorldMagicKingdom_80010192","waitTime":30,"status":"Operating","active":true,"lastUpdate":"2021-01-17T22:08:13.696Z","meta":{"latitude":28.419418,"longitude":-81.58498,"type":"ATTRACTION","unsuitableForPregnantPeople":true,"singleRider":false},"fastPass":false,"name":"Splash Mountain"},{"id":"WaltDisneyWorldMagicKingdom_80010196","waitTime":null,"status":"Operating","active":true,"lastUpdate":"2021-01-17T14:02:48.953Z","name":"Swiss Family Treehouse","meta":{"singleRider":false,"type":"ATTRACTION","latitude":28.4184325517,"longitude":-81.5827982677},"fastPass":false},{"id":"WaltDisneyWorldMagicKingdom_80010208","waitTime":20,"status":"Operating","active":true,"lastUpdate":"2021-01-17T22:05:16.395Z","name":"Haunted Mansion","meta":{"singleRider":false,"latitude":28.4202,"longitude":-81.58288,"type":"ATTRACTION"},"fastPass":false},{"id":"WaltDisneyWorldMagicKingdom_80010210","waitTime":15,"status":"Operating","active":true,"lastUpdate":"2021-01-17T21:58:13.443Z","name":"The Magic Carpets of Aladdin","meta":{"latitude":28.41843,"type":"ATTRACTION","longitude":-81.583472,"singleRider":false},"fastPass":false},{"id":"WaltDisneyWorldMagicKingdom_80010213","waitTime":20,"status":"Operating","active":true,"lastUpdate":"2021-01-17T22:21:11.861Z","fastPass":false,"meta":{"singleRider":false,"type":"ATTRACTION","longitude":-81.580266,"latitude":28.420212},"name":"The Many Adventures of Winnie the Pooh"},{"id":"WaltDisneyWorldMagicKingdom_80010220","waitTime":null,"status":"Refurbishment","active":false,"lastUpdate":"2021-01-03T21:24:19.374Z","name":"Tom Sawyer Island","fastPass":false,"meta":{"latitude":28.419503,"singleRider":false,"longitude":-81.58428,"type":"ATTRACTION"}},{"id":"WaltDisneyWorldMagicKingdom_80010222","waitTime":10,"status":"Operating","active":true,"lastUpdate":"2021-01-17T21:59:14.385Z","name":"Tomorrowland Speedway","meta":{"singleRider":false,"latitude":28.419368,"longitude":-81.579302,"unsuitableForPregnantPeople":true,"type":"ATTRACTION"},"fastPass":false},{"id":"WaltDisneyWorldMagicKingdom_80010224","waitTime":null,"status":"Refurbishment","active":false,"lastUpdate":"2021-01-03T21:24:19.826Z","name":"Tomorrowland Transit Authority PeopleMover - Temporarily Unavailable","fastPass":false,"meta":{"longitude":-81.579033,"type":"ATTRACTION","latitude":28.418155,"singleRider":false}},{"id":"WaltDisneyWorldMagicKingdom_80010230","waitTime":null,"status":"Refurbishment","active":false,"lastUpdate":"2021-01-03T21:23:09.088Z","fastPass":false,"meta":{"type":"ATTRACTION","singleRider":false,"longitude":-81.581204,"latitude":28.416543},"name":"Walt Disney World Railroad - Main Street, U.S.A. - Temporarily Unavailable"},{"id":"WaltDisneyWorldMagicKingdom_80010232","waitTime":30,"status":"Operating","active":true,"lastUpdate":"2021-01-17T22:17:44.247Z","name":"Walt Disney's Carousel of Progress","fastPass":false,"meta":{"singleRider":false,"type":"ATTRACTION","longitude":-81.5790083064,"latitude":28.4180310951}},{"id":"WaltDisneyWorldMagicKingdom_80069748","waitTime":15,"status":"Operating","active":true,"lastUpdate":"2021-01-17T22:08:42.381Z","fastPass":false,"meta":{"singleRider":false,"longitude":-81.5837222887,"type":"ATTRACTION","latitude":28.4187861348},"name":"Country Bear Jamboree"},{"id":"WaltDisneyWorldMagicKingdom_80069754","waitTime":null,"status":"Operating","active":true,"lastUpdate":"2021-01-17T14:02:44.024Z","meta":{"latitude":28.4194484171,"singleRider":false,"longitude":-81.5823248578,"type":"ATTRACTION"},"name":"The Hall of Presidents","fastPass":false},{"id":"WaltDisneyWorldMagicKingdom_90001819","waitTime":null,"status":"Operating","active":true,"lastUpdate":"2021-01-17T22:18:18.232Z","fastPass":false,"name":"Liberty Tree Tavern","meta":{"latitude":28.4191196055,"type":"RESTAURANT","longitude":-81.5826159743,"singleRider":false}},{"id":"WaltDisneyWorldMagicKingdom_90002464","waitTime":null,"status":"Operating","active":true,"lastUpdate":"2021-01-13T23:39:46.541Z","name":"Cinderella's Royal Table","meta":{"longitude":-81.581101,"latitude":28.4195,"type":"RESTAURANT","singleRider":false},"fastPass":false},{"id":"WaltDisneyWorldMagicKingdom_90002660","waitTime":null,"status":"Operating","active":true,"lastUpdate":"2021-01-17T21:54:54.343Z","fastPass":false,"name":"The Crystal Palace","meta":{"latitude":28.4181214892,"singleRider":false,"longitude":-81.5818970259,"type":"RESTAURANT"}},{"id":"WaltDisneyWorldMagicKingdom_90002670","waitTime":null,"status":"Operating","active":true,"lastUpdate":"2021-01-17T21:42:23.914Z","meta":{"longitude":-81.5809394969,"type":"RESTAURANT","latitude":28.4180247703,"singleRider":false},"name":"The Plaza Restaurant","fastPass":false},{"id":"WaltDisneyWorldMagicKingdom_90002678","waitTime":null,"status":"Operating","active":true,"lastUpdate":"2021-01-17T20:04:30.072Z","name":"Tony's Town Square Restaurant","meta":{"longitude":-81.5807276023,"latitude":28.4169323426,"singleRider":false,"type":"RESTAURANT"},"fastPass":false},{"id":"WaltDisneyWorldEpcot_107785","waitTime":10,"status":"Operating","active":true,"lastUpdate":"2021-01-17T19:43:08.294Z","meta":{"singleRider":false,"latitude":28.374904,"longitude":-81.550852,"type":"ATTRACTION"},"name":"The Seas with Nemo & Friends","fastPass":false},{"id":"WaltDisneyWorldEpcot_17564219","waitTime":null,"status":"Closed","active":false,"lastUpdate":"2020-09-15T11:33:07.103Z","meta":{"singleRider":false,"latitude":28.37097,"longitude":-81.547134},"fastPass":false,"name":"Meet Anna and Elsa at Royal Sommerhus - Temporarily Unavailable"},{"id":"WaltDisneyWorldEpcot_17720675","waitTime":75,"status":"Operating","active":true,"lastUpdate":"2021-01-17T22:20:24.676Z","meta":{"longitude":-81.551645,"singleRider":false,"type":"RESTAURANT","latitude":28.368468},"name":"Spice Road Table","fastPass":false},{"id":"WaltDisneyWorldEpcot_18269694","waitTime":null,"status":"Operating","active":true,"lastUpdate":"2021-01-17T16:02:44.446Z","name":"Disney and Pixar Short Film Festival","meta":{"latitude":28.37263,"longitude":-81.55115,"type":"ATTRACTION","singleRider":false},"fastPass":false},{"id":"WaltDisneyWorldEpcot_18375495","waitTime":55,"status":"Operating","active":true,"lastUpdate":"2021-01-17T22:14:15.493Z","fastPass":false,"name":"Frozen Ever After","meta":{"longitude":-81.54653,"type":"ATTRACTION","latitude":28.370745,"singleRider":false}},{"id":"WaltDisneyWorldEpcot_19463785","waitTime":null,"status":"Operating","active":true,"lastUpdate":"2021-01-17T16:02:46.204Z","name":"Beauty and the Beast Sing-Along","fastPass":false,"meta":{"latitude":28.368864,"type":"ATTRACTION","longitude":-81.552978,"singleRider":false}},{"id":"WaltDisneyWorldEpcot_19473173","waitTime":null,"status":"Operating","active":true,"lastUpdate":"2021-01-17T16:02:43.316Z","fastPass":false,"name":"Awesome Planet","meta":{"latitude":28.374301,"singleRider":false,"type":"ATTRACTION","longitude":-81.552138}},{"id":"WaltDisneyWorldEpcot_20194","waitTime":45,"status":"Operating","active":true,"lastUpdate":"2021-01-17T21:22:11.751Z","meta":{"longitude":-81.552248,"latitude":28.373592,"singleRider":false,"type":"ATTRACTION"},"name":"Soarin' Around the World","fastPass":false},{"id":"WaltDisneyWorldEpcot_207395","waitTime":10,"status":"Operating","active":true,"lastUpdate":"2021-01-17T16:05:45.288Z","fastPass":false,"name":"Gran Fiesta Tour Starring The Three Caballeros","meta":{"longitude":-81.547368,"latitude":28.371649,"type":"ATTRACTION","singleRider":false}},{"id":"WaltDisneyWorldEpcot_62992","waitTime":null,"status":"Closed","active":false,"lastUpdate":"2021-01-03T21:23:09.564Z","name":"Turtle Talk With Crush - Temporarily Unavailable","meta":{"type":"ATTRACTION","longitude":-81.551047,"singleRider":false,"latitude":28.375255},"fastPass":false},{"id":"WaltDisneyWorldEpcot_80010145","waitTime":null,"status":"Closed","active":false,"lastUpdate":"2021-01-17T00:47:49.359Z","meta":{"type":"ATTRACTION","longitude":-81.552978,"latitude":28.368864,"singleRider":false},"name":"Impressions de France","fastPass":false},{"id":"WaltDisneyWorldEpcot_80010152","waitTime":15,"status":"Operating","active":true,"lastUpdate":"2021-01-17T22:14:49.616Z","meta":{"longitude":-81.551401,"type":"ATTRACTION","latitude":28.372994,"singleRider":false},"fastPass":false,"name":"Journey Into Imagination With Figment"},{"id":"WaltDisneyWorldEpcot_80010161","waitTime":25,"status":"Operating","active":true,"lastUpdate":"2021-01-17T22:11:43.316Z","fastPass":false,"meta":{"type":"ATTRACTION","longitude":-81.552301,"singleRider":false,"latitude":28.374245},"name":"Living with the Land"},{"id":"WaltDisneyWorldEpcot_80010173","waitTime":35,"status":"Operating","active":true,"lastUpdate":"2021-01-17T20:43:09.132Z","name":"Mission: SPACE","meta":{"latitude":28.373927,"singleRider":false,"unsuitableForPregnantPeople":true,"longitude":-81.547156,"type":"ATTRACTION"},"fastPass":false},{"id":"WaltDisneyWorldEpcot_80010174","waitTime":null,"status":"Operating","active":true,"lastUpdate":"2021-01-17T16:02:46.709Z","fastPass":false,"name":"Canada Far and Wide in Circle-Vision 360","meta":{"singleRider":false,"type":"ATTRACTION","longitude":-81.55196,"latitude":28.371694}},{"id":"WaltDisneyWorldEpcot_80010180","waitTime":null,"status":"Operating","active":true,"lastUpdate":"2021-01-17T16:53:46.601Z","fastPass":false,"meta":{"singleRider":false,"latitude":28.369791,"type":"ATTRACTION","longitude":-81.546381},"name":"Reflections of China"},{"id":"WaltDisneyWorldEpcot_80010191","waitTime":25,"status":"Operating","active":true,"lastUpdate":"2021-01-17T22:17:10.329Z","name":"Spaceship Earth","fastPass":false,"meta":{"longitude":-81.549401,"type":"ATTRACTION","latitude":28.375583,"singleRider":false}},{"id":"WaltDisneyWorldEpcot_80010199","waitTime":75,"status":"Operating","active":true,"lastUpdate":"2021-01-17T20:36:03.202Z","name":"Test Track","fastPass":false,"meta":{"unsuitableForPregnantPeople":true,"singleRider":true,"latitude":28.373228,"longitude":-81.547489,"type":"ATTRACTION"}},{"id":"WaltDisneyWorldEpcot_80010200","waitTime":null,"status":"Operating","active":true,"lastUpdate":"2021-01-17T16:02:45.514Z","name":"The American Adventure","meta":{"singleRider":false,"latitude":28.367517,"type":"ATTRACTION","longitude":-81.549446},"fastPass":false},{"id":"WaltDisneyWorldEpcot_90001292","waitTime":50,"status":"Operating","active":true,"lastUpdate":"2021-01-17T22:20:25.282Z","name":"Biergarten Restaurant","fastPass":false,"meta":{"singleRider":false,"latitude":28.368153,"longitude":-81.546819,"type":"RESTAURANT"}},{"id":"WaltDisneyWorldEpcot_90001416","waitTime":null,"status":"Operating","active":true,"lastUpdate":"2021-01-17T22:15:00.834Z","meta":{"latitude":28.375096,"type":"RESTAURANT","longitude":-81.550458,"singleRider":false},"name":"Coral Reef Restaurant","fastPass":false},{"id":"WaltDisneyWorldEpcot_90001798","waitTime":null,"status":"Operating","active":true,"lastUpdate":"2021-01-17T17:31:40.530Z","name":"Le Cellier Steakhouse","meta":{"latitude":28.371657,"singleRider":false,"longitude":-81.551512,"type":"RESTAURANT"},"fastPass":false},{"id":"WaltDisneyWorldEpcot_90002084","waitTime":null,"status":"Operating","active":true,"lastUpdate":"2021-01-17T22:22:28.134Z","name":"Rose & Crown Dining Room","meta":{"type":"RESTAURANT","longitude":-81.551684,"latitude":28.370508,"singleRider":false},"fastPass":false},{"id":"WaltDisneyWorldEpcot_90002237","waitTime":null,"status":"Operating","active":true,"lastUpdate":"2021-01-17T21:52:31.211Z","name":"Garden Grill Restaurant","meta":{"longitude":-81.552324,"type":"RESTAURANT","singleRider":false,"latitude":28.374039},"fastPass":false},{"id":"WaltDisneyWorldHollywoodStudios_136","waitTime":null,"status":"Closed","active":false,"lastUpdate":"2020-09-15T11:33:12.086Z","name":"Indiana Jones™ Epic Stunt Spectacular! - Temporarily Unavailable","fastPass":false,"meta":{"longitude":-81.5586114479,"singleRider":false,"latitude":28.3566700675}},{"id":"WaltDisneyWorldHollywoodStudios_17842841","waitTime":null,"status":"Closed","active":false,"lastUpdate":"2020-09-15T11:33:12.046Z","name":"For the First Time in Forever: A Frozen Sing-Along Celebration - Temporarily Unavailable","meta":{"singleRider":false,"longitude":-81.5596944094,"latitude":28.3568243464},"fastPass":false},{"id":"WaltDisneyWorldHollywoodStudios_18189394","waitTime":null,"status":"Closed","active":false,"lastUpdate":"2020-09-15T11:33:12.077Z","name":"Star Wars Launch Bay: Meet Chewbacca - Temporarily Unavailable","fastPass":false,"meta":{"longitude":-81.560938,"latitude":28.35796,"singleRider":false}},{"id":"WaltDisneyWorldHollywoodStudios_18189398","waitTime":null,"status":"Closed","active":false,"lastUpdate":"2020-09-15T11:33:12.069Z","fastPass":false,"meta":{"singleRider":false,"latitude":28.35796,"longitude":-81.560938},"name":"Star Wars Launch Bay: Encounter Darth Vader - Temporarily Unavailable"},{"id":"WaltDisneyWorldHollywoodStudios_18360041","waitTime":null,"status":"Closed","active":false,"lastUpdate":"2021-01-03T21:23:31.878Z","name":"Star Wars Launch Bay Theater - Temporarily Unavailable","meta":{"singleRider":false,"type":"ATTRACTION","longitude":-81.561061,"latitude":28.357821},"fastPass":false},{"id":"WaltDisneyWorldHollywoodStudios_18368385","waitTime":null,"status":"Closed","active":false,"lastUpdate":"2020-09-15T11:33:12.104Z","name":"Celebrity Spotlight - Temporarily Unavailable","fastPass":false,"meta":{"singleRider":false,"longitude":-81.559158,"latitude":28.356072}},{"id":"WaltDisneyWorldHollywoodStudios_18368386","waitTime":null,"status":"Closed","active":false,"lastUpdate":"2020-09-15T11:33:12.095Z","fastPass":false,"meta":{"latitude":28.356068,"longitude":-81.559479,"singleRider":false},"name":"Mickey and Minnie Starring in Red Carpet Dreams - Temporarily Unavailable"},{"id":"WaltDisneyWorldHollywoodStudios_18669338","waitTime":null,"status":"Closed","active":false,"lastUpdate":"2020-09-15T11:33:12.121Z","fastPass":false,"name":"BB-8 Astromech on Duty - Temporarily Unavailable","meta":{"longitude":-81.560938,"singleRider":false,"latitude":28.35796}},{"id":"WaltDisneyWorldHollywoodStudios_18770880","waitTime":15,"status":"Operating","active":true,"lastUpdate":"2021-01-17T15:44:41.602Z","fastPass":false,"name":"Walt Disney Presents","meta":{"singleRider":false,"type":"ATTRACTION","latitude":28.35686,"longitude":-81.560982}},{"id":"WaltDisneyWorldHollywoodStudios_18904138","waitTime":65,"status":"Operating","active":true,"lastUpdate":"2021-01-17T22:22:12.881Z","name":"Slinky Dog Dash","fastPass":false,"meta":{"longitude":-81.562786,"latitude":28.356245,"singleRider":false,"unsuitableForPregnantPeople":true,"type":"ATTRACTION"}},{"id":"WaltDisneyWorldHollywoodStudios_18904172","waitTime":10,"status":"Operating","active":true,"lastUpdate":"2021-01-17T22:17:10.944Z","name":"Alien Swirling Saucers","meta":{"singleRider":false,"latitude":28.355385,"longitude":-81.562379,"type":"ATTRACTION"},"fastPass":false},{"id":"WaltDisneyWorldHollywoodStudios_19025682","waitTime":null,"status":"Operating","active":true,"lastUpdate":"2020-09-15T14:02:51.117Z","fastPass":false,"name":"Star Wars: Galaxy's Edge","meta":{"latitude":28.355234,"longitude":-81.559787,"singleRider":false}},{"id":"WaltDisneyWorldHollywoodStudios_19152250","waitTime":null,"status":"Closed","active":false,"lastUpdate":"2020-09-15T11:33:12.147Z","meta":{"longitude":-81.560984,"latitude":28.356865,"singleRider":false},"name":"Meet Sulley at Walt Disney Presents - Temporarily Unavailable","fastPass":false},{"id":"WaltDisneyWorldHollywoodStudios_19259335","waitTime":35,"status":"Operating","active":true,"lastUpdate":"2021-01-17T22:14:50.232Z","name":"Mickey & Minnie's Runaway Railway","meta":{"singleRider":false,"longitude":-81.5605667783,"type":"ATTRACTION","latitude":28.3566783801},"fastPass":false},{"id":"WaltDisneyWorldHollywoodStudios_19263735","waitTime":45,"status":"Operating","active":true,"lastUpdate":"2021-01-17T22:21:09.271Z","fastPass":false,"name":"Millennium Falcon: Smugglers Run","meta":{"singleRider":true,"type":"ATTRACTION","longitude":-81.561689,"unsuitableForPregnantPeople":true,"latitude":28.353889}},{"id":"WaltDisneyWorldHollywoodStudios_19263736","waitTime":null,"status":"Operating","active":true,"lastUpdate":"2021-01-17T14:00:11.235Z","name":"Star Wars: Rise of the Resistance","fastPass":false,"meta":{"longitude":-81.560457,"type":"ATTRACTION","latitude":28.354884,"singleRider":false,"unsuitableForPregnantPeople":true}},{"id":"WaltDisneyWorldHollywoodStudios_19267226","waitTime":null,"status":"Closed","active":false,"lastUpdate":"2021-01-03T21:23:32.330Z","fastPass":false,"meta":{"singleRider":false,"longitude":-81.562075,"type":"RESTAURANT","latitude":28.354095},"name":"Oga's Cantina at the Walt Disney World Resort"},{"id":"WaltDisneyWorldHollywoodStudios_19276204","waitTime":15,"status":"Operating","active":true,"lastUpdate":"2021-01-17T19:20:46.982Z","fastPass":false,"meta":{"longitude":-81.560707,"singleRider":false,"latitude":28.360035,"type":"ATTRACTION"},"name":"Lightning McQueen's Racing Academy"},{"id":"WaltDisneyWorldHollywoodStudios_19497952","waitTime":10,"status":"Operating","active":true,"lastUpdate":"2021-01-17T19:59:43.328Z","fastPass":false,"name":"Vacation Fun - An Original Animated Short with Mickey & Minnie","meta":{"longitude":-81.559031,"singleRider":false,"type":"ATTRACTION","latitude":28.356316}},{"id":"WaltDisneyWorldHollywoodStudios_19582977","waitTime":null,"status":"Closed","active":false,"lastUpdate":"2020-09-15T11:33:12.211Z","name":"Disney Society Orchestra and Friends","fastPass":false,"meta":{"longitude":-81.5595985008,"singleRider":false,"latitude":28.3589162565}},{"id":"WaltDisneyWorldHollywoodStudios_19583373","waitTime":null,"status":"Closed","active":false,"lastUpdate":"2020-09-15T11:33:12.219Z","meta":{"singleRider":false,"latitude":28.357613,"longitude":-81.560567},"name":"Disney Junior Play and Dance!","fastPass":false},{"id":"WaltDisneyWorldHollywoodStudios_202731","waitTime":null,"status":"Closed","active":false,"lastUpdate":"2020-09-15T11:33:12.226Z","meta":{"latitude":28.357613,"singleRider":false,"longitude":-81.560567},"name":"Disney Junior Dance Party! - Temporarily Unavailable","fastPass":false},{"id":"WaltDisneyWorldHollywoodStudios_209857","waitTime":25,"status":"Operating","active":true,"lastUpdate":"2021-01-17T22:00:13.212Z","fastPass":false,"meta":{"singleRider":false,"longitude":-81.561894,"latitude":28.356404,"type":"ATTRACTION"},"name":"Toy Story Mania!"},{"id":"WaltDisneyWorldHollywoodStudios_80010151","waitTime":15,"status":"Operating","active":true,"lastUpdate":"2021-01-17T21:24:11.651Z","name":"Muppet*Vision 3D","fastPass":false,"meta":{"singleRider":false,"type":"ATTRACTION","latitude":28.3550644708,"longitude":-81.5594643904}},{"id":"WaltDisneyWorldHollywoodStudios_80010182","waitTime":45,"status":"Operating","active":true,"lastUpdate":"2021-01-17T22:13:09.464Z","fastPass":false,"name":"Rock 'n' Roller Coaster Starring Aerosmith","meta":{"latitude":28.359712,"unsuitableForPregnantPeople":true,"longitude":-81.56059,"singleRider":true,"type":"ATTRACTION"}},{"id":"WaltDisneyWorldHollywoodStudios_80010193","waitTime":20,"status":"Operating","active":true,"lastUpdate":"2021-01-17T22:16:11.250Z","name":"Star Tours – The Adventures Continue","fastPass":false,"meta":{"longitude":-81.558891,"singleRider":false,"type":"ATTRACTION","latitude":28.355695,"unsuitableForPregnantPeople":true}},{"id":"WaltDisneyWorldHollywoodStudios_80010218","waitTime":85,"status":"Operating","active":true,"lastUpdate":"2021-01-17T21:56:44.163Z","meta":{"singleRider":false,"latitude":28.359553,"longitude":-81.559772,"type":"ATTRACTION","unsuitableForPregnantPeople":true},"name":"The Twilight Zone Tower of Terror™","fastPass":false},{"id":"WaltDisneyWorldHollywoodStudios_80010848","waitTime":null,"status":"Closed","active":false,"lastUpdate":"2020-09-15T11:33:12.284Z","name":"Beauty and the Beast-Live on Stage - Temporarily Unavailable","fastPass":false,"meta":{"singleRider":false,"latitude":28.3589162565,"longitude":-81.5595985008}},{"id":"WaltDisneyWorldHollywoodStudios_80010896","waitTime":null,"status":"Closed","active":false,"lastUpdate":"2020-09-15T11:33:12.290Z","name":"Voyage of The Little Mermaid - Temporarily Unavailable","fastPass":false,"meta":{"longitude":-81.5608484102,"latitude":28.3574862147,"singleRider":false}},{"id":"WaltDisneyWorldHollywoodStudios_90001216","waitTime":null,"status":"Operating","active":true,"lastUpdate":"2021-01-15T22:51:32.206Z","name":"50's Prime Time Café","meta":{"longitude":-81.558881,"latitude":28.357444,"type":"RESTAURANT","singleRider":false},"fastPass":false},{"id":"WaltDisneyWorldHollywoodStudios_90001744","waitTime":null,"status":"Closed","active":false,"lastUpdate":"2021-01-03T21:23:32.783Z","meta":{"longitude":-81.558975,"singleRider":false,"type":"RESTAURANT","latitude":28.357611},"fastPass":false,"name":"Hollywood & Vine"},{"id":"WaltDisneyWorldHollywoodStudios_90001865","waitTime":null,"status":"Operating","active":true,"lastUpdate":"2021-01-17T21:34:59.285Z","fastPass":false,"meta":{"type":"RESTAURANT","singleRider":false,"longitude":-81.559012,"latitude":28.354532},"name":"Mama Melrose's Ristorante Italiano"},{"id":"WaltDisneyWorldHollywoodStudios_90002114","waitTime":null,"status":"Operating","active":true,"lastUpdate":"2021-01-15T23:46:11.409Z","name":"Sci-Fi Dine-In Theater Restaurant","meta":{"longitude":-81.559495,"singleRider":false,"type":"RESTAURANT","latitude":28.3559},"fastPass":false},{"id":"WaltDisneyWorldHollywoodStudios_90002245","waitTime":55,"status":"Operating","active":true,"lastUpdate":"2021-01-17T22:22:25.560Z","name":"The Hollywood Brown Derby","fastPass":false,"meta":{"latitude":28.357648,"longitude":-81.560297,"singleRider":false,"type":"RESTAURANT"}},{"id":"WaltDisneyWorldAnimalKingdom_17421326","waitTime":null,"status":"Closed","active":false,"lastUpdate":"2020-09-15T11:33:02.632Z","fastPass":false,"name":"Meet Favorite Disney Pals at Adventurers Outpost - Temporarily Unavailable","meta":{"latitude":28.357972,"longitude":-81.589796,"singleRider":false}},{"id":"WaltDisneyWorldAnimalKingdom_18069632","waitTime":null,"status":"Operating","active":true,"lastUpdate":"2021-01-17T21:56:18.938Z","fastPass":false,"name":"Tiffins Restaurant","meta":{"type":"RESTAURANT","latitude":28.356846,"longitude":-81.591487,"singleRider":false}},{"id":"WaltDisneyWorldAnimalKingdom_18377778","waitTime":null,"status":"Operating","active":true,"lastUpdate":"2021-01-17T21:56:00.246Z","name":"Nomad Lounge","fastPass":false,"meta":{"latitude":28.356719,"longitude":-81.591487,"singleRider":false,"type":"RESTAURANT"}},{"id":"WaltDisneyWorldAnimalKingdom_18665185","waitTime":null,"status":"Closed","active":false,"lastUpdate":"2021-01-17T22:01:11.652Z","name":"Na'vi River Journey","fastPass":false,"meta":{"longitude":-81.591641,"latitude":28.355257,"type":"ATTRACTION","singleRider":false}},{"id":"WaltDisneyWorldAnimalKingdom_18665186","waitTime":null,"status":"Closed","active":false,"lastUpdate":"2021-01-17T22:01:12.237Z","name":"Avatar Flight of Passage","fastPass":false,"meta":{"type":"ATTRACTION","latitude":28.355554,"singleRider":false,"longitude":-81.592147,"unsuitableForPregnantPeople":true}},{"id":"WaltDisneyWorldAnimalKingdom_19330300","waitTime":null,"status":"Closed","active":false,"lastUpdate":"2021-01-03T21:23:41.561Z","fastPass":false,"meta":{"latitude":28.365188,"type":"ATTRACTION","singleRider":false,"longitude":-81.588669},"name":"The Animation Experience at Conservation Station"},{"id":"WaltDisneyWorldAnimalKingdom_26068","waitTime":null,"status":"Closed","active":false,"lastUpdate":"2021-01-17T22:01:12.892Z","name":"Expedition Everest - Legend of the Forbidden Mountain","meta":{"type":"ATTRACTION","unsuitableForPregnantPeople":true,"latitude":28.3584769119,"singleRider":false,"longitude":-81.5873781396},"fastPass":false},{"id":"WaltDisneyWorldAnimalKingdom_80010123","waitTime":null,"status":"Closed","active":false,"lastUpdate":"2021-01-17T22:01:15.312Z","fastPass":false,"meta":{"latitude":28.355307,"unsuitableForPregnantPeople":true,"type":"ATTRACTION","longitude":-81.588444,"singleRider":false},"name":"DINOSAUR"},{"id":"WaltDisneyWorldAnimalKingdom_80010150","waitTime":null,"status":"Closed","active":false,"lastUpdate":"2021-01-17T22:01:13.530Z","fastPass":false,"name":"It's Tough to be a Bug!","meta":{"singleRider":false,"latitude":28.357488,"longitude":-81.590118,"type":"ATTRACTION"}},{"id":"WaltDisneyWorldAnimalKingdom_80010154","waitTime":null,"status":"Refurbishment","active":false,"lastUpdate":"2021-01-04T05:02:16.994Z","fastPass":false,"name":"Kali River Rapids","meta":{"latitude":28.3587834288,"unsuitableForPregnantPeople":true,"longitude":-81.5889412165,"singleRider":false,"type":"ATTRACTION"}},{"id":"WaltDisneyWorldAnimalKingdom_80010157","waitTime":null,"status":"Closed","active":false,"lastUpdate":"2021-01-17T22:01:14.696Z","name":"Kilimanjaro Safaris","meta":{"latitude":28.359331,"unsuitableForPregnantPeople":true,"type":"ATTRACTION","longitude":-81.59228,"singleRider":false},"fastPass":false},{"id":"WaltDisneyWorldAnimalKingdom_80010164","waitTime":null,"status":"Closed","active":false,"lastUpdate":"2021-01-17T22:02:43.184Z","name":"Maharajah Jungle Trek","meta":{"type":"ATTRACTION","latitude":28.359379,"longitude":-81.589019,"singleRider":false},"fastPass":false},{"id":"WaltDisneyWorldAnimalKingdom_80010175","waitTime":null,"status":"Closed","active":false,"lastUpdate":"2021-01-17T21:32:46.337Z","meta":{"type":"ATTRACTION","latitude":28.359954,"longitude":-81.592149,"singleRider":false},"name":"Gorilla Falls Exploration Trail","fastPass":false},{"id":"WaltDisneyWorldAnimalKingdom_80010203","waitTime":null,"status":"Closed","active":false,"lastUpdate":"2021-01-03T21:23:41.107Z","fastPass":false,"name":"The Boneyard - Temporarily Unavailable","meta":{"singleRider":false,"latitude":28.3566787564,"type":"ATTRACTION","longitude":-81.5884791864}},{"id":"WaltDisneyWorldAnimalKingdom_80010228","waitTime":null,"status":"Closed","active":false,"lastUpdate":"2021-01-17T22:02:43.760Z","name":"TriceraTop Spin","meta":{"singleRider":false,"type":"ATTRACTION","longitude":-81.588074,"latitude":28.356503},"fastPass":false},{"id":"WaltDisneyWorldAnimalKingdom_80010235","waitTime":null,"status":"Closed","active":false,"lastUpdate":"2021-01-17T21:32:47.475Z","name":"Wildlife Express Train","meta":{"latitude":28.3598097347,"longitude":-81.5914175464,"singleRider":false,"type":"ATTRACTION"},"fastPass":false}]