[{"id":"WaltDisneyWorldMagicKingdom_136550","waitTime":null,"status":"Closed","active":false,"lastUpdate":"2021-01-03T21:24:21.706Z","meta":{"singleRider":false,"latitude":28.4183977566,"type":"ATTRACTION","longitude":-81.5797358751},"name":"Monsters, Inc. Laugh Floor - Temporarily Unavailable","fastPass":false},{"id":"WaltDisneyWorldMagicKingdom_15743682","waitTime":null,"status":"Closed","active":false,"lastUpdate":"2020-09-15T11:33:17.406Z","name":"Meet Dashing Disney Pals as Circus Stars at Pete’s Silly Side Show - Temporarily Unavailable","fastPass":false,"meta":{"singleRider":false,"latitude":28.421282,"longitude":-81.578932}},{"id":"WaltDisneyWorldMagicKingdom_15850196","waitTime":null,"status":"Closed","active":false,"lastUpdate":"2020-09-15T11:33:17.374Z","fastPass":false,"meta":{"latitude":28.416727,"longitude":-81.580746,"singleRider":false},"name":"Meet Mickey Mouse at Town Square Theater - Temporarily Unavailable"},{"id":"WaltDisneyWorldMagicKingdom_16124144","waitTime":null,"status":"Closed","active":false,"lastUpdate":"2021-01-21T00:03:02.864Z","name":"Walt Disney's Enchanted Tiki Room","fastPass":false,"meta":{"type":"ATTRACTION","singleRider":false,"longitude":-81.583738382,"latitude":28.4182264646}},{"id":"WaltDisneyWorldMagicKingdom_16414579","waitTime":null,"status":"Closed","active":false,"lastUpdate":"2021-01-20T23:03:02.334Z","name":"Sorcerers of the Magic Kingdom","fastPass":false,"meta":{"singleRider":false,"type":"ATTRACTION","longitude":-81.58163,"latitude":28.416944}},{"id":"WaltDisneyWorldMagicKingdom_16491297","waitTime":null,"status":"Closed","active":false,"lastUpdate":"2021-01-21T00:01:09.179Z","meta":{"longitude":-81.5783907473,"singleRider":false,"unsuitableForPregnantPeople":true,"type":"ATTRACTION","latitude":28.4207661576},"name":"The Barnstormer","fastPass":false},{"id":"WaltDisneyWorldMagicKingdom_16491299","waitTime":null,"status":"Refurbishment","active":false,"lastUpdate":"2021-01-03T21:24:18.928Z","fastPass":false,"name":"Walt Disney World Railroad - Fantasyland - Temporarily Unavailable","meta":{"type":"ATTRACTION","singleRider":false,"longitude":-81.578368,"latitude":28.420934}},{"id":"WaltDisneyWorldMagicKingdom_16660079","waitTime":null,"status":"Operating","active":true,"lastUpdate":"2021-01-20T19:37:16.768Z","name":"Be Our Guest Restaurant","fastPass":false,"meta":{"type":"RESTAURANT","longitude":-81.5807074858,"singleRider":false,"latitude":28.4212491492}},{"id":"WaltDisneyWorldMagicKingdom_16767263","waitTime":null,"status":"Closed","active":false,"lastUpdate":"2021-01-21T00:01:03.234Z","meta":{"longitude":-81.5799752427,"singleRider":false,"type":"ATTRACTION","latitude":28.4211203226},"name":"Under the Sea ~ Journey of The Little Mermaid","fastPass":false},{"id":"WaltDisneyWorldMagicKingdom_16767276","waitTime":null,"status":"Closed","active":false,"lastUpdate":"2021-01-03T21:24:20.764Z","meta":{"longitude":-81.58093011,"singleRider":false,"type":"ATTRACTION","latitude":28.42099058},"fastPass":false,"name":"Enchanted Tales with Belle - Temporarily Unavailable"},{"id":"WaltDisneyWorldMagicKingdom_16767284","waitTime":null,"status":"Closed","active":false,"lastUpdate":"2021-01-21T00:01:09.718Z","name":"Seven Dwarfs Mine Train","meta":{"longitude":-81.58031,"singleRider":false,"latitude":28.42037,"unsuitableForPregnantPeople":true,"type":"ATTRACTION"},"fastPass":false},{"id":"WaltDisneyWorldMagicKingdom_16874126","waitTime":null,"status":"Closed","active":false,"lastUpdate":"2020-09-15T11:33:17.441Z","fastPass":false,"meta":{"singleRider":false,"longitude":-81.579613144497,"latitude":28.420893275289},"name":"Meet Ariel at Her Grotto - Temporarily Unavailable"},{"id":"WaltDisneyWorldMagicKingdom_17272158","waitTime":null,"status":"Closed","active":false,"lastUpdate":"2021-01-03T21:24:21.210Z","name":"A Pirate's Adventure ~ Treasures of the Seven Seas - Temporarily Unavailable","fastPass":false,"meta":{"singleRider":false,"type":"ATTRACTION","longitude":-81.58466913,"latitude":28.41837254}},{"id":"WaltDisneyWorldMagicKingdom_17505397","waitTime":null,"status":"Closed","active":false,"lastUpdate":"2020-09-15T11:33:17.486Z","fastPass":false,"name":"Meet Rapunzel and Tiana at Princess Fairytale Hall - Temporarily Unavailable","meta":{"longitude":-81.580917439677,"singleRider":false,"latitude":28.420045752669}},{"id":"WaltDisneyWorldMagicKingdom_17752793","waitTime":null,"status":"Closed","active":false,"lastUpdate":"2020-09-15T11:33:17.444Z","fastPass":false,"meta":{"latitude":28.416727,"longitude":-81.580815,"singleRider":false},"name":"Meet Tinker Bell at Town Square Theater - Temporarily Unavailable"},{"id":"WaltDisneyWorldMagicKingdom_18185631","waitTime":null,"status":"Operating","active":true,"lastUpdate":"2021-01-20T23:52:37.799Z","fastPass":false,"meta":{"singleRider":false,"longitude":-81.582592,"type":"RESTAURANT","latitude":28.418491},"name":"Jungle Navigation Co. LTD Skipper Canteen"},{"id":"WaltDisneyWorldMagicKingdom_18498503","waitTime":null,"status":"Closed","active":false,"lastUpdate":"2020-09-15T11:33:17.494Z","fastPass":false,"name":"Meet Cinderella and Elena at Princess Fairytale Hall - Temporarily Unavailable","meta":{"singleRider":false,"latitude":28.420012,"longitude":-81.58094}},{"id":"WaltDisneyWorldMagicKingdom_2219610","waitTime":null,"status":"Refurbishment","active":false,"lastUpdate":"2021-01-03T21:23:08.615Z","name":"Walt Disney World Railroad - Frontierland - Temporarily Unavailable","meta":{"singleRider":false,"longitude":-81.585078,"type":"ATTRACTION","latitude":28.41969},"fastPass":false},{"id":"WaltDisneyWorldMagicKingdom_387133","waitTime":null,"status":"Closed","active":false,"lastUpdate":"2020-09-15T11:33:17.492Z","fastPass":false,"meta":{"latitude":28.421282,"longitude":-81.578932,"singleRider":false},"name":"Meet Daring Disney Pals as Circus Stars at Pete's Silly Side Show - Temporarily Unavailable"},{"id":"WaltDisneyWorldMagicKingdom_80010107","waitTime":null,"status":"Closed","active":false,"lastUpdate":"2021-01-21T00:03:04.647Z","name":"Astro Orbiter","fastPass":false,"meta":{"longitude":-81.5789887902,"type":"ATTRACTION","latitude":28.4184926179,"singleRider":false}},{"id":"WaltDisneyWorldMagicKingdom_80010110","waitTime":null,"status":"Closed","active":false,"lastUpdate":"2021-01-21T00:01:11.075Z","meta":{"latitude":28.4199638504,"longitude":-81.5846422864,"singleRider":false,"unsuitableForPregnantPeople":true,"type":"ATTRACTION"},"name":"Big Thunder Mountain Railroad","fastPass":false},{"id":"WaltDisneyWorldMagicKingdom_80010114","waitTime":null,"status":"Closed","active":false,"lastUpdate":"2021-01-21T00:01:14.682Z","fastPass":false,"meta":{"singleRider":false,"type":"ATTRACTION","longitude":-81.5794086456,"latitude":28.4182868839},"name":"Buzz Lightyear's Space Ranger Spin"},{"id":"WaltDisneyWorldMagicKingdom_80010117","waitTime":null,"status":"Closed","active":false,"lastUpdate":"2021-01-21T00:03:03.409Z","fastPass":false,"name":"Prince Charming Regal Carrousel","meta":{"longitude":-81.581255,"latitude":28.420169,"type":"ATTRACTION","singleRider":false}},{"id":"WaltDisneyWorldMagicKingdom_80010129","waitTime":null,"status":"Closed","active":false,"lastUpdate":"2021-01-21T00:01:15.211Z","name":"Dumbo the Flying Elephant","fastPass":false,"meta":{"singleRider":false,"type":"ATTRACTION","latitude":28.420509033,"longitude":-81.5789473057}},{"id":"WaltDisneyWorldMagicKingdom_80010149","waitTime":null,"status":"Closed","active":false,"lastUpdate":"2021-01-21T00:01:15.731Z","name":"\"it's a small world\"","meta":{"singleRider":false,"longitude":-81.5820392026,"type":"ATTRACTION","latitude":28.4204816402},"fastPass":false},{"id":"WaltDisneyWorldMagicKingdom_80010153","waitTime":null,"status":"Closed","active":false,"lastUpdate":"2021-01-21T00:01:19.948Z","fastPass":false,"meta":{"type":"ATTRACTION","longitude":-81.5834393157,"singleRider":false,"latitude":28.41797818},"name":"Jungle Cruise"},{"id":"WaltDisneyWorldMagicKingdom_80010160","waitTime":null,"status":"Refurbishment","active":false,"lastUpdate":"2021-01-03T21:23:48.006Z","name":"Liberty Square Riverboat","meta":{"longitude":-81.5827982677,"singleRider":false,"latitude":28.4195563399,"type":"ATTRACTION"},"fastPass":false},{"id":"WaltDisneyWorldMagicKingdom_80010162","waitTime":null,"status":"Closed","active":false,"lastUpdate":"2021-01-21T00:01:07.458Z","fastPass":false,"meta":{"longitude":-81.5798248916,"latitude":28.4200230397,"type":"ATTRACTION","singleRider":false},"name":"Mad Tea Party"},{"id":"WaltDisneyWorldMagicKingdom_80010165","waitTime":null,"status":"Closed","active":false,"lastUpdate":"2021-01-03T21:24:20.300Z","fastPass":false,"name":"Main Street Vehicles - Temporarily Unavailable","meta":{"longitude":-81.5815081252,"singleRider":false,"latitude":28.4168698711,"type":"ATTRACTION"}},{"id":"WaltDisneyWorldMagicKingdom_80010170","waitTime":null,"status":"Closed","active":false,"lastUpdate":"2021-01-21T00:01:03.837Z","name":"Mickey's PhilharMagic","fastPass":false,"meta":{"type":"ATTRACTION","longitude":-81.5814839853,"latitude":28.4200304909,"singleRider":false}},{"id":"WaltDisneyWorldMagicKingdom_80010176","waitTime":null,"status":"Closed","active":false,"lastUpdate":"2021-01-21T00:01:08.024Z","fastPass":false,"meta":{"singleRider":false,"type":"ATTRACTION","latitude":28.4202640272,"longitude":-81.5818916811},"name":"Peter Pan's Flight"},{"id":"WaltDisneyWorldMagicKingdom_80010177","waitTime":null,"status":"Closed","active":false,"lastUpdate":"2021-01-21T00:01:16.394Z","name":"Pirates of the Caribbean","fastPass":false,"meta":{"longitude":-81.5842252,"singleRider":false,"type":"ATTRACTION","latitude":28.41796992}},{"id":"WaltDisneyWorldMagicKingdom_80010190","waitTime":null,"status":"Closed","active":false,"lastUpdate":"2021-01-21T00:01:08.558Z","meta":{"unsuitableForPregnantPeople":true,"singleRider":false,"latitude":28.4188341691,"type":"ATTRACTION","longitude":-81.5781962872},"name":"Space Mountain","fastPass":false},{"id":"WaltDisneyWorldMagicKingdom_80010192","waitTime":null,"status":"Closed","active":false,"lastUpdate":"2021-01-21T00:01:17.655Z","name":"Splash Mountain","meta":{"singleRider":false,"unsuitableForPregnantPeople":true,"latitude":28.419418,"longitude":-81.58498,"type":"ATTRACTION"},"fastPass":false},{"id":"WaltDisneyWorldMagicKingdom_80010196","waitTime":null,"status":"Closed","active":false,"lastUpdate":"2021-01-21T00:03:03.935Z","meta":{"longitude":-81.5827982677,"singleRider":false,"latitude":28.4184325517,"type":"ATTRACTION"},"name":"Swiss Family Treehouse","fastPass":false},{"id":"WaltDisneyWorldMagicKingdom_80010208","waitTime":null,"status":"Closed","active":false,"lastUpdate":"2021-01-21T00:01:02.542Z","fastPass":false,"meta":{"type":"ATTRACTION","longitude":-81.58288,"singleRider":false,"latitude":28.4202},"name":"Haunted Mansion"},{"id":"WaltDisneyWorldMagicKingdom_80010210","waitTime":null,"status":"Closed","active":false,"lastUpdate":"2021-01-21T00:01:12.241Z","name":"The Magic Carpets of Aladdin","fastPass":false,"meta":{"singleRider":false,"latitude":28.41843,"longitude":-81.583472,"type":"ATTRACTION"}},{"id":"WaltDisneyWorldMagicKingdom_80010213","waitTime":null,"status":"Closed","active":false,"lastUpdate":"2021-01-21T00:01:18.297Z","name":"The Many Adventures of Winnie the Pooh","fastPass":false,"meta":{"longitude":-81.580266,"singleRider":false,"type":"ATTRACTION","latitude":28.420212}},{"id":"WaltDisneyWorldMagicKingdom_80010220","waitTime":null,"status":"Refurbishment","active":false,"lastUpdate":"2021-01-03T21:24:19.374Z","fastPass":false,"name":"Tom Sawyer Island","meta":{"latitude":28.419503,"singleRider":false,"type":"ATTRACTION","longitude":-81.58428}},{"id":"WaltDisneyWorldMagicKingdom_80010222","waitTime":null,"status":"Closed","active":false,"lastUpdate":"2021-01-21T00:01:12.867Z","fastPass":false,"name":"Tomorrowland Speedway","meta":{"latitude":28.419368,"longitude":-81.579302,"unsuitableForPregnantPeople":true,"type":"ATTRACTION","singleRider":false}},{"id":"WaltDisneyWorldMagicKingdom_80010224","waitTime":null,"status":"Refurbishment","active":false,"lastUpdate":"2021-01-03T21:24:19.826Z","meta":{"type":"ATTRACTION","longitude":-81.579033,"singleRider":false,"latitude":28.418155},"fastPass":false,"name":"Tomorrowland Transit Authority PeopleMover - Temporarily Unavailable"},{"id":"WaltDisneyWorldMagicKingdom_80010230","waitTime":null,"status":"Refurbishment","active":false,"lastUpdate":"2021-01-03T21:23:09.088Z","fastPass":false,"meta":{"longitude":-81.581204,"latitude":28.416543,"type":"ATTRACTION","singleRider":false},"name":"Walt Disney World Railroad - Main Street, U.S.A. - Temporarily Unavailable"},{"id":"WaltDisneyWorldMagicKingdom_80010232","waitTime":null,"status":"Closed","active":false,"lastUpdate":"2021-01-20T23:03:06.337Z","name":"Walt Disney's Carousel of Progress","fastPass":false,"meta":{"singleRider":false,"longitude":-81.5790083064,"type":"ATTRACTION","latitude":28.4180310951}},{"id":"WaltDisneyWorldMagicKingdom_80069748","waitTime":null,"status":"Closed","active":false,"lastUpdate":"2021-01-20T23:03:06.923Z","meta":{"longitude":-81.5837222887,"type":"ATTRACTION","singleRider":false,"latitude":28.4187861348},"fastPass":false,"name":"Country Bear Jamboree"},{"id":"WaltDisneyWorldMagicKingdom_80069754","waitTime":null,"status":"Closed","active":false,"lastUpdate":"2021-01-20T00:03:00.167Z","meta":{"longitude":-81.5823248578,"latitude":28.4194484171,"singleRider":false,"type":"ATTRACTION"},"name":"The Hall of Presidents","fastPass":false},{"id":"WaltDisneyWorldMagicKingdom_90001819","waitTime":null,"status":"Operating","active":true,"lastUpdate":"2021-01-20T23:56:16.854Z","fastPass":false,"meta":{"singleRider":false,"latitude":28.4191196055,"longitude":-81.5826159743,"type":"RESTAURANT"},"name":"Liberty Tree Tavern"},{"id":"WaltDisneyWorldMagicKingdom_90002464","waitTime":null,"status":"Operating","active":true,"lastUpdate":"2021-01-20T20:40:35.480Z","name":"Cinderella's Royal Table","meta":{"type":"RESTAURANT","singleRider":false,"latitude":28.4195,"longitude":-81.581101},"fastPass":false},{"id":"WaltDisneyWorldMagicKingdom_90002660","waitTime":null,"status":"Operating","active":true,"lastUpdate":"2021-01-20T23:57:00.558Z","meta":{"type":"RESTAURANT","latitude":28.4181214892,"longitude":-81.5818970259,"singleRider":false},"fastPass":false,"name":"The Crystal Palace"},{"id":"WaltDisneyWorldMagicKingdom_90002670","waitTime":null,"status":"Operating","active":true,"lastUpdate":"2021-01-20T23:31:56.544Z","fastPass":false,"name":"The Plaza Restaurant","meta":{"singleRider":false,"longitude":-81.5809394969,"latitude":28.4180247703,"type":"RESTAURANT"}},{"id":"WaltDisneyWorldMagicKingdom_90002678","waitTime":null,"status":"Operating","active":true,"lastUpdate":"2021-01-20T23:55:09.636Z","meta":{"longitude":-81.5807276023,"latitude":28.4169323426,"type":"RESTAURANT","singleRider":false},"fastPass":false,"name":"Tony's Town Square Restaurant"},{"id":"WaltDisneyWorldEpcot_107785","waitTime":null,"status":"Closed","active":false,"lastUpdate":"2021-01-21T01:01:08.293Z","fastPass":false,"meta":{"type":"ATTRACTION","singleRider":false,"latitude":28.374904,"longitude":-81.550852},"name":"The Seas with Nemo & Friends"},{"id":"WaltDisneyWorldEpcot_17564219","waitTime":null,"status":"Closed","active":false,"lastUpdate":"2020-09-15T11:33:07.103Z","meta":{"singleRider":false,"latitude":28.37097,"longitude":-81.547134},"name":"Meet Anna and Elsa at Royal Sommerhus - Temporarily Unavailable","fastPass":false},{"id":"WaltDisneyWorldEpcot_17720675","waitTime":null,"status":"Operating","active":true,"lastUpdate":"2021-01-21T00:54:02.728Z","name":"Spice Road Table","meta":{"longitude":-81.551645,"singleRider":false,"type":"RESTAURANT","latitude":28.368468},"fastPass":false},{"id":"WaltDisneyWorldEpcot_18269694","waitTime":null,"status":"Closed","active":false,"lastUpdate":"2021-01-21T01:03:15.694Z","fastPass":false,"name":"Disney and Pixar Short Film Festival","meta":{"latitude":28.37263,"singleRider":false,"longitude":-81.55115,"type":"ATTRACTION"}},{"id":"WaltDisneyWorldEpcot_18375495","waitTime":null,"status":"Closed","active":false,"lastUpdate":"2021-01-21T01:01:07.731Z","meta":{"type":"ATTRACTION","singleRider":false,"longitude":-81.54653,"latitude":28.370745},"fastPass":false,"name":"Frozen Ever After"},{"id":"WaltDisneyWorldEpcot_19463785","waitTime":null,"status":"Closed","active":false,"lastUpdate":"2021-01-20T23:03:05.722Z","name":"Beauty and the Beast Sing-Along","fastPass":false,"meta":{"type":"ATTRACTION","latitude":28.368864,"longitude":-81.552978,"singleRider":false}},{"id":"WaltDisneyWorldEpcot_19473173","waitTime":null,"status":"Closed","active":false,"lastUpdate":"2021-01-21T01:03:17.384Z","name":"Awesome Planet","meta":{"type":"ATTRACTION","singleRider":false,"latitude":28.374301,"longitude":-81.552138},"fastPass":false},{"id":"WaltDisneyWorldEpcot_20194","waitTime":null,"status":"Closed","active":false,"lastUpdate":"2021-01-21T01:01:08.853Z","meta":{"longitude":-81.552248,"singleRider":false,"latitude":28.373592,"type":"ATTRACTION"},"name":"Soarin' Around the World","fastPass":false},{"id":"WaltDisneyWorldEpcot_207395","waitTime":null,"status":"Closed","active":false,"lastUpdate":"2021-01-21T01:03:16.801Z","meta":{"singleRider":false,"longitude":-81.547368,"type":"ATTRACTION","latitude":28.371649},"name":"Gran Fiesta Tour Starring The Three Caballeros","fastPass":false},{"id":"WaltDisneyWorldEpcot_62992","waitTime":null,"status":"Closed","active":false,"lastUpdate":"2021-01-03T21:23:09.564Z","meta":{"type":"ATTRACTION","latitude":28.375255,"longitude":-81.551047,"singleRider":false},"name":"Turtle Talk With Crush - Temporarily Unavailable","fastPass":false},{"id":"WaltDisneyWorldEpcot_80010145","waitTime":null,"status":"Closed","active":false,"lastUpdate":"2021-01-21T00:48:02.493Z","name":"Impressions de France","meta":{"latitude":28.368864,"singleRider":false,"type":"ATTRACTION","longitude":-81.552978},"fastPass":false},{"id":"WaltDisneyWorldEpcot_80010152","waitTime":null,"status":"Closed","active":false,"lastUpdate":"2021-01-21T01:01:04.504Z","fastPass":false,"name":"Journey Into Imagination With Figment","meta":{"longitude":-81.551401,"singleRider":false,"type":"ATTRACTION","latitude":28.372994}},{"id":"WaltDisneyWorldEpcot_80010161","waitTime":null,"status":"Closed","active":false,"lastUpdate":"2021-01-21T01:01:05.179Z","fastPass":false,"name":"Living with the Land","meta":{"type":"ATTRACTION","longitude":-81.552301,"singleRider":false,"latitude":28.374245}},{"id":"WaltDisneyWorldEpcot_80010173","waitTime":null,"status":"Closed","active":false,"lastUpdate":"2021-01-21T01:01:03.356Z","meta":{"type":"ATTRACTION","singleRider":false,"longitude":-81.547156,"latitude":28.373927,"unsuitableForPregnantPeople":true},"name":"Mission: SPACE","fastPass":false},{"id":"WaltDisneyWorldEpcot_80010174","waitTime":null,"status":"Closed","active":false,"lastUpdate":"2021-01-21T00:48:01.828Z","name":"Canada Far and Wide in Circle-Vision 360","meta":{"type":"ATTRACTION","latitude":28.371694,"longitude":-81.55196,"singleRider":false},"fastPass":false},{"id":"WaltDisneyWorldEpcot_80010180","waitTime":null,"status":"Closed","active":false,"lastUpdate":"2021-01-21T01:03:16.265Z","name":"Reflections of China","meta":{"type":"ATTRACTION","singleRider":false,"latitude":28.369791,"longitude":-81.546381},"fastPass":false},{"id":"WaltDisneyWorldEpcot_80010191","waitTime":null,"status":"Closed","active":false,"lastUpdate":"2021-01-21T01:01:03.936Z","name":"Spaceship Earth","fastPass":false,"meta":{"longitude":-81.549401,"type":"ATTRACTION","latitude":28.375583,"singleRider":false}},{"id":"WaltDisneyWorldEpcot_80010199","waitTime":null,"status":"Closed","active":false,"lastUpdate":"2021-01-21T01:01:02.750Z","name":"Test Track","meta":{"longitude":-81.547489,"type":"ATTRACTION","unsuitableForPregnantPeople":true,"latitude":28.373228,"singleRider":true},"fastPass":false},{"id":"WaltDisneyWorldEpcot_80010200","waitTime":null,"status":"Closed","active":false,"lastUpdate":"2021-01-21T01:03:18.005Z","name":"The American Adventure","meta":{"longitude":-81.549446,"latitude":28.367517,"singleRider":false,"type":"ATTRACTION"},"fastPass":false},{"id":"WaltDisneyWorldEpcot_90001292","waitTime":null,"status":"Operating","active":true,"lastUpdate":"2021-01-21T00:46:12.072Z","name":"Biergarten Restaurant","meta":{"singleRider":false,"type":"RESTAURANT","latitude":28.368153,"longitude":-81.546819},"fastPass":false},{"id":"WaltDisneyWorldEpcot_90001416","waitTime":null,"status":"Operating","active":true,"lastUpdate":"2021-01-20T23:01:18.785Z","name":"Coral Reef Restaurant","fastPass":false,"meta":{"singleRider":false,"latitude":28.375096,"longitude":-81.550458,"type":"RESTAURANT"}},{"id":"WaltDisneyWorldEpcot_90001798","waitTime":null,"status":"Operating","active":true,"lastUpdate":"2021-01-21T00:56:55.053Z","meta":{"latitude":28.371657,"longitude":-81.551512,"singleRider":false,"type":"RESTAURANT"},"name":"Le Cellier Steakhouse","fastPass":false},{"id":"WaltDisneyWorldEpcot_90002084","waitTime":null,"status":"Operating","active":true,"lastUpdate":"2021-01-21T00:55:07.737Z","meta":{"type":"RESTAURANT","singleRider":false,"longitude":-81.551684,"latitude":28.370508},"name":"Rose & Crown Dining Room","fastPass":false},{"id":"WaltDisneyWorldEpcot_90002237","waitTime":null,"status":"Operating","active":true,"lastUpdate":"2021-01-21T01:00:39.918Z","fastPass":false,"meta":{"type":"RESTAURANT","singleRider":false,"longitude":-81.552324,"latitude":28.374039},"name":"Garden Grill Restaurant"},{"id":"WaltDisneyWorldHollywoodStudios_136","waitTime":null,"status":"Closed","active":false,"lastUpdate":"2020-09-15T11:33:12.086Z","meta":{"singleRider":false,"latitude":28.3566700675,"longitude":-81.5586114479},"name":"Indiana Jones™ Epic Stunt Spectacular! - Temporarily Unavailable","fastPass":false},{"id":"WaltDisneyWorldHollywoodStudios_17842841","waitTime":null,"status":"Closed","active":false,"lastUpdate":"2020-09-15T11:33:12.046Z","meta":{"singleRider":false,"longitude":-81.5596944094,"latitude":28.3568243464},"name":"For the First Time in Forever: A Frozen Sing-Along Celebration - Temporarily Unavailable","fastPass":false},{"id":"WaltDisneyWorldHollywoodStudios_18189394","waitTime":null,"status":"Closed","active":false,"lastUpdate":"2020-09-15T11:33:12.077Z","meta":{"longitude":-81.560938,"singleRider":false,"latitude":28.35796},"name":"Star Wars Launch Bay: Meet Chewbacca - Temporarily Unavailable","fastPass":false},{"id":"WaltDisneyWorldHollywoodStudios_18189398","waitTime":null,"status":"Closed","active":false,"lastUpdate":"2020-09-15T11:33:12.069Z","fastPass":false,"meta":{"longitude":-81.560938,"latitude":28.35796,"singleRider":false},"name":"Star Wars Launch Bay: Encounter Darth Vader - Temporarily Unavailable"},{"id":"WaltDisneyWorldHollywoodStudios_18360041","waitTime":null,"status":"Closed","active":false,"lastUpdate":"2021-01-03T21:23:31.878Z","meta":{"singleRider":false,"type":"ATTRACTION","longitude":-81.561061,"latitude":28.357821},"name":"Star Wars Launch Bay Theater - Temporarily Unavailable","fastPass":false},{"id":"WaltDisneyWorldHollywoodStudios_18368385","waitTime":null,"status":"Closed","active":false,"lastUpdate":"2020-09-15T11:33:12.104Z","name":"Celebrity Spotlight - Temporarily Unavailable","fastPass":false,"meta":{"singleRider":false,"latitude":28.356072,"longitude":-81.559158}},{"id":"WaltDisneyWorldHollywoodStudios_18368386","waitTime":null,"status":"Closed","active":false,"lastUpdate":"2020-09-15T11:33:12.095Z","meta":{"longitude":-81.559479,"singleRider":false,"latitude":28.356068},"name":"Mickey and Minnie Starring in Red Carpet Dreams - Temporarily Unavailable","fastPass":false},{"id":"WaltDisneyWorldHollywoodStudios_18669338","waitTime":null,"status":"Closed","active":false,"lastUpdate":"2020-09-15T11:33:12.121Z","meta":{"longitude":-81.560938,"singleRider":false,"latitude":28.35796},"fastPass":false,"name":"BB-8 Astromech on Duty - Temporarily Unavailable"},{"id":"WaltDisneyWorldHollywoodStudios_18770880","waitTime":null,"status":"Closed","active":false,"lastUpdate":"2021-01-20T23:03:01.199Z","name":"Walt Disney Presents","fastPass":false,"meta":{"singleRider":false,"longitude":-81.560982,"latitude":28.35686,"type":"ATTRACTION"}},{"id":"WaltDisneyWorldHollywoodStudios_18904138","waitTime":null,"status":"Closed","active":false,"lastUpdate":"2021-01-21T00:01:06.621Z","name":"Slinky Dog Dash","fastPass":false,"meta":{"singleRider":false,"longitude":-81.562786,"type":"ATTRACTION","unsuitableForPregnantPeople":true,"latitude":28.356245}},{"id":"WaltDisneyWorldHollywoodStudios_18904172","waitTime":null,"status":"Closed","active":false,"lastUpdate":"2021-01-21T00:01:10.379Z","meta":{"type":"ATTRACTION","latitude":28.355385,"longitude":-81.562379,"singleRider":false},"name":"Alien Swirling Saucers","fastPass":false},{"id":"WaltDisneyWorldHollywoodStudios_19025682","waitTime":null,"status":"Operating","active":true,"lastUpdate":"2020-09-15T14:02:51.117Z","meta":{"latitude":28.355234,"longitude":-81.559787,"singleRider":false},"fastPass":false,"name":"Star Wars: Galaxy's Edge"},{"id":"WaltDisneyWorldHollywoodStudios_19152250","waitTime":null,"status":"Closed","active":false,"lastUpdate":"2020-09-15T11:33:12.147Z","meta":{"latitude":28.356865,"longitude":-81.560984,"singleRider":false},"name":"Meet Sulley at Walt Disney Presents - Temporarily Unavailable","fastPass":false},{"id":"WaltDisneyWorldHollywoodStudios_19259335","waitTime":null,"status":"Closed","active":false,"lastUpdate":"2021-01-21T00:01:19.412Z","meta":{"longitude":-81.5605667783,"latitude":28.3566783801,"singleRider":false,"type":"ATTRACTION"},"name":"Mickey & Minnie's Runaway Railway","fastPass":false},{"id":"WaltDisneyWorldHollywoodStudios_19263735","waitTime":null,"status":"Closed","active":false,"lastUpdate":"2021-01-21T00:01:13.467Z","meta":{"singleRider":true,"longitude":-81.561689,"unsuitableForPregnantPeople":true,"latitude":28.353889,"type":"ATTRACTION"},"name":"Millennium Falcon: Smugglers Run","fastPass":false},{"id":"WaltDisneyWorldHollywoodStudios_19263736","waitTime":null,"status":"Closed","active":false,"lastUpdate":"2021-01-21T00:02:03.308Z","fastPass":false,"meta":{"singleRider":false,"type":"ATTRACTION","longitude":-81.560457,"unsuitableForPregnantPeople":true,"latitude":28.354884},"name":"Star Wars: Rise of the Resistance"},{"id":"WaltDisneyWorldHollywoodStudios_19267226","waitTime":null,"status":"Closed","active":false,"lastUpdate":"2021-01-03T21:23:32.330Z","meta":{"type":"RESTAURANT","singleRider":false,"longitude":-81.562075,"latitude":28.354095},"fastPass":false,"name":"Oga's Cantina at the Walt Disney World Resort"},{"id":"WaltDisneyWorldHollywoodStudios_19276204","waitTime":null,"status":"Closed","active":false,"lastUpdate":"2021-01-20T23:03:05.195Z","fastPass":false,"meta":{"longitude":-81.560707,"singleRider":false,"type":"ATTRACTION","latitude":28.360035},"name":"Lightning McQueen's Racing Academy"},{"id":"WaltDisneyWorldHollywoodStudios_19497952","waitTime":null,"status":"Closed","active":false,"lastUpdate":"2021-01-20T23:03:01.802Z","meta":{"type":"ATTRACTION","longitude":-81.559031,"singleRider":false,"latitude":28.356316},"name":"Vacation Fun - An Original Animated Short with Mickey & Minnie","fastPass":false},{"id":"WaltDisneyWorldHollywoodStudios_19582977","waitTime":null,"status":"Closed","active":false,"lastUpdate":"2020-09-15T11:33:12.211Z","name":"Disney Society Orchestra and Friends","meta":{"singleRider":false,"longitude":-81.5595985008,"latitude":28.3589162565},"fastPass":false},{"id":"WaltDisneyWorldHollywoodStudios_19583373","waitTime":null,"status":"Closed","active":false,"lastUpdate":"2020-09-15T11:33:12.219Z","fastPass":false,"name":"Disney Junior Play and Dance!","meta":{"longitude":-81.560567,"singleRider":false,"latitude":28.357613}},{"id":"WaltDisneyWorldHollywoodStudios_202731","waitTime":null,"status":"Closed","active":false,"lastUpdate":"2020-09-15T11:33:12.226Z","meta":{"singleRider":false,"longitude":-81.560567,"latitude":28.357613},"name":"Disney Junior Dance Party! - Temporarily Unavailable","fastPass":false},{"id":"WaltDisneyWorldHollywoodStudios_209857","waitTime":null,"status":"Closed","active":false,"lastUpdate":"2021-01-21T00:01:14.076Z","name":"Toy Story Mania!","meta":{"type":"ATTRACTION","singleRider":false,"latitude":28.356404,"longitude":-81.561894},"fastPass":false},{"id":"WaltDisneyWorldHollywoodStudios_80010151","waitTime":null,"status":"Closed","active":false,"lastUpdate":"2021-01-20T23:01:02.293Z","meta":{"longitude":-81.5594643904,"type":"ATTRACTION","latitude":28.3550644708,"singleRider":false},"name":"Muppet*Vision 3D","fastPass":false},{"id":"WaltDisneyWorldHollywoodStudios_80010182","waitTime":null,"status":"Closed","active":false,"lastUpdate":"2021-01-21T00:01:17.035Z","fastPass":false,"name":"Rock 'n' Roller Coaster Starring Aerosmith","meta":{"latitude":28.359712,"longitude":-81.56059,"type":"ATTRACTION","singleRider":true,"unsuitableForPregnantPeople":true}},{"id":"WaltDisneyWorldHollywoodStudios_80010193","waitTime":null,"status":"Closed","active":false,"lastUpdate":"2021-01-21T00:01:11.627Z","name":"Star Tours – The Adventures Continue","fastPass":false,"meta":{"singleRider":false,"latitude":28.355695,"type":"ATTRACTION","longitude":-81.558891,"unsuitableForPregnantPeople":true}},{"id":"WaltDisneyWorldHollywoodStudios_80010218","waitTime":null,"status":"Closed","active":false,"lastUpdate":"2021-01-21T00:01:18.931Z","name":"The Twilight Zone Tower of Terror™","meta":{"longitude":-81.559772,"type":"ATTRACTION","unsuitableForPregnantPeople":true,"singleRider":false,"latitude":28.359553},"fastPass":false},{"id":"WaltDisneyWorldHollywoodStudios_80010848","waitTime":null,"status":"Closed","active":false,"lastUpdate":"2020-09-15T11:33:12.284Z","fastPass":false,"meta":{"longitude":-81.5595985008,"latitude":28.3589162565,"singleRider":false},"name":"Beauty and the Beast-Live on Stage - Temporarily Unavailable"},{"id":"WaltDisneyWorldHollywoodStudios_80010896","waitTime":null,"status":"Closed","active":false,"lastUpdate":"2020-09-15T11:33:12.290Z","meta":{"latitude":28.3574862147,"singleRider":false,"longitude":-81.5608484102},"name":"Voyage of The Little Mermaid - Temporarily Unavailable","fastPass":false},{"id":"WaltDisneyWorldHollywoodStudios_90001216","waitTime":null,"status":"Operating","active":true,"lastUpdate":"2021-01-20T18:20:15.399Z","name":"50's Prime Time Café","fastPass":false,"meta":{"type":"RESTAURANT","latitude":28.357444,"longitude":-81.558881,"singleRider":false}},{"id":"WaltDisneyWorldHollywoodStudios_90001744","waitTime":null,"status":"Closed","active":false,"lastUpdate":"2021-01-03T21:23:32.783Z","meta":{"longitude":-81.558975,"latitude":28.357611,"type":"RESTAURANT","singleRider":false},"name":"Hollywood & Vine","fastPass":false},{"id":"WaltDisneyWorldHollywoodStudios_90001865","waitTime":null,"status":"Operating","active":true,"lastUpdate":"2021-01-20T23:26:11.178Z","meta":{"singleRider":false,"type":"RESTAURANT","longitude":-81.559012,"latitude":28.354532},"fastPass":false,"name":"Mama Melrose's Ristorante Italiano"},{"id":"WaltDisneyWorldHollywoodStudios_90002114","waitTime":null,"status":"Operating","active":true,"lastUpdate":"2021-01-18T00:00:41.188Z","name":"Sci-Fi Dine-In Theater Restaurant","fastPass":false,"meta":{"singleRider":false,"longitude":-81.559495,"latitude":28.3559,"type":"RESTAURANT"}},{"id":"WaltDisneyWorldHollywoodStudios_90002245","waitTime":null,"status":"Operating","active":true,"lastUpdate":"2021-01-20T23:36:27.447Z","meta":{"longitude":-81.560297,"singleRider":false,"latitude":28.357648,"type":"RESTAURANT"},"fastPass":false,"name":"The Hollywood Brown Derby"},{"id":"WaltDisneyWorldAnimalKingdom_17421326","waitTime":null,"status":"Closed","active":false,"lastUpdate":"2020-09-15T11:33:02.632Z","fastPass":false,"name":"Meet Favorite Disney Pals at Adventurers Outpost - Temporarily Unavailable","meta":{"longitude":-81.589796,"latitude":28.357972,"singleRider":false}},{"id":"WaltDisneyWorldAnimalKingdom_18069632","waitTime":null,"status":"Operating","active":true,"lastUpdate":"2021-01-20T21:57:10.923Z","name":"Tiffins Restaurant","fastPass":false,"meta":{"longitude":-81.591487,"latitude":28.356846,"type":"RESTAURANT","singleRider":false}},{"id":"WaltDisneyWorldAnimalKingdom_18377778","waitTime":null,"status":"Operating","active":true,"lastUpdate":"2021-01-20T22:07:23.930Z","name":"Nomad Lounge","fastPass":false,"meta":{"singleRider":false,"latitude":28.356719,"longitude":-81.591487,"type":"RESTAURANT"}},{"id":"WaltDisneyWorldAnimalKingdom_18665185","waitTime":null,"status":"Closed","active":false,"lastUpdate":"2021-01-20T22:01:04.569Z","meta":{"longitude":-81.591641,"latitude":28.355257,"singleRider":false,"type":"ATTRACTION"},"name":"Na'vi River Journey","fastPass":false},{"id":"WaltDisneyWorldAnimalKingdom_18665186","waitTime":null,"status":"Closed","active":false,"lastUpdate":"2021-01-20T22:01:04.006Z","name":"Avatar Flight of Passage","fastPass":false,"meta":{"type":"ATTRACTION","singleRider":false,"latitude":28.355554,"longitude":-81.592147,"unsuitableForPregnantPeople":true}},{"id":"WaltDisneyWorldAnimalKingdom_19330300","waitTime":null,"status":"Closed","active":false,"lastUpdate":"2021-01-03T21:23:41.561Z","meta":{"latitude":28.365188,"longitude":-81.588669,"type":"ATTRACTION","singleRider":false},"name":"The Animation Experience at Conservation Station","fastPass":false},{"id":"WaltDisneyWorldAnimalKingdom_26068","waitTime":null,"status":"Closed","active":false,"lastUpdate":"2021-01-20T22:01:02.273Z","meta":{"type":"ATTRACTION","singleRider":false,"latitude":28.3584769119,"longitude":-81.5873781396,"unsuitableForPregnantPeople":true},"name":"Expedition Everest - Legend of the Forbidden Mountain","fastPass":false},{"id":"WaltDisneyWorldAnimalKingdom_80010123","waitTime":null,"status":"Closed","active":false,"lastUpdate":"2021-01-20T22:01:05.175Z","name":"DINOSAUR","meta":{"longitude":-81.588444,"latitude":28.355307,"singleRider":false,"unsuitableForPregnantPeople":true,"type":"ATTRACTION"},"fastPass":false},{"id":"WaltDisneyWorldAnimalKingdom_80010150","waitTime":null,"status":"Closed","active":false,"lastUpdate":"2021-01-20T22:01:01.653Z","fastPass":false,"meta":{"latitude":28.357488,"singleRider":false,"type":"ATTRACTION","longitude":-81.590118},"name":"It's Tough to be a Bug!"},{"id":"WaltDisneyWorldAnimalKingdom_80010154","waitTime":null,"status":"Refurbishment","active":false,"lastUpdate":"2021-01-04T05:02:16.994Z","meta":{"singleRider":false,"unsuitableForPregnantPeople":true,"latitude":28.3587834288,"longitude":-81.5889412165,"type":"ATTRACTION"},"fastPass":false,"name":"Kali River Rapids"},{"id":"WaltDisneyWorldAnimalKingdom_80010157","waitTime":null,"status":"Closed","active":false,"lastUpdate":"2021-01-20T22:01:05.750Z","fastPass":false,"meta":{"unsuitableForPregnantPeople":true,"longitude":-81.59228,"latitude":28.359331,"singleRider":false,"type":"ATTRACTION"},"name":"Kilimanjaro Safaris"},{"id":"WaltDisneyWorldAnimalKingdom_80010164","waitTime":null,"status":"Closed","active":false,"lastUpdate":"2021-01-20T22:03:02.390Z","meta":{"longitude":-81.589019,"type":"ATTRACTION","latitude":28.359379,"singleRider":false},"name":"Maharajah Jungle Trek","fastPass":false},{"id":"WaltDisneyWorldAnimalKingdom_80010175","waitTime":null,"status":"Closed","active":false,"lastUpdate":"2021-01-20T21:30:18.313Z","fastPass":false,"meta":{"latitude":28.359954,"singleRider":false,"type":"ATTRACTION","longitude":-81.592149},"name":"Gorilla Falls Exploration Trail"},{"id":"WaltDisneyWorldAnimalKingdom_80010203","waitTime":null,"status":"Closed","active":false,"lastUpdate":"2021-01-03T21:23:41.107Z","fastPass":false,"name":"The Boneyard - Temporarily Unavailable","meta":{"type":"ATTRACTION","longitude":-81.5884791864,"singleRider":false,"latitude":28.3566787564}},{"id":"WaltDisneyWorldAnimalKingdom_80010228","waitTime":null,"status":"Closed","active":false,"lastUpdate":"2021-01-20T22:03:01.501Z","meta":{"type":"ATTRACTION","longitude":-81.588074,"singleRider":false,"latitude":28.356503},"fastPass":false,"name":"TriceraTop Spin"},{"id":"WaltDisneyWorldAnimalKingdom_80010235","waitTime":null,"status":"Closed","active":false,"lastUpdate":"2021-01-20T21:30:18.916Z","name":"Wildlife Express Train","fastPass":false,"meta":{"type":"ATTRACTION","longitude":-81.5914175464,"latitude":28.3598097347,"singleRider":false}},{"id":"WaltDisneyWorldMagicKingdom_136550","waitTime":null,"status":"Closed","active":false,"lastUpdate":"2021-01-03T21:24:21.706Z","meta":{"singleRider":false,"latitude":28.4183977566,"type":"ATTRACTION","longitude":-81.5797358751},"name":"Monsters, Inc. Laugh Floor - Temporarily Unavailable","fastPass":false},{"id":"WaltDisneyWorldMagicKingdom_15743682","waitTime":null,"status":"Closed","active":false,"lastUpdate":"2020-09-15T11:33:17.406Z","name":"Meet Dashing Disney Pals as Circus Stars at Pete’s Silly Side Show - Temporarily Unavailable","fastPass":false,"meta":{"singleRider":false,"latitude":28.421282,"longitude":-81.578932}},{"id":"WaltDisneyWorldMagicKingdom_15850196","waitTime":null,"status":"Closed","active":false,"lastUpdate":"2020-09-15T11:33:17.374Z","fastPass":false,"meta":{"latitude":28.416727,"longitude":-81.580746,"singleRider":false},"name":"Meet Mickey Mouse at Town Square Theater - Temporarily Unavailable"},{"id":"WaltDisneyWorldMagicKingdom_16124144","waitTime":null,"status":"Closed","active":false,"lastUpdate":"2021-01-21T00:03:02.864Z","name":"Walt Disney's Enchanted Tiki Room","fastPass":false,"meta":{"type":"ATTRACTION","singleRider":false,"longitude":-81.583738382,"latitude":28.4182264646}},{"id":"WaltDisneyWorldMagicKingdom_16414579","waitTime":null,"status":"Closed","active":false,"lastUpdate":"2021-01-20T23:03:02.334Z","name":"Sorcerers of the Magic Kingdom","fastPass":false,"meta":{"singleRider":false,"type":"ATTRACTION","longitude":-81.58163,"latitude":28.416944}},{"id":"WaltDisneyWorldMagicKingdom_16491297","waitTime":null,"status":"Closed","active":false,"lastUpdate":"2021-01-21T00:01:09.179Z","meta":{"longitude":-81.5783907473,"singleRider":false,"unsuitableForPregnantPeople":true,"type":"ATTRACTION","latitude":28.4207661576},"name":"The Barnstormer","fastPass":false},{"id":"WaltDisneyWorldMagicKingdom_16491299","waitTime":null,"status":"Refurbishment","active":false,"lastUpdate":"2021-01-03T21:24:18.928Z","fastPass":false,"name":"Walt Disney World Railroad - Fantasyland - Temporarily Unavailable","meta":{"type":"ATTRACTION","singleRider":false,"longitude":-81.578368,"latitude":28.420934}},{"id":"WaltDisneyWorldMagicKingdom_16660079","waitTime":null,"status":"Operating","active":true,"lastUpdate":"2021-01-20T19:37:16.768Z","name":"Be Our Guest Restaurant","fastPass":false,"meta":{"type":"RESTAURANT","longitude":-81.5807074858,"singleRider":false,"latitude":28.4212491492}},{"id":"WaltDisneyWorldMagicKingdom_16767263","waitTime":null,"status":"Closed","active":false,"lastUpdate":"2021-01-21T00:01:03.234Z","meta":{"longitude":-81.5799752427,"singleRider":false,"type":"ATTRACTION","latitude":28.4211203226},"name":"Under the Sea ~ Journey of The Little Mermaid","fastPass":false},{"id":"WaltDisneyWorldMagicKingdom_16767276","waitTime":null,"status":"Closed","active":false,"lastUpdate":"2021-01-03T21:24:20.764Z","meta":{"longitude":-81.58093011,"singleRider":false,"type":"ATTRACTION","latitude":28.42099058},"fastPass":false,"name":"Enchanted Tales with Belle - Temporarily Unavailable"},{"id":"WaltDisneyWorldMagicKingdom_16767284","waitTime":null,"status":"Closed","active":false,"lastUpdate":"2021-01-21T00:01:09.718Z","name":"Seven Dwarfs Mine Train","meta":{"longitude":-81.58031,"singleRider":false,"latitude":28.42037,"unsuitableForPregnantPeople":true,"type":"ATTRACTION"},"fastPass":false},{"id":"WaltDisneyWorldMagicKingdom_16874126","waitTime":null,"status":"Closed","active":false,"lastUpdate":"2020-09-15T11:33:17.441Z","fastPass":false,"meta":{"singleRider":false,"longitude":-81.579613144497,"latitude":28.420893275289},"name":"Meet Ariel at Her Grotto - Temporarily Unavailable"},{"id":"WaltDisneyWorldMagicKingdom_17272158","waitTime":null,"status":"Closed","active":false,"lastUpdate":"2021-01-03T21:24:21.210Z","name":"A Pirate's Adventure ~ Treasures of the Seven Seas - Temporarily Unavailable","fastPass":false,"meta":{"singleRider":false,"type":"ATTRACTION","longitude":-81.58466913,"latitude":28.41837254}},{"id":"WaltDisneyWorldMagicKingdom_17505397","waitTime":null,"status":"Closed","active":false,"lastUpdate":"2020-09-15T11:33:17.486Z","fastPass":false,"name":"Meet Rapunzel and Tiana at Princess Fairytale Hall - Temporarily Unavailable","meta":{"longitude":-81.580917439677,"singleRider":false,"latitude":28.420045752669}},{"id":"WaltDisneyWorldMagicKingdom_17752793","waitTime":null,"status":"Closed","active":false,"lastUpdate":"2020-09-15T11:33:17.444Z","fastPass":false,"meta":{"latitude":28.416727,"longitude":-81.580815,"singleRider":false},"name":"Meet Tinker Bell at Town Square Theater - Temporarily Unavailable"},{"id":"WaltDisneyWorldMagicKingdom_18185631","waitTime":null,"status":"Operating","active":true,"lastUpdate":"2021-01-20T23:52:37.799Z","fastPass":false,"meta":{"singleRider":false,"longitude":-81.582592,"type":"RESTAURANT","latitude":28.418491},"name":"Jungle Navigation Co. LTD Skipper Canteen"},{"id":"WaltDisneyWorldMagicKingdom_18498503","waitTime":null,"status":"Closed","active":false,"lastUpdate":"2020-09-15T11:33:17.494Z","fastPass":false,"name":"Meet Cinderella and Elena at Princess Fairytale Hall - Temporarily Unavailable","meta":{"singleRider":false,"latitude":28.420012,"longitude":-81.58094}},{"id":"WaltDisneyWorldMagicKingdom_2219610","waitTime":null,"status":"Refurbishment","active":false,"lastUpdate":"2021-01-03T21:23:08.615Z","name":"Walt Disney World Railroad - Frontierland - Temporarily Unavailable","meta":{"singleRider":false,"longitude":-81.585078,"type":"ATTRACTION","latitude":28.41969},"fastPass":false},{"id":"WaltDisneyWorldMagicKingdom_387133","waitTime":null,"status":"Closed","active":false,"lastUpdate":"2020-09-15T11:33:17.492Z","fastPass":false,"meta":{"latitude":28.421282,"longitude":-81.578932,"singleRider":false},"name":"Meet Daring Disney Pals as Circus Stars at Pete's Silly Side Show - Temporarily Unavailable"},{"id":"WaltDisneyWorldMagicKingdom_80010107","waitTime":null,"status":"Closed","active":false,"lastUpdate":"2021-01-21T00:03:04.647Z","name":"Astro Orbiter","fastPass":false,"meta":{"longitude":-81.5789887902,"type":"ATTRACTION","latitude":28.4184926179,"singleRider":false}},{"id":"WaltDisneyWorldMagicKingdom_80010110","waitTime":null,"status":"Closed","active":false,"lastUpdate":"2021-01-21T00:01:11.075Z","meta":{"latitude":28.4199638504,"longitude":-81.5846422864,"singleRider":false,"unsuitableForPregnantPeople":true,"type":"ATTRACTION"},"name":"Big Thunder Mountain Railroad","fastPass":false},{"id":"WaltDisneyWorldMagicKingdom_80010114","waitTime":null,"status":"Closed","active":false,"lastUpdate":"2021-01-21T00:01:14.682Z","fastPass":false,"meta":{"singleRider":false,"type":"ATTRACTION","longitude":-81.5794086456,"latitude":28.4182868839},"name":"Buzz Lightyear's Space Ranger Spin"},{"id":"WaltDisneyWorldMagicKingdom_80010117","waitTime":null,"status":"Closed","active":false,"lastUpdate":"2021-01-21T00:03:03.409Z","fastPass":false,"name":"Prince Charming Regal Carrousel","meta":{"longitude":-81.581255,"latitude":28.420169,"type":"ATTRACTION","singleRider":false}},{"id":"WaltDisneyWorldMagicKingdom_80010129","waitTime":null,"status":"Closed","active":false,"lastUpdate":"2021-01-21T00:01:15.211Z","name":"Dumbo the Flying Elephant","fastPass":false,"meta":{"singleRider":false,"type":"ATTRACTION","latitude":28.420509033,"longitude":-81.5789473057}},{"id":"WaltDisneyWorldMagicKingdom_80010149","waitTime":null,"status":"Closed","active":false,"lastUpdate":"2021-01-21T00:01:15.731Z","name":"\"it's a small world\"","meta":{"singleRider":false,"longitude":-81.5820392026,"type":"ATTRACTION","latitude":28.4204816402},"fastPass":false},{"id":"WaltDisneyWorldMagicKingdom_80010153","waitTime":null,"status":"Closed","active":false,"lastUpdate":"2021-01-21T00:01:19.948Z","fastPass":false,"meta":{"type":"ATTRACTION","longitude":-81.5834393157,"singleRider":false,"latitude":28.41797818},"name":"Jungle Cruise"},{"id":"WaltDisneyWorldMagicKingdom_80010160","waitTime":null,"status":"Refurbishment","active":false,"lastUpdate":"2021-01-03T21:23:48.006Z","name":"Liberty Square Riverboat","meta":{"longitude":-81.5827982677,"singleRider":false,"latitude":28.4195563399,"type":"ATTRACTION"},"fastPass":false},{"id":"WaltDisneyWorldMagicKingdom_80010162","waitTime":null,"status":"Closed","active":false,"lastUpdate":"2021-01-21T00:01:07.458Z","fastPass":false,"meta":{"longitude":-81.5798248916,"latitude":28.4200230397,"type":"ATTRACTION","singleRider":false},"name":"Mad Tea Party"},{"id":"WaltDisneyWorldMagicKingdom_80010165","waitTime":null,"status":"Closed","active":false,"lastUpdate":"2021-01-03T21:24:20.300Z","fastPass":false,"name":"Main Street Vehicles - Temporarily Unavailable","meta":{"longitude":-81.5815081252,"singleRider":false,"latitude":28.4168698711,"type":"ATTRACTION"}},{"id":"WaltDisneyWorldMagicKingdom_80010170","waitTime":null,"status":"Closed","active":false,"lastUpdate":"2021-01-21T00:01:03.837Z","name":"Mickey's PhilharMagic","fastPass":false,"meta":{"type":"ATTRACTION","longitude":-81.5814839853,"latitude":28.4200304909,"singleRider":false}},{"id":"WaltDisneyWorldMagicKingdom_80010176","waitTime":null,"status":"Closed","active":false,"lastUpdate":"2021-01-21T00:01:08.024Z","fastPass":false,"meta":{"singleRider":false,"type":"ATTRACTION","latitude":28.4202640272,"longitude":-81.5818916811},"name":"Peter Pan's Flight"},{"id":"WaltDisneyWorldMagicKingdom_80010177","waitTime":null,"status":"Closed","active":false,"lastUpdate":"2021-01-21T00:01:16.394Z","name":"Pirates of the Caribbean","fastPass":false,"meta":{"longitude":-81.5842252,"singleRider":false,"type":"ATTRACTION","latitude":28.41796992}},{"id":"WaltDisneyWorldMagicKingdom_80010190","waitTime":null,"status":"Closed","active":false,"lastUpdate":"2021-01-21T00:01:08.558Z","meta":{"unsuitableForPregnantPeople":true,"singleRider":false,"latitude":28.4188341691,"type":"ATTRACTION","longitude":-81.5781962872},"name":"Space Mountain","fastPass":false},{"id":"WaltDisneyWorldMagicKingdom_80010192","waitTime":null,"status":"Closed","active":false,"lastUpdate":"2021-01-21T00:01:17.655Z","name":"Splash Mountain","meta":{"singleRider":false,"unsuitableForPregnantPeople":true,"latitude":28.419418,"longitude":-81.58498,"type":"ATTRACTION"},"fastPass":false},{"id":"WaltDisneyWorldMagicKingdom_80010196","waitTime":null,"status":"Closed","active":false,"lastUpdate":"2021-01-21T00:03:03.935Z","meta":{"longitude":-81.5827982677,"singleRider":false,"latitude":28.4184325517,"type":"ATTRACTION"},"name":"Swiss Family Treehouse","fastPass":false},{"id":"WaltDisneyWorldMagicKingdom_80010208","waitTime":null,"status":"Closed","active":false,"lastUpdate":"2021-01-21T00:01:02.542Z","fastPass":false,"meta":{"type":"ATTRACTION","longitude":-81.58288,"singleRider":false,"latitude":28.4202},"name":"Haunted Mansion"},{"id":"WaltDisneyWorldMagicKingdom_80010210","waitTime":null,"status":"Closed","active":false,"lastUpdate":"2021-01-21T00:01:12.241Z","name":"The Magic Carpets of Aladdin","fastPass":false,"meta":{"singleRider":false,"latitude":28.41843,"longitude":-81.583472,"type":"ATTRACTION"}},{"id":"WaltDisneyWorldMagicKingdom_80010213","waitTime":null,"status":"Closed","active":false,"lastUpdate":"2021-01-21T00:01:18.297Z","name":"The Many Adventures of Winnie the Pooh","fastPass":false,"meta":{"longitude":-81.580266,"singleRider":false,"type":"ATTRACTION","latitude":28.420212}},{"id":"WaltDisneyWorldMagicKingdom_80010220","waitTime":null,"status":"Refurbishment","active":false,"lastUpdate":"2021-01-03T21:24:19.374Z","fastPass":false,"name":"Tom Sawyer Island","meta":{"latitude":28.419503,"singleRider":false,"type":"ATTRACTION","longitude":-81.58428}},{"id":"WaltDisneyWorldMagicKingdom_80010222","waitTime":null,"status":"Closed","active":false,"lastUpdate":"2021-01-21T00:01:12.867Z","fastPass":false,"name":"Tomorrowland Speedway","meta":{"latitude":28.419368,"longitude":-81.579302,"unsuitableForPregnantPeople":true,"type":"ATTRACTION","singleRider":false}},{"id":"WaltDisneyWorldMagicKingdom_80010224","waitTime":null,"status":"Refurbishment","active":false,"lastUpdate":"2021-01-03T21:24:19.826Z","meta":{"type":"ATTRACTION","longitude":-81.579033,"singleRider":false,"latitude":28.418155},"fastPass":false,"name":"Tomorrowland Transit Authority PeopleMover - Temporarily Unavailable"},{"id":"WaltDisneyWorldMagicKingdom_80010230","waitTime":null,"status":"Refurbishment","active":false,"lastUpdate":"2021-01-03T21:23:09.088Z","fastPass":false,"meta":{"longitude":-81.581204,"latitude":28.416543,"type":"ATTRACTION","singleRider":false},"name":"Walt Disney World Railroad - Main Street, U.S.A. - Temporarily Unavailable"},{"id":"WaltDisneyWorldMagicKingdom_80010232","waitTime":null,"status":"Closed","active":false,"lastUpdate":"2021-01-20T23:03:06.337Z","name":"Walt Disney's Carousel of Progress","fastPass":false,"meta":{"singleRider":false,"longitude":-81.5790083064,"type":"ATTRACTION","latitude":28.4180310951}},{"id":"WaltDisneyWorldMagicKingdom_80069748","waitTime":null,"status":"Closed","active":false,"lastUpdate":"2021-01-20T23:03:06.923Z","meta":{"longitude":-81.5837222887,"type":"ATTRACTION","singleRider":false,"latitude":28.4187861348},"fastPass":false,"name":"Country Bear Jamboree"},{"id":"WaltDisneyWorldMagicKingdom_80069754","waitTime":null,"status":"Closed","active":false,"lastUpdate":"2021-01-20T00:03:00.167Z","meta":{"longitude":-81.5823248578,"latitude":28.4194484171,"singleRider":false,"type":"ATTRACTION"},"name":"The Hall of Presidents","fastPass":false},{"id":"WaltDisneyWorldMagicKingdom_90001819","waitTime":null,"status":"Operating","active":true,"lastUpdate":"2021-01-20T23:56:16.854Z","fastPass":false,"meta":{"singleRider":false,"latitude":28.4191196055,"longitude":-81.5826159743,"type":"RESTAURANT"},"name":"Liberty Tree Tavern"},{"id":"WaltDisneyWorldMagicKingdom_90002464","waitTime":null,"status":"Operating","active":true,"lastUpdate":"2021-01-20T20:40:35.480Z","name":"Cinderella's Royal Table","meta":{"type":"RESTAURANT","singleRider":false,"latitude":28.4195,"longitude":-81.581101},"fastPass":false},{"id":"WaltDisneyWorldMagicKingdom_90002660","waitTime":null,"status":"Operating","active":true,"lastUpdate":"2021-01-20T23:57:00.558Z","meta":{"type":"RESTAURANT","latitude":28.4181214892,"longitude":-81.5818970259,"singleRider":false},"fastPass":false,"name":"The Crystal Palace"},{"id":"WaltDisneyWorldMagicKingdom_90002670","waitTime":null,"status":"Operating","active":true,"lastUpdate":"2021-01-20T23:31:56.544Z","fastPass":false,"name":"The Plaza Restaurant","meta":{"singleRider":false,"longitude":-81.5809394969,"latitude":28.4180247703,"type":"RESTAURANT"}},{"id":"WaltDisneyWorldMagicKingdom_90002678","waitTime":null,"status":"Operating","active":true,"lastUpdate":"2021-01-20T23:55:09.636Z","meta":{"longitude":-81.5807276023,"latitude":28.4169323426,"type":"RESTAURANT","singleRider":false},"fastPass":false,"name":"Tony's Town Square Restaurant"},{"id":"WaltDisneyWorldEpcot_107785","waitTime":null,"status":"Closed","active":false,"lastUpdate":"2021-01-21T01:01:08.293Z","fastPass":false,"meta":{"type":"ATTRACTION","singleRider":false,"latitude":28.374904,"longitude":-81.550852},"name":"The Seas with Nemo & Friends"},{"id":"WaltDisneyWorldEpcot_17564219","waitTime":null,"status":"Closed","active":false,"lastUpdate":"2020-09-15T11:33:07.103Z","meta":{"singleRider":false,"latitude":28.37097,"longitude":-81.547134},"name":"Meet Anna and Elsa at Royal Sommerhus - Temporarily Unavailable","fastPass":false},{"id":"WaltDisneyWorldEpcot_17720675","waitTime":null,"status":"Operating","active":true,"lastUpdate":"2021-01-21T00:54:02.728Z","name":"Spice Road Table","meta":{"longitude":-81.551645,"singleRider":false,"type":"RESTAURANT","latitude":28.368468},"fastPass":false},{"id":"WaltDisneyWorldEpcot_18269694","waitTime":null,"status":"Closed","active":false,"lastUpdate":"2021-01-21T01:03:15.694Z","fastPass":false,"name":"Disney and Pixar Short Film Festival","meta":{"latitude":28.37263,"singleRider":false,"longitude":-81.55115,"type":"ATTRACTION"}},{"id":"WaltDisneyWorldEpcot_18375495","waitTime":null,"status":"Closed","active":false,"lastUpdate":"2021-01-21T01:01:07.731Z","meta":{"type":"ATTRACTION","singleRider":false,"longitude":-81.54653,"latitude":28.370745},"fastPass":false,"name":"Frozen Ever After"},{"id":"WaltDisneyWorldEpcot_19463785","waitTime":null,"status":"Closed","active":false,"lastUpdate":"2021-01-20T23:03:05.722Z","name":"Beauty and the Beast Sing-Along","fastPass":false,"meta":{"type":"ATTRACTION","latitude":28.368864,"longitude":-81.552978,"singleRider":false}},{"id":"WaltDisneyWorldEpcot_19473173","waitTime":null,"status":"Closed","active":false,"lastUpdate":"2021-01-21T01:03:17.384Z","name":"Awesome Planet","meta":{"type":"ATTRACTION","singleRider":false,"latitude":28.374301,"longitude":-81.552138},"fastPass":false},{"id":"WaltDisneyWorldEpcot_20194","waitTime":null,"status":"Closed","active":false,"lastUpdate":"2021-01-21T01:01:08.853Z","meta":{"longitude":-81.552248,"singleRider":false,"latitude":28.373592,"type":"ATTRACTION"},"name":"Soarin' Around the World","fastPass":false},{"id":"WaltDisneyWorldEpcot_207395","waitTime":null,"status":"Closed","active":false,"lastUpdate":"2021-01-21T01:03:16.801Z","meta":{"singleRider":false,"longitude":-81.547368,"type":"ATTRACTION","latitude":28.371649},"name":"Gran Fiesta Tour Starring The Three Caballeros","fastPass":false},{"id":"WaltDisneyWorldEpcot_62992","waitTime":null,"status":"Closed","active":false,"lastUpdate":"2021-01-03T21:23:09.564Z","meta":{"type":"ATTRACTION","latitude":28.375255,"longitude":-81.551047,"singleRider":false},"name":"Turtle Talk With Crush - Temporarily Unavailable","fastPass":false},{"id":"WaltDisneyWorldEpcot_80010145","waitTime":null,"status":"Closed","active":false,"lastUpdate":"2021-01-21T00:48:02.493Z","name":"Impressions de France","meta":{"latitude":28.368864,"singleRider":false,"type":"ATTRACTION","longitude":-81.552978},"fastPass":false},{"id":"WaltDisneyWorldEpcot_80010152","waitTime":null,"status":"Closed","active":false,"lastUpdate":"2021-01-21T01:01:04.504Z","fastPass":false,"name":"Journey Into Imagination With Figment","meta":{"longitude":-81.551401,"singleRider":false,"type":"ATTRACTION","latitude":28.372994}},{"id":"WaltDisneyWorldEpcot_80010161","waitTime":null,"status":"Closed","active":false,"lastUpdate":"2021-01-21T01:01:05.179Z","fastPass":false,"name":"Living with the Land","meta":{"type":"ATTRACTION","longitude":-81.552301,"singleRider":false,"latitude":28.374245}},{"id":"WaltDisneyWorldEpcot_80010173","waitTime":null,"status":"Closed","active":false,"lastUpdate":"2021-01-21T01:01:03.356Z","meta":{"type":"ATTRACTION","singleRider":false,"longitude":-81.547156,"latitude":28.373927,"unsuitableForPregnantPeople":true},"name":"Mission: SPACE","fastPass":false},{"id":"WaltDisneyWorldEpcot_80010174","waitTime":null,"status":"Closed","active":false,"lastUpdate":"2021-01-21T00:48:01.828Z","name":"Canada Far and Wide in Circle-Vision 360","meta":{"type":"ATTRACTION","latitude":28.371694,"longitude":-81.55196,"singleRider":false},"fastPass":false},{"id":"WaltDisneyWorldEpcot_80010180","waitTime":null,"status":"Closed","active":false,"lastUpdate":"2021-01-21T01:03:16.265Z","name":"Reflections of China","meta":{"type":"ATTRACTION","singleRider":false,"latitude":28.369791,"longitude":-81.546381},"fastPass":false},{"id":"WaltDisneyWorldEpcot_80010191","waitTime":null,"status":"Closed","active":false,"lastUpdate":"2021-01-21T01:01:03.936Z","name":"Spaceship Earth","fastPass":false,"meta":{"longitude":-81.549401,"type":"ATTRACTION","latitude":28.375583,"singleRider":false}},{"id":"WaltDisneyWorldEpcot_80010199","waitTime":null,"status":"Closed","active":false,"lastUpdate":"2021-01-21T01:01:02.750Z","name":"Test Track","meta":{"longitude":-81.547489,"type":"ATTRACTION","unsuitableForPregnantPeople":true,"latitude":28.373228,"singleRider":true},"fastPass":false},{"id":"WaltDisneyWorldEpcot_80010200","waitTime":null,"status":"Closed","active":false,"lastUpdate":"2021-01-21T01:03:18.005Z","name":"The American Adventure","meta":{"longitude":-81.549446,"latitude":28.367517,"singleRider":false,"type":"ATTRACTION"},"fastPass":false},{"id":"WaltDisneyWorldEpcot_90001292","waitTime":null,"status":"Operating","active":true,"lastUpdate":"2021-01-21T00:46:12.072Z","name":"Biergarten Restaurant","meta":{"singleRider":false,"type":"RESTAURANT","latitude":28.368153,"longitude":-81.546819},"fastPass":false},{"id":"WaltDisneyWorldEpcot_90001416","waitTime":null,"status":"Operating","active":true,"lastUpdate":"2021-01-20T23:01:18.785Z","name":"Coral Reef Restaurant","fastPass":false,"meta":{"singleRider":false,"latitude":28.375096,"longitude":-81.550458,"type":"RESTAURANT"}},{"id":"WaltDisneyWorldEpcot_90001798","waitTime":null,"status":"Operating","active":true,"lastUpdate":"2021-01-21T00:56:55.053Z","meta":{"latitude":28.371657,"longitude":-81.551512,"singleRider":false,"type":"RESTAURANT"},"name":"Le Cellier Steakhouse","fastPass":false},{"id":"WaltDisneyWorldEpcot_90002084","waitTime":null,"status":"Operating","active":true,"lastUpdate":"2021-01-21T00:55:07.737Z","meta":{"type":"RESTAURANT","singleRider":false,"longitude":-81.551684,"latitude":28.370508},"name":"Rose & Crown Dining Room","fastPass":false},{"id":"WaltDisneyWorldEpcot_90002237","waitTime":null,"status":"Operating","active":true,"lastUpdate":"2021-01-21T01:00:39.918Z","fastPass":false,"meta":{"type":"RESTAURANT","singleRider":false,"longitude":-81.552324,"latitude":28.374039},"name":"Garden Grill Restaurant"},{"id":"WaltDisneyWorldHollywoodStudios_136","waitTime":null,"status":"Closed","active":false,"lastUpdate":"2020-09-15T11:33:12.086Z","meta":{"singleRider":false,"latitude":28.3566700675,"longitude":-81.5586114479},"name":"Indiana Jones™ Epic Stunt Spectacular! - Temporarily Unavailable","fastPass":false},{"id":"WaltDisneyWorldHollywoodStudios_17842841","waitTime":null,"status":"Closed","active":false,"lastUpdate":"2020-09-15T11:33:12.046Z","meta":{"singleRider":false,"longitude":-81.5596944094,"latitude":28.3568243464},"name":"For the First Time in Forever: A Frozen Sing-Along Celebration - Temporarily Unavailable","fastPass":false},{"id":"WaltDisneyWorldHollywoodStudios_18189394","waitTime":null,"status":"Closed","active":false,"lastUpdate":"2020-09-15T11:33:12.077Z","meta":{"longitude":-81.560938,"singleRider":false,"latitude":28.35796},"name":"Star Wars Launch Bay: Meet Chewbacca - Temporarily Unavailable","fastPass":false},{"id":"WaltDisneyWorldHollywoodStudios_18189398","waitTime":null,"status":"Closed","active":false,"lastUpdate":"2020-09-15T11:33:12.069Z","fastPass":false,"meta":{"longitude":-81.560938,"latitude":28.35796,"singleRider":false},"name":"Star Wars Launch Bay: Encounter Darth Vader - Temporarily Unavailable"},{"id":"WaltDisneyWorldHollywoodStudios_18360041","waitTime":null,"status":"Closed","active":false,"lastUpdate":"2021-01-03T21:23:31.878Z","meta":{"singleRider":false,"type":"ATTRACTION","longitude":-81.561061,"latitude":28.357821},"name":"Star Wars Launch Bay Theater - Temporarily Unavailable","fastPass":false},{"id":"WaltDisneyWorldHollywoodStudios_18368385","waitTime":null,"status":"Closed","active":false,"lastUpdate":"2020-09-15T11:33:12.104Z","name":"Celebrity Spotlight - Temporarily Unavailable","fastPass":false,"meta":{"singleRider":false,"latitude":28.356072,"longitude":-81.559158}},{"id":"WaltDisneyWorldHollywoodStudios_18368386","waitTime":null,"status":"Closed","active":false,"lastUpdate":"2020-09-15T11:33:12.095Z","meta":{"longitude":-81.559479,"singleRider":false,"latitude":28.356068},"name":"Mickey and Minnie Starring in Red Carpet Dreams - Temporarily Unavailable","fastPass":false},{"id":"WaltDisneyWorldHollywoodStudios_18669338","waitTime":null,"status":"Closed","active":false,"lastUpdate":"2020-09-15T11:33:12.121Z","meta":{"longitude":-81.560938,"singleRider":false,"latitude":28.35796},"fastPass":false,"name":"BB-8 Astromech on Duty - Temporarily Unavailable"},{"id":"WaltDisneyWorldHollywoodStudios_18770880","waitTime":null,"status":"Closed","active":false,"lastUpdate":"2021-01-20T23:03:01.199Z","name":"Walt Disney Presents","fastPass":false,"meta":{"singleRider":false,"longitude":-81.560982,"latitude":28.35686,"type":"ATTRACTION"}},{"id":"WaltDisneyWorldHollywoodStudios_18904138","waitTime":null,"status":"Closed","active":false,"lastUpdate":"2021-01-21T00:01:06.621Z","name":"Slinky Dog Dash","fastPass":false,"meta":{"singleRider":false,"longitude":-81.562786,"type":"ATTRACTION","unsuitableForPregnantPeople":true,"latitude":28.356245}},{"id":"WaltDisneyWorldHollywoodStudios_18904172","waitTime":null,"status":"Closed","active":false,"lastUpdate":"2021-01-21T00:01:10.379Z","meta":{"type":"ATTRACTION","latitude":28.355385,"longitude":-81.562379,"singleRider":false},"name":"Alien Swirling Saucers","fastPass":false},{"id":"WaltDisneyWorldHollywoodStudios_19025682","waitTime":null,"status":"Operating","active":true,"lastUpdate":"2020-09-15T14:02:51.117Z","meta":{"latitude":28.355234,"longitude":-81.559787,"singleRider":false},"fastPass":false,"name":"Star Wars: Galaxy's Edge"},{"id":"WaltDisneyWorldHollywoodStudios_19152250","waitTime":null,"status":"Closed","active":false,"lastUpdate":"2020-09-15T11:33:12.147Z","meta":{"latitude":28.356865,"longitude":-81.560984,"singleRider":false},"name":"Meet Sulley at Walt Disney Presents - Temporarily Unavailable","fastPass":false},{"id":"WaltDisneyWorldHollywoodStudios_19259335","waitTime":null,"status":"Closed","active":false,"lastUpdate":"2021-01-21T00:01:19.412Z","meta":{"longitude":-81.5605667783,"latitude":28.3566783801,"singleRider":false,"type":"ATTRACTION"},"name":"Mickey & Minnie's Runaway Railway","fastPass":false},{"id":"WaltDisneyWorldHollywoodStudios_19263735","waitTime":null,"status":"Closed","active":false,"lastUpdate":"2021-01-21T00:01:13.467Z","meta":{"singleRider":true,"longitude":-81.561689,"unsuitableForPregnantPeople":true,"latitude":28.353889,"type":"ATTRACTION"},"name":"Millennium Falcon: Smugglers Run","fastPass":false},{"id":"WaltDisneyWorldHollywoodStudios_19263736","waitTime":null,"status":"Closed","active":false,"lastUpdate":"2021-01-21T00:02:03.308Z","fastPass":false,"meta":{"singleRider":false,"type":"ATTRACTION","longitude":-81.560457,"unsuitableForPregnantPeople":true,"latitude":28.354884},"name":"Star Wars: Rise of the Resistance"},{"id":"WaltDisneyWorldHollywoodStudios_19267226","waitTime":null,"status":"Closed","active":false,"lastUpdate":"2021-01-03T21:23:32.330Z","meta":{"type":"RESTAURANT","singleRider":false,"longitude":-81.562075,"latitude":28.354095},"fastPass":false,"name":"Oga's Cantina at the Walt Disney World Resort"},{"id":"WaltDisneyWorldHollywoodStudios_19276204","waitTime":null,"status":"Closed","active":false,"lastUpdate":"2021-01-20T23:03:05.195Z","fastPass":false,"meta":{"longitude":-81.560707,"singleRider":false,"type":"ATTRACTION","latitude":28.360035},"name":"Lightning McQueen's Racing Academy"},{"id":"WaltDisneyWorldHollywoodStudios_19497952","waitTime":null,"status":"Closed","active":false,"lastUpdate":"2021-01-20T23:03:01.802Z","meta":{"type":"ATTRACTION","longitude":-81.559031,"singleRider":false,"latitude":28.356316},"name":"Vacation Fun - An Original Animated Short with Mickey & Minnie","fastPass":false},{"id":"WaltDisneyWorldHollywoodStudios_19582977","waitTime":null,"status":"Closed","active":false,"lastUpdate":"2020-09-15T11:33:12.211Z","name":"Disney Society Orchestra and Friends","meta":{"singleRider":false,"longitude":-81.5595985008,"latitude":28.3589162565},"fastPass":false},{"id":"WaltDisneyWorldHollywoodStudios_19583373","waitTime":null,"status":"Closed","active":false,"lastUpdate":"2020-09-15T11:33:12.219Z","fastPass":false,"name":"Disney Junior Play and Dance!","meta":{"longitude":-81.560567,"singleRider":false,"latitude":28.357613}},{"id":"WaltDisneyWorldHollywoodStudios_202731","waitTime":null,"status":"Closed","active":false,"lastUpdate":"2020-09-15T11:33:12.226Z","meta":{"singleRider":false,"longitude":-81.560567,"latitude":28.357613},"name":"Disney Junior Dance Party! - Temporarily Unavailable","fastPass":false},{"id":"WaltDisneyWorldHollywoodStudios_209857","waitTime":null,"status":"Closed","active":false,"lastUpdate":"2021-01-21T00:01:14.076Z","name":"Toy Story Mania!","meta":{"type":"ATTRACTION","singleRider":false,"latitude":28.356404,"longitude":-81.561894},"fastPass":false},{"id":"WaltDisneyWorldHollywoodStudios_80010151","waitTime":null,"status":"Closed","active":false,"lastUpdate":"2021-01-20T23:01:02.293Z","meta":{"longitude":-81.5594643904,"type":"ATTRACTION","latitude":28.3550644708,"singleRider":false},"name":"Muppet*Vision 3D","fastPass":false},{"id":"WaltDisneyWorldHollywoodStudios_80010182","waitTime":null,"status":"Closed","active":false,"lastUpdate":"2021-01-21T00:01:17.035Z","fastPass":false,"name":"Rock 'n' Roller Coaster Starring Aerosmith","meta":{"latitude":28.359712,"longitude":-81.56059,"type":"ATTRACTION","singleRider":true,"unsuitableForPregnantPeople":true}},{"id":"WaltDisneyWorldHollywoodStudios_80010193","waitTime":null,"status":"Closed","active":false,"lastUpdate":"2021-01-21T00:01:11.627Z","name":"Star Tours – The Adventures Continue","fastPass":false,"meta":{"singleRider":false,"latitude":28.355695,"type":"ATTRACTION","longitude":-81.558891,"unsuitableForPregnantPeople":true}},{"id":"WaltDisneyWorldHollywoodStudios_80010218","waitTime":null,"status":"Closed","active":false,"lastUpdate":"2021-01-21T00:01:18.931Z","name":"The Twilight Zone Tower of Terror™","meta":{"longitude":-81.559772,"type":"ATTRACTION","unsuitableForPregnantPeople":true,"singleRider":false,"latitude":28.359553},"fastPass":false},{"id":"WaltDisneyWorldHollywoodStudios_80010848","waitTime":null,"status":"Closed","active":false,"lastUpdate":"2020-09-15T11:33:12.284Z","fastPass":false,"meta":{"longitude":-81.5595985008,"latitude":28.3589162565,"singleRider":false},"name":"Beauty and the Beast-Live on Stage - Temporarily Unavailable"},{"id":"WaltDisneyWorldHollywoodStudios_80010896","waitTime":null,"status":"Closed","active":false,"lastUpdate":"2020-09-15T11:33:12.290Z","meta":{"latitude":28.3574862147,"singleRider":false,"longitude":-81.5608484102},"name":"Voyage of The Little Mermaid - Temporarily Unavailable","fastPass":false},{"id":"WaltDisneyWorldHollywoodStudios_90001216","waitTime":null,"status":"Operating","active":true,"lastUpdate":"2021-01-20T18:20:15.399Z","name":"50's Prime Time Café","fastPass":false,"meta":{"type":"RESTAURANT","latitude":28.357444,"longitude":-81.558881,"singleRider":false}},{"id":"WaltDisneyWorldHollywoodStudios_90001744","waitTime":null,"status":"Closed","active":false,"lastUpdate":"2021-01-03T21:23:32.783Z","meta":{"longitude":-81.558975,"latitude":28.357611,"type":"RESTAURANT","singleRider":false},"name":"Hollywood & Vine","fastPass":false},{"id":"WaltDisneyWorldHollywoodStudios_90001865","waitTime":null,"status":"Operating","active":true,"lastUpdate":"2021-01-20T23:26:11.178Z","meta":{"singleRider":false,"type":"RESTAURANT","longitude":-81.559012,"latitude":28.354532},"fastPass":false,"name":"Mama Melrose's Ristorante Italiano"},{"id":"WaltDisneyWorldHollywoodStudios_90002114","waitTime":null,"status":"Operating","active":true,"lastUpdate":"2021-01-18T00:00:41.188Z","name":"Sci-Fi Dine-In Theater Restaurant","fastPass":false,"meta":{"singleRider":false,"longitude":-81.559495,"latitude":28.3559,"type":"RESTAURANT"}},{"id":"WaltDisneyWorldHollywoodStudios_90002245","waitTime":null,"status":"Operating","active":true,"lastUpdate":"2021-01-20T23:36:27.447Z","meta":{"longitude":-81.560297,"singleRider":false,"latitude":28.357648,"type":"RESTAURANT"},"fastPass":false,"name":"The Hollywood Brown Derby"},{"id":"WaltDisneyWorldAnimalKingdom_17421326","waitTime":null,"status":"Closed","active":false,"lastUpdate":"2020-09-15T11:33:02.632Z","fastPass":false,"name":"Meet Favorite Disney Pals at Adventurers Outpost - Temporarily Unavailable","meta":{"longitude":-81.589796,"latitude":28.357972,"singleRider":false}},{"id":"WaltDisneyWorldAnimalKingdom_18069632","waitTime":null,"status":"Operating","active":true,"lastUpdate":"2021-01-20T21:57:10.923Z","name":"Tiffins Restaurant","fastPass":false,"meta":{"longitude":-81.591487,"latitude":28.356846,"type":"RESTAURANT","singleRider":false}},{"id":"WaltDisneyWorldAnimalKingdom_18377778","waitTime":null,"status":"Operating","active":true,"lastUpdate":"2021-01-20T22:07:23.930Z","name":"Nomad Lounge","fastPass":false,"meta":{"singleRider":false,"latitude":28.356719,"longitude":-81.591487,"type":"RESTAURANT"}},{"id":"WaltDisneyWorldAnimalKingdom_18665185","waitTime":null,"status":"Closed","active":false,"lastUpdate":"2021-01-20T22:01:04.569Z","meta":{"longitude":-81.591641,"latitude":28.355257,"singleRider":false,"type":"ATTRACTION"},"name":"Na'vi River Journey","fastPass":false},{"id":"WaltDisneyWorldAnimalKingdom_18665186","waitTime":null,"status":"Closed","active":false,"lastUpdate":"2021-01-20T22:01:04.006Z","name":"Avatar Flight of Passage","fastPass":false,"meta":{"type":"ATTRACTION","singleRider":false,"latitude":28.355554,"longitude":-81.592147,"unsuitableForPregnantPeople":true}},{"id":"WaltDisneyWorldAnimalKingdom_19330300","waitTime":null,"status":"Closed","active":false,"lastUpdate":"2021-01-03T21:23:41.561Z","meta":{"latitude":28.365188,"longitude":-81.588669,"type":"ATTRACTION","singleRider":false},"name":"The Animation Experience at Conservation Station","fastPass":false},{"id":"WaltDisneyWorldAnimalKingdom_26068","waitTime":null,"status":"Closed","active":false,"lastUpdate":"2021-01-20T22:01:02.273Z","meta":{"type":"ATTRACTION","singleRider":false,"latitude":28.3584769119,"longitude":-81.5873781396,"unsuitableForPregnantPeople":true},"name":"Expedition Everest - Legend of the Forbidden Mountain","fastPass":false},{"id":"WaltDisneyWorldAnimalKingdom_80010123","waitTime":null,"status":"Closed","active":false,"lastUpdate":"2021-01-20T22:01:05.175Z","name":"DINOSAUR","meta":{"longitude":-81.588444,"latitude":28.355307,"singleRider":false,"unsuitableForPregnantPeople":true,"type":"ATTRACTION"},"fastPass":false},{"id":"WaltDisneyWorldAnimalKingdom_80010150","waitTime":null,"status":"Closed","active":false,"lastUpdate":"2021-01-20T22:01:01.653Z","fastPass":false,"meta":{"latitude":28.357488,"singleRider":false,"type":"ATTRACTION","longitude":-81.590118},"name":"It's Tough to be a Bug!"},{"id":"WaltDisneyWorldAnimalKingdom_80010154","waitTime":null,"status":"Refurbishment","active":false,"lastUpdate":"2021-01-04T05:02:16.994Z","meta":{"singleRider":false,"unsuitableForPregnantPeople":true,"latitude":28.3587834288,"longitude":-81.5889412165,"type":"ATTRACTION"},"fastPass":false,"name":"Kali River Rapids"},{"id":"WaltDisneyWorldAnimalKingdom_80010157","waitTime":null,"status":"Closed","active":false,"lastUpdate":"2021-01-20T22:01:05.750Z","fastPass":false,"meta":{"unsuitableForPregnantPeople":true,"longitude":-81.59228,"latitude":28.359331,"singleRider":false,"type":"ATTRACTION"},"name":"Kilimanjaro Safaris"},{"id":"WaltDisneyWorldAnimalKingdom_80010164","waitTime":null,"status":"Closed","active":false,"lastUpdate":"2021-01-20T22:03:02.390Z","meta":{"longitude":-81.589019,"type":"ATTRACTION","latitude":28.359379,"singleRider":false},"name":"Maharajah Jungle Trek","fastPass":false},{"id":"WaltDisneyWorldAnimalKingdom_80010175","waitTime":null,"status":"Closed","active":false,"lastUpdate":"2021-01-20T21:30:18.313Z","fastPass":false,"meta":{"latitude":28.359954,"singleRider":false,"type":"ATTRACTION","longitude":-81.592149},"name":"Gorilla Falls Exploration Trail"},{"id":"WaltDisneyWorldAnimalKingdom_80010203","waitTime":null,"status":"Closed","active":false,"lastUpdate":"2021-01-03T21:23:41.107Z","fastPass":false,"name":"The Boneyard - Temporarily Unavailable","meta":{"type":"ATTRACTION","longitude":-81.5884791864,"singleRider":false,"latitude":28.3566787564}},{"id":"WaltDisneyWorldAnimalKingdom_80010228","waitTime":null,"status":"Closed","active":false,"lastUpdate":"2021-01-20T22:03:01.501Z","meta":{"type":"ATTRACTION","longitude":-81.588074,"singleRider":false,"latitude":28.356503},"fastPass":false,"name":"TriceraTop Spin"},{"id":"WaltDisneyWorldAnimalKingdom_80010235","waitTime":null,"status":"Closed","active":false,"lastUpdate":"2021-01-20T21:30:18.916Z","name":"Wildlife Express Train","fastPass":false,"meta":{"type":"ATTRACTION","longitude":-81.5914175464,"latitude":28.3598097347,"singleRider":false}},{"id":"WaltDisneyWorldMagicKingdom_136550","waitTime":null,"status":"Closed","active":false,"lastUpdate":"2021-01-03T21:24:21.706Z","meta":{"singleRider":false,"latitude":28.4183977566,"type":"ATTRACTION","longitude":-81.5797358751},"name":"Monsters, Inc. Laugh Floor - Temporarily Unavailable","fastPass":false},{"id":"WaltDisneyWorldMagicKingdom_15743682","waitTime":null,"status":"Closed","active":false,"lastUpdate":"2020-09-15T11:33:17.406Z","name":"Meet Dashing Disney Pals as Circus Stars at Pete’s Silly Side Show - Temporarily Unavailable","fastPass":false,"meta":{"singleRider":false,"latitude":28.421282,"longitude":-81.578932}},{"id":"WaltDisneyWorldMagicKingdom_15850196","waitTime":null,"status":"Closed","active":false,"lastUpdate":"2020-09-15T11:33:17.374Z","fastPass":false,"meta":{"latitude":28.416727,"longitude":-81.580746,"singleRider":false},"name":"Meet Mickey Mouse at Town Square Theater - Temporarily Unavailable"},{"id":"WaltDisneyWorldMagicKingdom_16124144","waitTime":null,"status":"Closed","active":false,"lastUpdate":"2021-01-21T00:03:02.864Z","name":"Walt Disney's Enchanted Tiki Room","fastPass":false,"meta":{"type":"ATTRACTION","singleRider":false,"longitude":-81.583738382,"latitude":28.4182264646}},{"id":"WaltDisneyWorldMagicKingdom_16414579","waitTime":null,"status":"Closed","active":false,"lastUpdate":"2021-01-20T23:03:02.334Z","name":"Sorcerers of the Magic Kingdom","fastPass":false,"meta":{"singleRider":false,"type":"ATTRACTION","longitude":-81.58163,"latitude":28.416944}},{"id":"WaltDisneyWorldMagicKingdom_16491297","waitTime":null,"status":"Closed","active":false,"lastUpdate":"2021-01-21T00:01:09.179Z","meta":{"longitude":-81.5783907473,"singleRider":false,"unsuitableForPregnantPeople":true,"type":"ATTRACTION","latitude":28.4207661576},"name":"The Barnstormer","fastPass":false},{"id":"WaltDisneyWorldMagicKingdom_16491299","waitTime":null,"status":"Refurbishment","active":false,"lastUpdate":"2021-01-03T21:24:18.928Z","fastPass":false,"name":"Walt Disney World Railroad - Fantasyland - Temporarily Unavailable","meta":{"type":"ATTRACTION","singleRider":false,"longitude":-81.578368,"latitude":28.420934}},{"id":"WaltDisneyWorldMagicKingdom_16660079","waitTime":null,"status":"Operating","active":true,"lastUpdate":"2021-01-20T19:37:16.768Z","name":"Be Our Guest Restaurant","fastPass":false,"meta":{"type":"RESTAURANT","longitude":-81.5807074858,"singleRider":false,"latitude":28.4212491492}},{"id":"WaltDisneyWorldMagicKingdom_16767263","waitTime":null,"status":"Closed","active":false,"lastUpdate":"2021-01-21T00:01:03.234Z","meta":{"longitude":-81.5799752427,"singleRider":false,"type":"ATTRACTION","latitude":28.4211203226},"name":"Under the Sea ~ Journey of The Little Mermaid","fastPass":false},{"id":"WaltDisneyWorldMagicKingdom_16767276","waitTime":null,"status":"Closed","active":false,"lastUpdate":"2021-01-03T21:24:20.764Z","meta":{"longitude":-81.58093011,"singleRider":false,"type":"ATTRACTION","latitude":28.42099058},"fastPass":false,"name":"Enchanted Tales with Belle - Temporarily Unavailable"},{"id":"WaltDisneyWorldMagicKingdom_16767284","waitTime":null,"status":"Closed","active":false,"lastUpdate":"2021-01-21T00:01:09.718Z","name":"Seven Dwarfs Mine Train","meta":{"longitude":-81.58031,"singleRider":false,"latitude":28.42037,"unsuitableForPregnantPeople":true,"type":"ATTRACTION"},"fastPass":false},{"id":"WaltDisneyWorldMagicKingdom_16874126","waitTime":null,"status":"Closed","active":false,"lastUpdate":"2020-09-15T11:33:17.441Z","fastPass":false,"meta":{"singleRider":false,"longitude":-81.579613144497,"latitude":28.420893275289},"name":"Meet Ariel at Her Grotto - Temporarily Unavailable"},{"id":"WaltDisneyWorldMagicKingdom_17272158","waitTime":null,"status":"Closed","active":false,"lastUpdate":"2021-01-03T21:24:21.210Z","name":"A Pirate's Adventure ~ Treasures of the Seven Seas - Temporarily Unavailable","fastPass":false,"meta":{"singleRider":false,"type":"ATTRACTION","longitude":-81.58466913,"latitude":28.41837254}},{"id":"WaltDisneyWorldMagicKingdom_17505397","waitTime":null,"status":"Closed","active":false,"lastUpdate":"2020-09-15T11:33:17.486Z","fastPass":false,"name":"Meet Rapunzel and Tiana at Princess Fairytale Hall - Temporarily Unavailable","meta":{"longitude":-81.580917439677,"singleRider":false,"latitude":28.420045752669}},{"id":"WaltDisneyWorldMagicKingdom_17752793","waitTime":null,"status":"Closed","active":false,"lastUpdate":"2020-09-15T11:33:17.444Z","fastPass":false,"meta":{"latitude":28.416727,"longitude":-81.580815,"singleRider":false},"name":"Meet Tinker Bell at Town Square Theater - Temporarily Unavailable"},{"id":"WaltDisneyWorldMagicKingdom_18185631","waitTime":null,"status":"Operating","active":true,"lastUpdate":"2021-01-20T23:52:37.799Z","fastPass":false,"meta":{"singleRider":false,"longitude":-81.582592,"type":"RESTAURANT","latitude":28.418491},"name":"Jungle Navigation Co. LTD Skipper Canteen"},{"id":"WaltDisneyWorldMagicKingdom_18498503","waitTime":null,"status":"Closed","active":false,"lastUpdate":"2020-09-15T11:33:17.494Z","fastPass":false,"name":"Meet Cinderella and Elena at Princess Fairytale Hall - Temporarily Unavailable","meta":{"singleRider":false,"latitude":28.420012,"longitude":-81.58094}},{"id":"WaltDisneyWorldMagicKingdom_2219610","waitTime":null,"status":"Refurbishment","active":false,"lastUpdate":"2021-01-03T21:23:08.615Z","name":"Walt Disney World Railroad - Frontierland - Temporarily Unavailable","meta":{"singleRider":false,"longitude":-81.585078,"type":"ATTRACTION","latitude":28.41969},"fastPass":false},{"id":"WaltDisneyWorldMagicKingdom_387133","waitTime":null,"status":"Closed","active":false,"lastUpdate":"2020-09-15T11:33:17.492Z","fastPass":false,"meta":{"latitude":28.421282,"longitude":-81.578932,"singleRider":false},"name":"Meet Daring Disney Pals as Circus Stars at Pete's Silly Side Show - Temporarily Unavailable"},{"id":"WaltDisneyWorldMagicKingdom_80010107","waitTime":null,"status":"Closed","active":false,"lastUpdate":"2021-01-21T00:03:04.647Z","name":"Astro Orbiter","fastPass":false,"meta":{"longitude":-81.5789887902,"type":"ATTRACTION","latitude":28.4184926179,"singleRider":false}},{"id":"WaltDisneyWorldMagicKingdom_80010110","waitTime":null,"status":"Closed","active":false,"lastUpdate":"2021-01-21T00:01:11.075Z","meta":{"latitude":28.4199638504,"longitude":-81.5846422864,"singleRider":false,"unsuitableForPregnantPeople":true,"type":"ATTRACTION"},"name":"Big Thunder Mountain Railroad","fastPass":false},{"id":"WaltDisneyWorldMagicKingdom_80010114","waitTime":null,"status":"Closed","active":false,"lastUpdate":"2021-01-21T00:01:14.682Z","fastPass":false,"meta":{"singleRider":false,"type":"ATTRACTION","longitude":-81.5794086456,"latitude":28.4182868839},"name":"Buzz Lightyear's Space Ranger Spin"},{"id":"WaltDisneyWorldMagicKingdom_80010117","waitTime":null,"status":"Closed","active":false,"lastUpdate":"2021-01-21T00:03:03.409Z","fastPass":false,"name":"Prince Charming Regal Carrousel","meta":{"longitude":-81.581255,"latitude":28.420169,"type":"ATTRACTION","singleRider":false}},{"id":"WaltDisneyWorldMagicKingdom_80010129","waitTime":null,"status":"Closed","active":false,"lastUpdate":"2021-01-21T00:01:15.211Z","name":"Dumbo the Flying Elephant","fastPass":false,"meta":{"singleRider":false,"type":"ATTRACTION","latitude":28.420509033,"longitude":-81.5789473057}},{"id":"WaltDisneyWorldMagicKingdom_80010149","waitTime":null,"status":"Closed","active":false,"lastUpdate":"2021-01-21T00:01:15.731Z","name":"\"it's a small world\"","meta":{"singleRider":false,"longitude":-81.5820392026,"type":"ATTRACTION","latitude":28.4204816402},"fastPass":false},{"id":"WaltDisneyWorldMagicKingdom_80010153","waitTime":null,"status":"Closed","active":false,"lastUpdate":"2021-01-21T00:01:19.948Z","fastPass":false,"meta":{"type":"ATTRACTION","longitude":-81.5834393157,"singleRider":false,"latitude":28.41797818},"name":"Jungle Cruise"},{"id":"WaltDisneyWorldMagicKingdom_80010160","waitTime":null,"status":"Refurbishment","active":false,"lastUpdate":"2021-01-03T21:23:48.006Z","name":"Liberty Square Riverboat","meta":{"longitude":-81.5827982677,"singleRider":false,"latitude":28.4195563399,"type":"ATTRACTION"},"fastPass":false},{"id":"WaltDisneyWorldMagicKingdom_80010162","waitTime":null,"status":"Closed","active":false,"lastUpdate":"2021-01-21T00:01:07.458Z","fastPass":false,"meta":{"longitude":-81.5798248916,"latitude":28.4200230397,"type":"ATTRACTION","singleRider":false},"name":"Mad Tea Party"},{"id":"WaltDisneyWorldMagicKingdom_80010165","waitTime":null,"status":"Closed","active":false,"lastUpdate":"2021-01-03T21:24:20.300Z","fastPass":false,"name":"Main Street Vehicles - Temporarily Unavailable","meta":{"longitude":-81.5815081252,"singleRider":false,"latitude":28.4168698711,"type":"ATTRACTION"}},{"id":"WaltDisneyWorldMagicKingdom_80010170","waitTime":null,"status":"Closed","active":false,"lastUpdate":"2021-01-21T00:01:03.837Z","name":"Mickey's PhilharMagic","fastPass":false,"meta":{"type":"ATTRACTION","longitude":-81.5814839853,"latitude":28.4200304909,"singleRider":false}},{"id":"WaltDisneyWorldMagicKingdom_80010176","waitTime":null,"status":"Closed","active":false,"lastUpdate":"2021-01-21T00:01:08.024Z","fastPass":false,"meta":{"singleRider":false,"type":"ATTRACTION","latitude":28.4202640272,"longitude":-81.5818916811},"name":"Peter Pan's Flight"},{"id":"WaltDisneyWorldMagicKingdom_80010177","waitTime":null,"status":"Closed","active":false,"lastUpdate":"2021-01-21T00:01:16.394Z","name":"Pirates of the Caribbean","fastPass":false,"meta":{"longitude":-81.5842252,"singleRider":false,"type":"ATTRACTION","latitude":28.41796992}},{"id":"WaltDisneyWorldMagicKingdom_80010190","waitTime":null,"status":"Closed","active":false,"lastUpdate":"2021-01-21T00:01:08.558Z","meta":{"unsuitableForPregnantPeople":true,"singleRider":false,"latitude":28.4188341691,"type":"ATTRACTION","longitude":-81.5781962872},"name":"Space Mountain","fastPass":false},{"id":"WaltDisneyWorldMagicKingdom_80010192","waitTime":null,"status":"Closed","active":false,"lastUpdate":"2021-01-21T00:01:17.655Z","name":"Splash Mountain","meta":{"singleRider":false,"unsuitableForPregnantPeople":true,"latitude":28.419418,"longitude":-81.58498,"type":"ATTRACTION"},"fastPass":false},{"id":"WaltDisneyWorldMagicKingdom_80010196","waitTime":null,"status":"Closed","active":false,"lastUpdate":"2021-01-21T00:03:03.935Z","meta":{"longitude":-81.5827982677,"singleRider":false,"latitude":28.4184325517,"type":"ATTRACTION"},"name":"Swiss Family Treehouse","fastPass":false},{"id":"WaltDisneyWorldMagicKingdom_80010208","waitTime":null,"status":"Closed","active":false,"lastUpdate":"2021-01-21T00:01:02.542Z","fastPass":false,"meta":{"type":"ATTRACTION","longitude":-81.58288,"singleRider":false,"latitude":28.4202},"name":"Haunted Mansion"},{"id":"WaltDisneyWorldMagicKingdom_80010210","waitTime":null,"status":"Closed","active":false,"lastUpdate":"2021-01-21T00:01:12.241Z","name":"The Magic Carpets of Aladdin","fastPass":false,"meta":{"singleRider":false,"latitude":28.41843,"longitude":-81.583472,"type":"ATTRACTION"}},{"id":"WaltDisneyWorldMagicKingdom_80010213","waitTime":null,"status":"Closed","active":false,"lastUpdate":"2021-01-21T00:01:18.297Z","name":"The Many Adventures of Winnie the Pooh","fastPass":false,"meta":{"longitude":-81.580266,"singleRider":false,"type":"ATTRACTION","latitude":28.420212}},{"id":"WaltDisneyWorldMagicKingdom_80010220","waitTime":null,"status":"Refurbishment","active":false,"lastUpdate":"2021-01-03T21:24:19.374Z","fastPass":false,"name":"Tom Sawyer Island","meta":{"latitude":28.419503,"singleRider":false,"type":"ATTRACTION","longitude":-81.58428}},{"id":"WaltDisneyWorldMagicKingdom_80010222","waitTime":null,"status":"Closed","active":false,"lastUpdate":"2021-01-21T00:01:12.867Z","fastPass":false,"name":"Tomorrowland Speedway","meta":{"latitude":28.419368,"longitude":-81.579302,"unsuitableForPregnantPeople":true,"type":"ATTRACTION","singleRider":false}},{"id":"WaltDisneyWorldMagicKingdom_80010224","waitTime":null,"status":"Refurbishment","active":false,"lastUpdate":"2021-01-03T21:24:19.826Z","meta":{"type":"ATTRACTION","longitude":-81.579033,"singleRider":false,"latitude":28.418155},"fastPass":false,"name":"Tomorrowland Transit Authority PeopleMover - Temporarily Unavailable"},{"id":"WaltDisneyWorldMagicKingdom_80010230","waitTime":null,"status":"Refurbishment","active":false,"lastUpdate":"2021-01-03T21:23:09.088Z","fastPass":false,"meta":{"longitude":-81.581204,"latitude":28.416543,"type":"ATTRACTION","singleRider":false},"name":"Walt Disney World Railroad - Main Street, U.S.A. - Temporarily Unavailable"},{"id":"WaltDisneyWorldMagicKingdom_80010232","waitTime":null,"status":"Closed","active":false,"lastUpdate":"2021-01-20T23:03:06.337Z","name":"Walt Disney's Carousel of Progress","fastPass":false,"meta":{"singleRider":false,"longitude":-81.5790083064,"type":"ATTRACTION","latitude":28.4180310951}},{"id":"WaltDisneyWorldMagicKingdom_80069748","waitTime":null,"status":"Closed","active":false,"lastUpdate":"2021-01-20T23:03:06.923Z","meta":{"longitude":-81.5837222887,"type":"ATTRACTION","singleRider":false,"latitude":28.4187861348},"fastPass":false,"name":"Country Bear Jamboree"},{"id":"WaltDisneyWorldMagicKingdom_80069754","waitTime":null,"status":"Closed","active":false,"lastUpdate":"2021-01-20T00:03:00.167Z","meta":{"longitude":-81.5823248578,"latitude":28.4194484171,"singleRider":false,"type":"ATTRACTION"},"name":"The Hall of Presidents","fastPass":false},{"id":"WaltDisneyWorldMagicKingdom_90001819","waitTime":null,"status":"Operating","active":true,"lastUpdate":"2021-01-20T23:56:16.854Z","fastPass":false,"meta":{"singleRider":false,"latitude":28.4191196055,"longitude":-81.5826159743,"type":"RESTAURANT"},"name":"Liberty Tree Tavern"},{"id":"WaltDisneyWorldMagicKingdom_90002464","waitTime":null,"status":"Operating","active":true,"lastUpdate":"2021-01-20T20:40:35.480Z","name":"Cinderella's Royal Table","meta":{"type":"RESTAURANT","singleRider":false,"latitude":28.4195,"longitude":-81.581101},"fastPass":false},{"id":"WaltDisneyWorldMagicKingdom_90002660","waitTime":null,"status":"Operating","active":true,"lastUpdate":"2021-01-20T23:57:00.558Z","meta":{"type":"RESTAURANT","latitude":28.4181214892,"longitude":-81.5818970259,"singleRider":false},"fastPass":false,"name":"The Crystal Palace"},{"id":"WaltDisneyWorldMagicKingdom_90002670","waitTime":null,"status":"Operating","active":true,"lastUpdate":"2021-01-20T23:31:56.544Z","fastPass":false,"name":"The Plaza Restaurant","meta":{"singleRider":false,"longitude":-81.5809394969,"latitude":28.4180247703,"type":"RESTAURANT"}},{"id":"WaltDisneyWorldMagicKingdom_90002678","waitTime":null,"status":"Operating","active":true,"lastUpdate":"2021-01-20T23:55:09.636Z","meta":{"longitude":-81.5807276023,"latitude":28.4169323426,"type":"RESTAURANT","singleRider":false},"fastPass":false,"name":"Tony's Town Square Restaurant"},{"id":"WaltDisneyWorldEpcot_107785","waitTime":null,"status":"Closed","active":false,"lastUpdate":"2021-01-21T01:01:08.293Z","fastPass":false,"meta":{"type":"ATTRACTION","singleRider":false,"latitude":28.374904,"longitude":-81.550852},"name":"The Seas with Nemo & Friends"},{"id":"WaltDisneyWorldEpcot_17564219","waitTime":null,"status":"Closed","active":false,"lastUpdate":"2020-09-15T11:33:07.103Z","meta":{"singleRider":false,"latitude":28.37097,"longitude":-81.547134},"name":"Meet Anna and Elsa at Royal Sommerhus - Temporarily Unavailable","fastPass":false},{"id":"WaltDisneyWorldEpcot_17720675","waitTime":null,"status":"Operating","active":true,"lastUpdate":"2021-01-21T00:54:02.728Z","name":"Spice Road Table","meta":{"longitude":-81.551645,"singleRider":false,"type":"RESTAURANT","latitude":28.368468},"fastPass":false},{"id":"WaltDisneyWorldEpcot_18269694","waitTime":null,"status":"Closed","active":false,"lastUpdate":"2021-01-21T01:03:15.694Z","fastPass":false,"name":"Disney and Pixar Short Film Festival","meta":{"latitude":28.37263,"singleRider":false,"longitude":-81.55115,"type":"ATTRACTION"}},{"id":"WaltDisneyWorldEpcot_18375495","waitTime":null,"status":"Closed","active":false,"lastUpdate":"2021-01-21T01:01:07.731Z","meta":{"type":"ATTRACTION","singleRider":false,"longitude":-81.54653,"latitude":28.370745},"fastPass":false,"name":"Frozen Ever After"},{"id":"WaltDisneyWorldEpcot_19463785","waitTime":null,"status":"Closed","active":false,"lastUpdate":"2021-01-20T23:03:05.722Z","name":"Beauty and the Beast Sing-Along","fastPass":false,"meta":{"type":"ATTRACTION","latitude":28.368864,"longitude":-81.552978,"singleRider":false}},{"id":"WaltDisneyWorldEpcot_19473173","waitTime":null,"status":"Closed","active":false,"lastUpdate":"2021-01-21T01:03:17.384Z","name":"Awesome Planet","meta":{"type":"ATTRACTION","singleRider":false,"latitude":28.374301,"longitude":-81.552138},"fastPass":false},{"id":"WaltDisneyWorldEpcot_20194","waitTime":null,"status":"Closed","active":false,"lastUpdate":"2021-01-21T01:01:08.853Z","meta":{"longitude":-81.552248,"singleRider":false,"latitude":28.373592,"type":"ATTRACTION"},"name":"Soarin' Around the World","fastPass":false},{"id":"WaltDisneyWorldEpcot_207395","waitTime":null,"status":"Closed","active":false,"lastUpdate":"2021-01-21T01:03:16.801Z","meta":{"singleRider":false,"longitude":-81.547368,"type":"ATTRACTION","latitude":28.371649},"name":"Gran Fiesta Tour Starring The Three Caballeros","fastPass":false},{"id":"WaltDisneyWorldEpcot_62992","waitTime":null,"status":"Closed","active":false,"lastUpdate":"2021-01-03T21:23:09.564Z","meta":{"type":"ATTRACTION","latitude":28.375255,"longitude":-81.551047,"singleRider":false},"name":"Turtle Talk With Crush - Temporarily Unavailable","fastPass":false},{"id":"WaltDisneyWorldEpcot_80010145","waitTime":null,"status":"Closed","active":false,"lastUpdate":"2021-01-21T00:48:02.493Z","name":"Impressions de France","meta":{"latitude":28.368864,"singleRider":false,"type":"ATTRACTION","longitude":-81.552978},"fastPass":false},{"id":"WaltDisneyWorldEpcot_80010152","waitTime":null,"status":"Closed","active":false,"lastUpdate":"2021-01-21T01:01:04.504Z","fastPass":false,"name":"Journey Into Imagination With Figment","meta":{"longitude":-81.551401,"singleRider":false,"type":"ATTRACTION","latitude":28.372994}},{"id":"WaltDisneyWorldEpcot_80010161","waitTime":null,"status":"Closed","active":false,"lastUpdate":"2021-01-21T01:01:05.179Z","fastPass":false,"name":"Living with the Land","meta":{"type":"ATTRACTION","longitude":-81.552301,"singleRider":false,"latitude":28.374245}},{"id":"WaltDisneyWorldEpcot_80010173","waitTime":null,"status":"Closed","active":false,"lastUpdate":"2021-01-21T01:01:03.356Z","meta":{"type":"ATTRACTION","singleRider":false,"longitude":-81.547156,"latitude":28.373927,"unsuitableForPregnantPeople":true},"name":"Mission: SPACE","fastPass":false},{"id":"WaltDisneyWorldEpcot_80010174","waitTime":null,"status":"Closed","active":false,"lastUpdate":"2021-01-21T00:48:01.828Z","name":"Canada Far and Wide in Circle-Vision 360","meta":{"type":"ATTRACTION","latitude":28.371694,"longitude":-81.55196,"singleRider":false},"fastPass":false},{"id":"WaltDisneyWorldEpcot_80010180","waitTime":null,"status":"Closed","active":false,"lastUpdate":"2021-01-21T01:03:16.265Z","name":"Reflections of China","meta":{"type":"ATTRACTION","singleRider":false,"latitude":28.369791,"longitude":-81.546381},"fastPass":false},{"id":"WaltDisneyWorldEpcot_80010191","waitTime":null,"status":"Closed","active":false,"lastUpdate":"2021-01-21T01:01:03.936Z","name":"Spaceship Earth","fastPass":false,"meta":{"longitude":-81.549401,"type":"ATTRACTION","latitude":28.375583,"singleRider":false}},{"id":"WaltDisneyWorldEpcot_80010199","waitTime":null,"status":"Closed","active":false,"lastUpdate":"2021-01-21T01:01:02.750Z","name":"Test Track","meta":{"longitude":-81.547489,"type":"ATTRACTION","unsuitableForPregnantPeople":true,"latitude":28.373228,"singleRider":true},"fastPass":false},{"id":"WaltDisneyWorldEpcot_80010200","waitTime":null,"status":"Closed","active":false,"lastUpdate":"2021-01-21T01:03:18.005Z","name":"The American Adventure","meta":{"longitude":-81.549446,"latitude":28.367517,"singleRider":false,"type":"ATTRACTION"},"fastPass":false},{"id":"WaltDisneyWorldEpcot_90001292","waitTime":null,"status":"Operating","active":true,"lastUpdate":"2021-01-21T00:46:12.072Z","name":"Biergarten Restaurant","meta":{"singleRider":false,"type":"RESTAURANT","latitude":28.368153,"longitude":-81.546819},"fastPass":false},{"id":"WaltDisneyWorldEpcot_90001416","waitTime":null,"status":"Operating","active":true,"lastUpdate":"2021-01-20T23:01:18.785Z","name":"Coral Reef Restaurant","fastPass":false,"meta":{"singleRider":false,"latitude":28.375096,"longitude":-81.550458,"type":"RESTAURANT"}},{"id":"WaltDisneyWorldEpcot_90001798","waitTime":null,"status":"Operating","active":true,"lastUpdate":"2021-01-21T00:56:55.053Z","meta":{"latitude":28.371657,"longitude":-81.551512,"singleRider":false,"type":"RESTAURANT"},"name":"Le Cellier Steakhouse","fastPass":false},{"id":"WaltDisneyWorldEpcot_90002084","waitTime":null,"status":"Operating","active":true,"lastUpdate":"2021-01-21T00:55:07.737Z","meta":{"type":"RESTAURANT","singleRider":false,"longitude":-81.551684,"latitude":28.370508},"name":"Rose & Crown Dining Room","fastPass":false},{"id":"WaltDisneyWorldEpcot_90002237","waitTime":null,"status":"Operating","active":true,"lastUpdate":"2021-01-21T01:00:39.918Z","fastPass":false,"meta":{"type":"RESTAURANT","singleRider":false,"longitude":-81.552324,"latitude":28.374039},"name":"Garden Grill Restaurant"},{"id":"WaltDisneyWorldHollywoodStudios_136","waitTime":null,"status":"Closed","active":false,"lastUpdate":"2020-09-15T11:33:12.086Z","meta":{"singleRider":false,"latitude":28.3566700675,"longitude":-81.5586114479},"name":"Indiana Jones™ Epic Stunt Spectacular! - Temporarily Unavailable","fastPass":false},{"id":"WaltDisneyWorldHollywoodStudios_17842841","waitTime":null,"status":"Closed","active":false,"lastUpdate":"2020-09-15T11:33:12.046Z","meta":{"singleRider":false,"longitude":-81.5596944094,"latitude":28.3568243464},"name":"For the First Time in Forever: A Frozen Sing-Along Celebration - Temporarily Unavailable","fastPass":false},{"id":"WaltDisneyWorldHollywoodStudios_18189394","waitTime":null,"status":"Closed","active":false,"lastUpdate":"2020-09-15T11:33:12.077Z","meta":{"longitude":-81.560938,"singleRider":false,"latitude":28.35796},"name":"Star Wars Launch Bay: Meet Chewbacca - Temporarily Unavailable","fastPass":false},{"id":"WaltDisneyWorldHollywoodStudios_18189398","waitTime":null,"status":"Closed","active":false,"lastUpdate":"2020-09-15T11:33:12.069Z","fastPass":false,"meta":{"longitude":-81.560938,"latitude":28.35796,"singleRider":false},"name":"Star Wars Launch Bay: Encounter Darth Vader - Temporarily Unavailable"},{"id":"WaltDisneyWorldHollywoodStudios_18360041","waitTime":null,"status":"Closed","active":false,"lastUpdate":"2021-01-03T21:23:31.878Z","meta":{"singleRider":false,"type":"ATTRACTION","longitude":-81.561061,"latitude":28.357821},"name":"Star Wars Launch Bay Theater - Temporarily Unavailable","fastPass":false},{"id":"WaltDisneyWorldHollywoodStudios_18368385","waitTime":null,"status":"Closed","active":false,"lastUpdate":"2020-09-15T11:33:12.104Z","name":"Celebrity Spotlight - Temporarily Unavailable","fastPass":false,"meta":{"singleRider":false,"latitude":28.356072,"longitude":-81.559158}},{"id":"WaltDisneyWorldHollywoodStudios_18368386","waitTime":null,"status":"Closed","active":false,"lastUpdate":"2020-09-15T11:33:12.095Z","meta":{"longitude":-81.559479,"singleRider":false,"latitude":28.356068},"name":"Mickey and Minnie Starring in Red Carpet Dreams - Temporarily Unavailable","fastPass":false},{"id":"WaltDisneyWorldHollywoodStudios_18669338","waitTime":null,"status":"Closed","active":false,"lastUpdate":"2020-09-15T11:33:12.121Z","meta":{"longitude":-81.560938,"singleRider":false,"latitude":28.35796},"fastPass":false,"name":"BB-8 Astromech on Duty - Temporarily Unavailable"},{"id":"WaltDisneyWorldHollywoodStudios_18770880","waitTime":null,"status":"Closed","active":false,"lastUpdate":"2021-01-20T23:03:01.199Z","name":"Walt Disney Presents","fastPass":false,"meta":{"singleRider":false,"longitude":-81.560982,"latitude":28.35686,"type":"ATTRACTION"}},{"id":"WaltDisneyWorldHollywoodStudios_18904138","waitTime":null,"status":"Closed","active":false,"lastUpdate":"2021-01-21T00:01:06.621Z","name":"Slinky Dog Dash","fastPass":false,"meta":{"singleRider":false,"longitude":-81.562786,"type":"ATTRACTION","unsuitableForPregnantPeople":true,"latitude":28.356245}},{"id":"WaltDisneyWorldHollywoodStudios_18904172","waitTime":null,"status":"Closed","active":false,"lastUpdate":"2021-01-21T00:01:10.379Z","meta":{"type":"ATTRACTION","latitude":28.355385,"longitude":-81.562379,"singleRider":false},"name":"Alien Swirling Saucers","fastPass":false},{"id":"WaltDisneyWorldHollywoodStudios_19025682","waitTime":null,"status":"Operating","active":true,"lastUpdate":"2020-09-15T14:02:51.117Z","meta":{"latitude":28.355234,"longitude":-81.559787,"singleRider":false},"fastPass":false,"name":"Star Wars: Galaxy's Edge"},{"id":"WaltDisneyWorldHollywoodStudios_19152250","waitTime":null,"status":"Closed","active":false,"lastUpdate":"2020-09-15T11:33:12.147Z","meta":{"latitude":28.356865,"longitude":-81.560984,"singleRider":false},"name":"Meet Sulley at Walt Disney Presents - Temporarily Unavailable","fastPass":false},{"id":"WaltDisneyWorldHollywoodStudios_19259335","waitTime":null,"status":"Closed","active":false,"lastUpdate":"2021-01-21T00:01:19.412Z","meta":{"longitude":-81.5605667783,"latitude":28.3566783801,"singleRider":false,"type":"ATTRACTION"},"name":"Mickey & Minnie's Runaway Railway","fastPass":false},{"id":"WaltDisneyWorldHollywoodStudios_19263735","waitTime":null,"status":"Closed","active":false,"lastUpdate":"2021-01-21T00:01:13.467Z","meta":{"singleRider":true,"longitude":-81.561689,"unsuitableForPregnantPeople":true,"latitude":28.353889,"type":"ATTRACTION"},"name":"Millennium Falcon: Smugglers Run","fastPass":false},{"id":"WaltDisneyWorldHollywoodStudios_19263736","waitTime":null,"status":"Closed","active":false,"lastUpdate":"2021-01-21T00:02:03.308Z","fastPass":false,"meta":{"singleRider":false,"type":"ATTRACTION","longitude":-81.560457,"unsuitableForPregnantPeople":true,"latitude":28.354884},"name":"Star Wars: Rise of the Resistance"},{"id":"WaltDisneyWorldHollywoodStudios_19267226","waitTime":null,"status":"Closed","active":false,"lastUpdate":"2021-01-03T21:23:32.330Z","meta":{"type":"RESTAURANT","singleRider":false,"longitude":-81.562075,"latitude":28.354095},"fastPass":false,"name":"Oga's Cantina at the Walt Disney World Resort"},{"id":"WaltDisneyWorldHollywoodStudios_19276204","waitTime":null,"status":"Closed","active":false,"lastUpdate":"2021-01-20T23:03:05.195Z","fastPass":false,"meta":{"longitude":-81.560707,"singleRider":false,"type":"ATTRACTION","latitude":28.360035},"name":"Lightning McQueen's Racing Academy"},