[{"id":"WaltDisneyWorldMagicKingdom_136550","waitTime":null,"status":"Closed","active":false,"lastUpdate":"2021-01-03T21:24:21.706Z","name":"Monsters, Inc. Laugh Floor - Temporarily Unavailable","fastPass":false,"meta":{"type":"ATTRACTION","singleRider":false,"longitude":-81.5797358751,"latitude":28.4183977566}},{"id":"WaltDisneyWorldMagicKingdom_15743682","waitTime":null,"status":"Closed","active":false,"lastUpdate":"2020-09-15T11:33:17.406Z","fastPass":false,"meta":{"latitude":28.421282,"longitude":-81.578932,"singleRider":false},"name":"Meet Dashing Disney Pals as Circus Stars at Pete’s Silly Side Show - Temporarily Unavailable"},{"id":"WaltDisneyWorldMagicKingdom_15850196","waitTime":null,"status":"Closed","active":false,"lastUpdate":"2020-09-15T11:33:17.374Z","fastPass":false,"meta":{"latitude":28.416727,"longitude":-81.580746,"singleRider":false},"name":"Meet Mickey Mouse at Town Square Theater - Temporarily Unavailable"},{"id":"WaltDisneyWorldMagicKingdom_16124144","waitTime":null,"status":"Closed","active":false,"lastUpdate":"2021-01-22T00:00:14.770Z","meta":{"singleRider":false,"longitude":-81.583738382,"latitude":28.4182264646,"type":"ATTRACTION"},"name":"Walt Disney's Enchanted Tiki Room","fastPass":false},{"id":"WaltDisneyWorldMagicKingdom_16414579","waitTime":null,"status":"Closed","active":false,"lastUpdate":"2021-01-21T23:00:17.457Z","meta":{"singleRider":false,"type":"ATTRACTION","longitude":-81.58163,"latitude":28.416944},"name":"Sorcerers of the Magic Kingdom","fastPass":false},{"id":"WaltDisneyWorldMagicKingdom_16491297","waitTime":null,"status":"Closed","active":false,"lastUpdate":"2021-01-22T00:00:15.297Z","name":"The Barnstormer","fastPass":false,"meta":{"unsuitableForPregnantPeople":true,"singleRider":false,"type":"ATTRACTION","longitude":-81.5783907473,"latitude":28.4207661576}},{"id":"WaltDisneyWorldMagicKingdom_16491299","waitTime":null,"status":"Refurbishment","active":false,"lastUpdate":"2021-01-03T21:24:18.928Z","fastPass":false,"name":"Walt Disney World Railroad - Fantasyland - Temporarily Unavailable","meta":{"singleRider":false,"type":"ATTRACTION","longitude":-81.578368,"latitude":28.420934}},{"id":"WaltDisneyWorldMagicKingdom_16660079","waitTime":50,"status":"Operating","active":true,"lastUpdate":"2021-01-22T00:01:24.627Z","name":"Be Our Guest Restaurant","fastPass":false,"meta":{"longitude":-81.5807074858,"type":"RESTAURANT","singleRider":false,"latitude":28.4212491492}},{"id":"WaltDisneyWorldMagicKingdom_16767263","waitTime":null,"status":"Closed","active":false,"lastUpdate":"2021-01-22T00:00:15.921Z","name":"Under the Sea ~ Journey of The Little Mermaid","fastPass":false,"meta":{"latitude":28.4211203226,"type":"ATTRACTION","longitude":-81.5799752427,"singleRider":false}},{"id":"WaltDisneyWorldMagicKingdom_16767276","waitTime":null,"status":"Closed","active":false,"lastUpdate":"2021-01-03T21:24:20.764Z","fastPass":false,"name":"Enchanted Tales with Belle - Temporarily Unavailable","meta":{"singleRider":false,"type":"ATTRACTION","longitude":-81.58093011,"latitude":28.42099058}},{"id":"WaltDisneyWorldMagicKingdom_16767284","waitTime":null,"status":"Closed","active":false,"lastUpdate":"2021-01-22T00:00:16.799Z","name":"Seven Dwarfs Mine Train","fastPass":false,"meta":{"type":"ATTRACTION","longitude":-81.58031,"unsuitableForPregnantPeople":true,"latitude":28.42037,"singleRider":false}},{"id":"WaltDisneyWorldMagicKingdom_16874126","waitTime":null,"status":"Closed","active":false,"lastUpdate":"2020-09-15T11:33:17.441Z","name":"Meet Ariel at Her Grotto - Temporarily Unavailable","meta":{"latitude":28.420893275289,"singleRider":false,"longitude":-81.579613144497},"fastPass":false},{"id":"WaltDisneyWorldMagicKingdom_17272158","waitTime":null,"status":"Closed","active":false,"lastUpdate":"2021-01-03T21:24:21.210Z","meta":{"singleRider":false,"type":"ATTRACTION","latitude":28.41837254,"longitude":-81.58466913},"name":"A Pirate's Adventure ~ Treasures of the Seven Seas - Temporarily Unavailable","fastPass":false},{"id":"WaltDisneyWorldMagicKingdom_17505397","waitTime":null,"status":"Closed","active":false,"lastUpdate":"2020-09-15T11:33:17.486Z","fastPass":false,"name":"Meet Rapunzel and Tiana at Princess Fairytale Hall - Temporarily Unavailable","meta":{"longitude":-81.580917439677,"latitude":28.420045752669,"singleRider":false}},{"id":"WaltDisneyWorldMagicKingdom_17752793","waitTime":null,"status":"Closed","active":false,"lastUpdate":"2020-09-15T11:33:17.444Z","name":"Meet Tinker Bell at Town Square Theater - Temporarily Unavailable","meta":{"latitude":28.416727,"longitude":-81.580815,"singleRider":false},"fastPass":false},{"id":"WaltDisneyWorldMagicKingdom_18185631","waitTime":null,"status":"Operating","active":true,"lastUpdate":"2021-01-21T22:43:27.242Z","meta":{"singleRider":false,"longitude":-81.582592,"latitude":28.418491,"type":"RESTAURANT"},"fastPass":false,"name":"Jungle Navigation Co. LTD Skipper Canteen"},{"id":"WaltDisneyWorldMagicKingdom_18498503","waitTime":null,"status":"Closed","active":false,"lastUpdate":"2020-09-15T11:33:17.494Z","fastPass":false,"meta":{"singleRider":false,"latitude":28.420012,"longitude":-81.58094},"name":"Meet Cinderella and Elena at Princess Fairytale Hall - Temporarily Unavailable"},{"id":"WaltDisneyWorldMagicKingdom_2219610","waitTime":null,"status":"Refurbishment","active":false,"lastUpdate":"2021-01-03T21:23:08.615Z","name":"Walt Disney World Railroad - Frontierland - Temporarily Unavailable","fastPass":false,"meta":{"type":"ATTRACTION","latitude":28.41969,"longitude":-81.585078,"singleRider":false}},{"id":"WaltDisneyWorldMagicKingdom_387133","waitTime":null,"status":"Closed","active":false,"lastUpdate":"2020-09-15T11:33:17.492Z","fastPass":false,"name":"Meet Daring Disney Pals as Circus Stars at Pete's Silly Side Show - Temporarily Unavailable","meta":{"longitude":-81.578932,"latitude":28.421282,"singleRider":false}},{"id":"WaltDisneyWorldMagicKingdom_80010107","waitTime":null,"status":"Closed","active":false,"lastUpdate":"2021-01-22T00:00:20.807Z","name":"Astro Orbiter","fastPass":false,"meta":{"longitude":-81.5789887902,"type":"ATTRACTION","latitude":28.4184926179,"singleRider":false}},{"id":"WaltDisneyWorldMagicKingdom_80010110","waitTime":null,"status":"Closed","active":false,"lastUpdate":"2021-01-22T00:00:21.342Z","name":"Big Thunder Mountain Railroad","fastPass":false,"meta":{"longitude":-81.5846422864,"type":"ATTRACTION","singleRider":false,"latitude":28.4199638504,"unsuitableForPregnantPeople":true}},{"id":"WaltDisneyWorldMagicKingdom_80010114","waitTime":null,"status":"Closed","active":false,"lastUpdate":"2021-01-22T00:00:21.899Z","fastPass":false,"name":"Buzz Lightyear's Space Ranger Spin","meta":{"singleRider":false,"latitude":28.4182868839,"longitude":-81.5794086456,"type":"ATTRACTION"}},{"id":"WaltDisneyWorldMagicKingdom_80010117","waitTime":null,"status":"Closed","active":false,"lastUpdate":"2021-01-22T00:00:23.029Z","meta":{"singleRider":false,"type":"ATTRACTION","longitude":-81.581255,"latitude":28.420169},"name":"Prince Charming Regal Carrousel","fastPass":false},{"id":"WaltDisneyWorldMagicKingdom_80010129","waitTime":null,"status":"Closed","active":false,"lastUpdate":"2021-01-22T00:00:22.452Z","fastPass":false,"name":"Dumbo the Flying Elephant","meta":{"type":"ATTRACTION","latitude":28.420509033,"singleRider":false,"longitude":-81.5789473057}},{"id":"WaltDisneyWorldMagicKingdom_80010149","waitTime":null,"status":"Closed","active":false,"lastUpdate":"2021-01-22T00:00:24.075Z","name":"\"it's a small world\"","meta":{"type":"ATTRACTION","singleRider":false,"longitude":-81.5820392026,"latitude":28.4204816402},"fastPass":false},{"id":"WaltDisneyWorldMagicKingdom_80010153","waitTime":null,"status":"Closed","active":false,"lastUpdate":"2021-01-22T00:00:23.563Z","name":"Jungle Cruise","fastPass":false,"meta":{"longitude":-81.5834393157,"singleRider":false,"latitude":28.41797818,"type":"ATTRACTION"}},{"id":"WaltDisneyWorldMagicKingdom_80010160","waitTime":null,"status":"Refurbishment","active":false,"lastUpdate":"2021-01-03T21:23:48.006Z","fastPass":false,"name":"Liberty Square Riverboat","meta":{"singleRider":false,"longitude":-81.5827982677,"latitude":28.4195563399,"type":"ATTRACTION"}},{"id":"WaltDisneyWorldMagicKingdom_80010162","waitTime":null,"status":"Closed","active":false,"lastUpdate":"2021-01-22T00:00:13.532Z","fastPass":false,"meta":{"latitude":28.4200230397,"longitude":-81.5798248916,"singleRider":false,"type":"ATTRACTION"},"name":"Mad Tea Party"},{"id":"WaltDisneyWorldMagicKingdom_80010165","waitTime":null,"status":"Closed","active":false,"lastUpdate":"2021-01-03T21:24:20.300Z","meta":{"latitude":28.4168698711,"longitude":-81.5815081252,"singleRider":false,"type":"ATTRACTION"},"name":"Main Street Vehicles - Temporarily Unavailable","fastPass":false},{"id":"WaltDisneyWorldMagicKingdom_80010170","waitTime":null,"status":"Closed","active":false,"lastUpdate":"2021-01-22T00:00:24.601Z","name":"Mickey's PhilharMagic","meta":{"latitude":28.4200304909,"singleRider":false,"longitude":-81.5814839853,"type":"ATTRACTION"},"fastPass":false},{"id":"WaltDisneyWorldMagicKingdom_80010176","waitTime":null,"status":"Closed","active":false,"lastUpdate":"2021-01-22T00:00:08.387Z","meta":{"latitude":28.4202640272,"longitude":-81.5818916811,"singleRider":false,"type":"ATTRACTION"},"fastPass":false,"name":"Peter Pan's Flight"},{"id":"WaltDisneyWorldMagicKingdom_80010177","waitTime":null,"status":"Closed","active":false,"lastUpdate":"2021-01-22T00:00:25.140Z","meta":{"latitude":28.41796992,"longitude":-81.5842252,"type":"ATTRACTION","singleRider":false},"fastPass":false,"name":"Pirates of the Caribbean"},{"id":"WaltDisneyWorldMagicKingdom_80010190","waitTime":null,"status":"Closed","active":false,"lastUpdate":"2021-01-22T00:00:26.198Z","meta":{"longitude":-81.5781962872,"latitude":28.4188341691,"singleRider":false,"unsuitableForPregnantPeople":true,"type":"ATTRACTION"},"fastPass":false,"name":"Space Mountain"},{"id":"WaltDisneyWorldMagicKingdom_80010192","waitTime":null,"status":"Closed","active":false,"lastUpdate":"2021-01-22T00:00:26.755Z","name":"Splash Mountain","meta":{"singleRider":false,"unsuitableForPregnantPeople":true,"type":"ATTRACTION","latitude":28.419418,"longitude":-81.58498},"fastPass":false},{"id":"WaltDisneyWorldMagicKingdom_80010196","waitTime":null,"status":"Closed","active":false,"lastUpdate":"2021-01-22T00:00:27.363Z","fastPass":false,"meta":{"singleRider":false,"type":"ATTRACTION","latitude":28.4184325517,"longitude":-81.5827982677},"name":"Swiss Family Treehouse"},{"id":"WaltDisneyWorldMagicKingdom_80010208","waitTime":null,"status":"Closed","active":false,"lastUpdate":"2021-01-22T00:00:27.912Z","name":"Haunted Mansion","meta":{"latitude":28.4202,"singleRider":false,"longitude":-81.58288,"type":"ATTRACTION"},"fastPass":false},{"id":"WaltDisneyWorldMagicKingdom_80010210","waitTime":null,"status":"Closed","active":false,"lastUpdate":"2021-01-22T00:00:08.993Z","fastPass":false,"name":"The Magic Carpets of Aladdin","meta":{"singleRider":false,"type":"ATTRACTION","latitude":28.41843,"longitude":-81.583472}},{"id":"WaltDisneyWorldMagicKingdom_80010213","waitTime":null,"status":"Closed","active":false,"lastUpdate":"2021-01-22T00:00:28.535Z","meta":{"latitude":28.420212,"longitude":-81.580266,"singleRider":false,"type":"ATTRACTION"},"fastPass":false,"name":"The Many Adventures of Winnie the Pooh"},{"id":"WaltDisneyWorldMagicKingdom_80010220","waitTime":null,"status":"Refurbishment","active":false,"lastUpdate":"2021-01-03T21:24:19.374Z","name":"Tom Sawyer Island","meta":{"type":"ATTRACTION","singleRider":false,"longitude":-81.58428,"latitude":28.419503},"fastPass":false},{"id":"WaltDisneyWorldMagicKingdom_80010222","waitTime":null,"status":"Closed","active":false,"lastUpdate":"2021-01-22T00:00:12.288Z","meta":{"longitude":-81.579302,"singleRider":false,"type":"ATTRACTION","unsuitableForPregnantPeople":true,"latitude":28.419368},"name":"Tomorrowland Speedway","fastPass":false},{"id":"WaltDisneyWorldMagicKingdom_80010224","waitTime":null,"status":"Refurbishment","active":false,"lastUpdate":"2021-01-03T21:24:19.826Z","name":"Tomorrowland Transit Authority PeopleMover - Temporarily Unavailable","meta":{"type":"ATTRACTION","singleRider":false,"latitude":28.418155,"longitude":-81.579033},"fastPass":false},{"id":"WaltDisneyWorldMagicKingdom_80010230","waitTime":null,"status":"Refurbishment","active":false,"lastUpdate":"2021-01-03T21:23:09.088Z","fastPass":false,"meta":{"latitude":28.416543,"singleRider":false,"type":"ATTRACTION","longitude":-81.581204},"name":"Walt Disney World Railroad - Main Street, U.S.A. - Temporarily Unavailable"},{"id":"WaltDisneyWorldMagicKingdom_80010232","waitTime":null,"status":"Closed","active":false,"lastUpdate":"2021-01-21T23:00:14.167Z","fastPass":false,"name":"Walt Disney's Carousel of Progress","meta":{"longitude":-81.5790083064,"singleRider":false,"latitude":28.4180310951,"type":"ATTRACTION"}},{"id":"WaltDisneyWorldMagicKingdom_80069748","waitTime":null,"status":"Closed","active":false,"lastUpdate":"2021-01-22T00:00:29.109Z","fastPass":false,"name":"Country Bear Jamboree","meta":{"longitude":-81.5837222887,"latitude":28.4187861348,"type":"ATTRACTION","singleRider":false}},{"id":"WaltDisneyWorldMagicKingdom_80069754","waitTime":null,"status":"Refurbishment","active":false,"lastUpdate":"2021-01-21T05:00:35.597Z","meta":{"type":"ATTRACTION","latitude":28.4194484171,"longitude":-81.5823248578,"singleRider":false},"fastPass":false,"name":"The Hall of Presidents"},{"id":"WaltDisneyWorldMagicKingdom_90001819","waitTime":null,"status":"Operating","active":true,"lastUpdate":"2021-01-21T23:57:00.477Z","fastPass":false,"meta":{"longitude":-81.5826159743,"singleRider":false,"type":"RESTAURANT","latitude":28.4191196055},"name":"Liberty Tree Tavern"},{"id":"WaltDisneyWorldMagicKingdom_90002464","waitTime":null,"status":"Operating","active":true,"lastUpdate":"2021-01-21T21:09:50.178Z","name":"Cinderella's Royal Table","meta":{"singleRider":false,"type":"RESTAURANT","latitude":28.4195,"longitude":-81.581101},"fastPass":false},{"id":"WaltDisneyWorldMagicKingdom_90002660","waitTime":null,"status":"Operating","active":true,"lastUpdate":"2021-01-21T23:55:11.329Z","fastPass":false,"meta":{"type":"RESTAURANT","latitude":28.4181214892,"singleRider":false,"longitude":-81.5818970259},"name":"The Crystal Palace"},{"id":"WaltDisneyWorldMagicKingdom_90002670","waitTime":null,"status":"Operating","active":true,"lastUpdate":"2021-01-21T23:55:59.735Z","name":"The Plaza Restaurant","fastPass":false,"meta":{"longitude":-81.5809394969,"latitude":28.4180247703,"singleRider":false,"type":"RESTAURANT"}},{"id":"WaltDisneyWorldMagicKingdom_90002678","waitTime":null,"status":"Operating","active":true,"lastUpdate":"2021-01-21T23:55:15.074Z","name":"Tony's Town Square Restaurant","meta":{"singleRider":false,"latitude":28.4169323426,"type":"RESTAURANT","longitude":-81.5807276023},"fastPass":false},{"id":"WaltDisneyWorldEpcot_107785","waitTime":5,"status":"Operating","active":true,"lastUpdate":"2021-01-21T16:00:09.246Z","name":"The Seas with Nemo & Friends","fastPass":false,"meta":{"singleRider":false,"type":"ATTRACTION","latitude":28.374904,"longitude":-81.550852}},{"id":"WaltDisneyWorldEpcot_17564219","waitTime":null,"status":"Closed","active":false,"lastUpdate":"2020-09-15T11:33:07.103Z","fastPass":false,"name":"Meet Anna and Elsa at Royal Sommerhus - Temporarily Unavailable","meta":{"singleRider":false,"latitude":28.37097,"longitude":-81.547134}},{"id":"WaltDisneyWorldEpcot_17720675","waitTime":5,"status":"Operating","active":true,"lastUpdate":"2021-01-21T23:30:16.082Z","meta":{"longitude":-81.551645,"singleRider":false,"latitude":28.368468,"type":"RESTAURANT"},"fastPass":false,"name":"Spice Road Table"},{"id":"WaltDisneyWorldEpcot_18269694","waitTime":null,"status":"Operating","active":true,"lastUpdate":"2021-01-21T16:03:07.438Z","fastPass":false,"name":"Disney and Pixar Short Film Festival","meta":{"latitude":28.37263,"singleRider":false,"type":"ATTRACTION","longitude":-81.55115}},{"id":"WaltDisneyWorldEpcot_18375495","waitTime":20,"status":"Operating","active":true,"lastUpdate":"2021-01-21T23:20:18.751Z","name":"Frozen Ever After","fastPass":false,"meta":{"singleRider":false,"type":"ATTRACTION","latitude":28.370745,"longitude":-81.54653}},{"id":"WaltDisneyWorldEpcot_19463785","waitTime":null,"status":"Closed","active":false,"lastUpdate":"2021-01-21T23:00:15.313Z","fastPass":false,"name":"Beauty and the Beast Sing-Along","meta":{"singleRider":false,"latitude":28.368864,"longitude":-81.552978,"type":"ATTRACTION"}},{"id":"WaltDisneyWorldEpcot_19473173","waitTime":null,"status":"Operating","active":true,"lastUpdate":"2021-01-21T22:09:09.727Z","name":"Awesome Planet","fastPass":false,"meta":{"singleRider":false,"longitude":-81.552138,"latitude":28.374301,"type":"ATTRACTION"}},{"id":"WaltDisneyWorldEpcot_20194","waitTime":15,"status":"Operating","active":true,"lastUpdate":"2021-01-21T16:00:14.733Z","name":"Soarin' Around the World","fastPass":false,"meta":{"latitude":28.373592,"longitude":-81.552248,"type":"ATTRACTION","singleRider":false}},{"id":"WaltDisneyWorldEpcot_207395","waitTime":10,"status":"Operating","active":true,"lastUpdate":"2021-01-21T20:48:11.276Z","meta":{"latitude":28.371649,"type":"ATTRACTION","longitude":-81.547368,"singleRider":false},"fastPass":false,"name":"Gran Fiesta Tour Starring The Three Caballeros"},{"id":"WaltDisneyWorldEpcot_62992","waitTime":null,"status":"Closed","active":false,"lastUpdate":"2021-01-03T21:23:09.564Z","meta":{"type":"ATTRACTION","latitude":28.375255,"singleRider":false,"longitude":-81.551047},"fastPass":false,"name":"Turtle Talk With Crush - Temporarily Unavailable"},{"id":"WaltDisneyWorldEpcot_80010145","waitTime":null,"status":"Operating","active":true,"lastUpdate":"2021-01-21T23:30:16.735Z","name":"Impressions de France","fastPass":false,"meta":{"latitude":28.368864,"singleRider":false,"longitude":-81.552978,"type":"ATTRACTION"}},{"id":"WaltDisneyWorldEpcot_80010152","waitTime":5,"status":"Operating","active":true,"lastUpdate":"2021-01-21T17:35:16.928Z","fastPass":false,"meta":{"longitude":-81.551401,"latitude":28.372994,"type":"ATTRACTION","singleRider":false},"name":"Journey Into Imagination With Figment"},{"id":"WaltDisneyWorldEpcot_80010161","waitTime":null,"status":"Down","active":false,"lastUpdate":"2021-01-21T22:44:19.048Z","meta":{"type":"ATTRACTION","longitude":-81.552301,"singleRider":false,"latitude":28.374245},"name":"Living with the Land","fastPass":false},{"id":"WaltDisneyWorldEpcot_80010173","waitTime":20,"status":"Operating","active":true,"lastUpdate":"2021-01-21T23:07:18.800Z","meta":{"longitude":-81.547156,"latitude":28.373927,"singleRider":false,"type":"ATTRACTION","unsuitableForPregnantPeople":true},"name":"Mission: SPACE","fastPass":false},{"id":"WaltDisneyWorldEpcot_80010174","waitTime":null,"status":"Operating","active":true,"lastUpdate":"2021-01-21T16:03:11.201Z","fastPass":false,"name":"Canada Far and Wide in Circle-Vision 360","meta":{"type":"ATTRACTION","singleRider":false,"latitude":28.371694,"longitude":-81.55196}},{"id":"WaltDisneyWorldEpcot_80010180","waitTime":null,"status":"Operating","active":true,"lastUpdate":"2021-01-21T16:03:08.128Z","fastPass":false,"name":"Reflections of China","meta":{"type":"ATTRACTION","latitude":28.369791,"singleRider":false,"longitude":-81.546381}},{"id":"WaltDisneyWorldEpcot_80010191","waitTime":5,"status":"Operating","active":true,"lastUpdate":"2021-01-21T22:54:09.319Z","name":"Spaceship Earth","fastPass":false,"meta":{"longitude":-81.549401,"latitude":28.375583,"singleRider":false,"type":"ATTRACTION"}},{"id":"WaltDisneyWorldEpcot_80010199","waitTime":30,"status":"Operating","active":true,"lastUpdate":"2021-01-21T21:36:10.799Z","fastPass":false,"name":"Test Track","meta":{"type":"ATTRACTION","longitude":-81.547489,"unsuitableForPregnantPeople":true,"latitude":28.373228,"singleRider":true}},{"id":"WaltDisneyWorldEpcot_80010200","waitTime":null,"status":"Operating","active":true,"lastUpdate":"2021-01-21T16:03:11.795Z","name":"The American Adventure","fastPass":false,"meta":{"singleRider":false,"latitude":28.367517,"type":"ATTRACTION","longitude":-81.549446}},{"id":"WaltDisneyWorldEpcot_90001292","waitTime":25,"status":"Operating","active":true,"lastUpdate":"2021-01-22T00:05:34.267Z","fastPass":false,"name":"Biergarten Restaurant","meta":{"type":"RESTAURANT","longitude":-81.546819,"singleRider":false,"latitude":28.368153}},{"id":"WaltDisneyWorldEpcot_90001416","waitTime":null,"status":"Operating","active":true,"lastUpdate":"2021-01-21T23:12:04.564Z","meta":{"longitude":-81.550458,"singleRider":false,"type":"RESTAURANT","latitude":28.375096},"name":"Coral Reef Restaurant","fastPass":false},{"id":"WaltDisneyWorldEpcot_90001798","waitTime":35,"status":"Operating","active":true,"lastUpdate":"2021-01-22T00:06:16.075Z","name":"Le Cellier Steakhouse","meta":{"longitude":-81.551512,"singleRider":false,"type":"RESTAURANT","latitude":28.371657},"fastPass":false},{"id":"WaltDisneyWorldEpcot_90002084","waitTime":30,"status":"Operating","active":true,"lastUpdate":"2021-01-22T00:04:03.142Z","name":"Rose & Crown Dining Room","meta":{"singleRider":false,"type":"RESTAURANT","latitude":28.370508,"longitude":-81.551684},"fastPass":false},{"id":"WaltDisneyWorldEpcot_90002237","waitTime":25,"status":"Operating","active":true,"lastUpdate":"2021-01-22T00:05:44.937Z","meta":{"latitude":28.374039,"longitude":-81.552324,"singleRider":false,"type":"RESTAURANT"},"name":"Garden Grill Restaurant","fastPass":false},{"id":"WaltDisneyWorldHollywoodStudios_136","waitTime":null,"status":"Closed","active":false,"lastUpdate":"2020-09-15T11:33:12.086Z","name":"Indiana Jones™ Epic Stunt Spectacular! - Temporarily Unavailable","meta":{"singleRider":false,"longitude":-81.5586114479,"latitude":28.3566700675},"fastPass":false},{"id":"WaltDisneyWorldHollywoodStudios_17842841","waitTime":null,"status":"Closed","active":false,"lastUpdate":"2020-09-15T11:33:12.046Z","name":"For the First Time in Forever: A Frozen Sing-Along Celebration - Temporarily Unavailable","meta":{"longitude":-81.5596944094,"latitude":28.3568243464,"singleRider":false},"fastPass":false},{"id":"WaltDisneyWorldHollywoodStudios_18189394","waitTime":null,"status":"Closed","active":false,"lastUpdate":"2020-09-15T11:33:12.077Z","fastPass":false,"name":"Star Wars Launch Bay: Meet Chewbacca - Temporarily Unavailable","meta":{"longitude":-81.560938,"singleRider":false,"latitude":28.35796}},{"id":"WaltDisneyWorldHollywoodStudios_18189398","waitTime":null,"status":"Closed","active":false,"lastUpdate":"2020-09-15T11:33:12.069Z","fastPass":false,"meta":{"singleRider":false,"latitude":28.35796,"longitude":-81.560938},"name":"Star Wars Launch Bay: Encounter Darth Vader - Temporarily Unavailable"},{"id":"WaltDisneyWorldHollywoodStudios_18360041","waitTime":null,"status":"Closed","active":false,"lastUpdate":"2021-01-03T21:23:31.878Z","name":"Star Wars Launch Bay Theater - Temporarily Unavailable","fastPass":false,"meta":{"singleRider":false,"type":"ATTRACTION","longitude":-81.561061,"latitude":28.357821}},{"id":"WaltDisneyWorldHollywoodStudios_18368385","waitTime":null,"status":"Closed","active":false,"lastUpdate":"2020-09-15T11:33:12.104Z","name":"Celebrity Spotlight - Temporarily Unavailable","fastPass":false,"meta":{"singleRider":false,"latitude":28.356072,"longitude":-81.559158}},{"id":"WaltDisneyWorldHollywoodStudios_18368386","waitTime":null,"status":"Closed","active":false,"lastUpdate":"2020-09-15T11:33:12.095Z","meta":{"longitude":-81.559479,"latitude":28.356068,"singleRider":false},"fastPass":false,"name":"Mickey and Minnie Starring in Red Carpet Dreams - Temporarily Unavailable"},{"id":"WaltDisneyWorldHollywoodStudios_18669338","waitTime":null,"status":"Closed","active":false,"lastUpdate":"2020-09-15T11:33:12.121Z","meta":{"longitude":-81.560938,"singleRider":false,"latitude":28.35796},"fastPass":false,"name":"BB-8 Astromech on Duty - Temporarily Unavailable"},{"id":"WaltDisneyWorldHollywoodStudios_18770880","waitTime":null,"status":"Closed","active":false,"lastUpdate":"2021-01-21T23:00:14.755Z","meta":{"singleRider":false,"longitude":-81.560982,"latitude":28.35686,"type":"ATTRACTION"},"name":"Walt Disney Presents","fastPass":false},{"id":"WaltDisneyWorldHollywoodStudios_18904138","waitTime":null,"status":"Closed","active":false,"lastUpdate":"2021-01-22T00:00:17.408Z","name":"Slinky Dog Dash","meta":{"singleRider":false,"latitude":28.356245,"longitude":-81.562786,"unsuitableForPregnantPeople":true,"type":"ATTRACTION"},"fastPass":false},{"id":"WaltDisneyWorldHollywoodStudios_18904172","waitTime":null,"status":"Closed","active":false,"lastUpdate":"2021-01-22T00:00:18.496Z","fastPass":false,"name":"Alien Swirling Saucers","meta":{"singleRider":false,"latitude":28.355385,"longitude":-81.562379,"type":"ATTRACTION"}},{"id":"WaltDisneyWorldHollywoodStudios_19025682","waitTime":null,"status":"Operating","active":true,"lastUpdate":"2020-09-15T14:02:51.117Z","meta":{"longitude":-81.559787,"singleRider":false,"latitude":28.355234},"fastPass":false,"name":"Star Wars: Galaxy's Edge"},{"id":"WaltDisneyWorldHollywoodStudios_19152250","waitTime":null,"status":"Closed","active":false,"lastUpdate":"2020-09-15T11:33:12.147Z","fastPass":false,"meta":{"longitude":-81.560984,"singleRider":false,"latitude":28.356865},"name":"Meet Sulley at Walt Disney Presents - Temporarily Unavailable"},{"id":"WaltDisneyWorldHollywoodStudios_19259335","waitTime":null,"status":"Closed","active":false,"lastUpdate":"2021-01-22T00:00:17.953Z","fastPass":false,"name":"Mickey & Minnie's Runaway Railway","meta":{"type":"ATTRACTION","latitude":28.3566783801,"singleRider":false,"longitude":-81.5605667783}},{"id":"WaltDisneyWorldHollywoodStudios_19263735","waitTime":null,"status":"Closed","active":false,"lastUpdate":"2021-01-22T00:00:19.692Z","name":"Millennium Falcon: Smugglers Run","fastPass":false,"meta":{"singleRider":true,"latitude":28.353889,"type":"ATTRACTION","longitude":-81.561689,"unsuitableForPregnantPeople":true}},{"id":"WaltDisneyWorldHollywoodStudios_19263736","waitTime":null,"status":"Closed","active":false,"lastUpdate":"2021-01-22T00:00:19.121Z","name":"Star Wars: Rise of the Resistance","meta":{"singleRider":false,"type":"ATTRACTION","unsuitableForPregnantPeople":true,"longitude":-81.560457,"latitude":28.354884},"fastPass":false},{"id":"WaltDisneyWorldHollywoodStudios_19267226","waitTime":null,"status":"Closed","active":false,"lastUpdate":"2021-01-03T21:23:32.330Z","fastPass":false,"name":"Oga's Cantina at the Walt Disney World Resort","meta":{"singleRider":false,"type":"RESTAURANT","latitude":28.354095,"longitude":-81.562075}},{"id":"WaltDisneyWorldHollywoodStudios_19276204","waitTime":null,"status":"Closed","active":false,"lastUpdate":"2021-01-21T23:00:16.078Z","fastPass":false,"meta":{"singleRider":false,"type":"ATTRACTION","longitude":-81.560707,"latitude":28.360035},"name":"Lightning McQueen's Racing Academy"},{"id":"WaltDisneyWorldHollywoodStudios_19497952","waitTime":null,"status":"Closed","active":false,"lastUpdate":"2021-01-21T23:00:12.891Z","meta":{"longitude":-81.559031,"latitude":28.356316,"singleRider":false,"type":"ATTRACTION"},"name":"Vacation Fun - An Original Animated Short with Mickey & Minnie","fastPass":false},{"id":"WaltDisneyWorldHollywoodStudios_19582977","waitTime":null,"status":"Closed","active":false,"lastUpdate":"2020-09-15T11:33:12.211Z","fastPass":false,"name":"Disney Society Orchestra and Friends","meta":{"longitude":-81.5595985008,"latitude":28.3589162565,"singleRider":false}},{"id":"WaltDisneyWorldHollywoodStudios_19583373","waitTime":null,"status":"Closed","active":false,"lastUpdate":"2020-09-15T11:33:12.219Z","meta":{"longitude":-81.560567,"latitude":28.357613,"singleRider":false},"name":"Disney Junior Play and Dance!","fastPass":false},{"id":"WaltDisneyWorldHollywoodStudios_202731","waitTime":null,"status":"Closed","active":false,"lastUpdate":"2020-09-15T11:33:12.226Z","name":"Disney Junior Dance Party! - Temporarily Unavailable","fastPass":false,"meta":{"longitude":-81.560567,"singleRider":false,"latitude":28.357613}},{"id":"WaltDisneyWorldHollywoodStudios_209857","waitTime":null,"status":"Closed","active":false,"lastUpdate":"2021-01-22T00:00:20.234Z","meta":{"singleRider":false,"latitude":28.356404,"type":"ATTRACTION","longitude":-81.561894},"name":"Toy Story Mania!","fastPass":false},{"id":"WaltDisneyWorldHollywoodStudios_80010151","waitTime":null,"status":"Closed","active":false,"lastUpdate":"2021-01-21T23:00:19.988Z","meta":{"longitude":-81.5594643904,"singleRider":false,"type":"ATTRACTION","latitude":28.3550644708},"name":"Muppet*Vision 3D","fastPass":false},{"id":"WaltDisneyWorldHollywoodStudios_80010182","waitTime":null,"status":"Closed","active":false,"lastUpdate":"2021-01-22T00:00:25.658Z","meta":{"singleRider":true,"unsuitableForPregnantPeople":true,"latitude":28.359712,"type":"ATTRACTION","longitude":-81.56059},"name":"Rock 'n' Roller Coaster Starring Aerosmith","fastPass":false},{"id":"WaltDisneyWorldHollywoodStudios_80010193","waitTime":null,"status":"Closed","active":false,"lastUpdate":"2021-01-22T00:00:12.951Z","name":"Star Tours – The Adventures Continue","fastPass":false,"meta":{"singleRider":false,"type":"ATTRACTION","unsuitableForPregnantPeople":true,"longitude":-81.558891,"latitude":28.355695}},{"id":"WaltDisneyWorldHollywoodStudios_80010218","waitTime":null,"status":"Closed","active":false,"lastUpdate":"2021-01-22T00:00:14.177Z","fastPass":false,"meta":{"type":"ATTRACTION","latitude":28.359553,"longitude":-81.559772,"singleRider":false,"unsuitableForPregnantPeople":true},"name":"The Twilight Zone Tower of Terror™"},{"id":"WaltDisneyWorldHollywoodStudios_80010848","waitTime":null,"status":"Closed","active":false,"lastUpdate":"2020-09-15T11:33:12.284Z","fastPass":false,"meta":{"singleRider":false,"latitude":28.3589162565,"longitude":-81.5595985008},"name":"Beauty and the Beast-Live on Stage - Temporarily Unavailable"},{"id":"WaltDisneyWorldHollywoodStudios_80010896","waitTime":null,"status":"Closed","active":false,"lastUpdate":"2020-09-15T11:33:12.290Z","name":"Voyage of The Little Mermaid - Temporarily Unavailable","fastPass":false,"meta":{"latitude":28.3574862147,"singleRider":false,"longitude":-81.5608484102}},{"id":"WaltDisneyWorldHollywoodStudios_90001216","waitTime":null,"status":"Operating","active":true,"lastUpdate":"2021-01-21T22:50:31.380Z","fastPass":false,"meta":{"type":"RESTAURANT","singleRider":false,"latitude":28.357444,"longitude":-81.558881},"name":"50's Prime Time Café"},{"id":"WaltDisneyWorldHollywoodStudios_90001744","waitTime":null,"status":"Closed","active":false,"lastUpdate":"2021-01-03T21:23:32.783Z","fastPass":false,"name":"Hollywood & Vine","meta":{"longitude":-81.558975,"type":"RESTAURANT","singleRider":false,"latitude":28.357611}},{"id":"WaltDisneyWorldHollywoodStudios_90001865","waitTime":null,"status":"Operating","active":true,"lastUpdate":"2021-01-21T21:46:57.800Z","fastPass":false,"name":"Mama Melrose's Ristorante Italiano","meta":{"type":"RESTAURANT","latitude":28.354532,"singleRider":false,"longitude":-81.559012}},{"id":"WaltDisneyWorldHollywoodStudios_90002114","waitTime":null,"status":"Operating","active":true,"lastUpdate":"2021-01-21T23:47:02.893Z","meta":{"longitude":-81.559495,"type":"RESTAURANT","latitude":28.3559,"singleRider":false},"name":"Sci-Fi Dine-In Theater Restaurant","fastPass":false},{"id":"WaltDisneyWorldHollywoodStudios_90002245","waitTime":null,"status":"Operating","active":true,"lastUpdate":"2021-01-21T23:56:59.929Z","meta":{"longitude":-81.560297,"type":"RESTAURANT","latitude":28.357648,"singleRider":false},"name":"The Hollywood Brown Derby","fastPass":false},{"id":"WaltDisneyWorldAnimalKingdom_17421326","waitTime":null,"status":"Closed","active":false,"lastUpdate":"2020-09-15T11:33:02.632Z","fastPass":false,"name":"Meet Favorite Disney Pals at Adventurers Outpost - Temporarily Unavailable","meta":{"longitude":-81.589796,"singleRider":false,"latitude":28.357972}},{"id":"WaltDisneyWorldAnimalKingdom_18069632","waitTime":null,"status":"Operating","active":true,"lastUpdate":"2021-01-21T21:55:37.500Z","fastPass":false,"name":"Tiffins Restaurant","meta":{"latitude":28.356846,"type":"RESTAURANT","singleRider":false,"longitude":-81.591487}},{"id":"WaltDisneyWorldAnimalKingdom_18377778","waitTime":null,"status":"Operating","active":true,"lastUpdate":"2021-01-21T21:55:36.754Z","fastPass":false,"name":"Nomad Lounge","meta":{"singleRider":false,"longitude":-81.591487,"type":"RESTAURANT","latitude":28.356719}},{"id":"WaltDisneyWorldAnimalKingdom_18665185","waitTime":null,"status":"Closed","active":false,"lastUpdate":"2021-01-21T22:00:13.541Z","name":"Na'vi River Journey","meta":{"type":"ATTRACTION","latitude":28.355257,"longitude":-81.591641,"singleRider":false},"fastPass":false},{"id":"WaltDisneyWorldAnimalKingdom_18665186","waitTime":null,"status":"Closed","active":false,"lastUpdate":"2021-01-21T22:00:17.888Z","name":"Avatar Flight of Passage","meta":{"longitude":-81.592147,"unsuitableForPregnantPeople":true,"type":"ATTRACTION","singleRider":false,"latitude":28.355554},"fastPass":false},{"id":"WaltDisneyWorldAnimalKingdom_19330300","waitTime":null,"status":"Closed","active":false,"lastUpdate":"2021-01-03T21:23:41.561Z","fastPass":false,"name":"The Animation Experience at Conservation Station","meta":{"latitude":28.365188,"type":"ATTRACTION","longitude":-81.588669,"singleRider":false}},{"id":"WaltDisneyWorldAnimalKingdom_26068","waitTime":null,"status":"Closed","active":false,"lastUpdate":"2021-01-21T22:00:12.932Z","meta":{"type":"ATTRACTION","longitude":-81.5873781396,"latitude":28.3584769119,"unsuitableForPregnantPeople":true,"singleRider":false},"fastPass":false,"name":"Expedition Everest - Legend of the Forbidden Mountain"},{"id":"WaltDisneyWorldAnimalKingdom_80010123","waitTime":null,"status":"Closed","active":false,"lastUpdate":"2021-01-21T22:00:12.311Z","meta":{"longitude":-81.588444,"unsuitableForPregnantPeople":true,"latitude":28.355307,"singleRider":false,"type":"ATTRACTION"},"name":"DINOSAUR","fastPass":false},{"id":"WaltDisneyWorldAnimalKingdom_80010150","waitTime":null,"status":"Closed","active":false,"lastUpdate":"2021-01-21T22:00:14.185Z","fastPass":false,"name":"It's Tough to be a Bug!","meta":{"singleRider":false,"type":"ATTRACTION","latitude":28.357488,"longitude":-81.590118}},{"id":"WaltDisneyWorldAnimalKingdom_80010154","waitTime":null,"status":"Refurbishment","active":false,"lastUpdate":"2021-01-04T05:02:16.994Z","meta":{"singleRider":false,"unsuitableForPregnantPeople":true,"latitude":28.3587834288,"longitude":-81.5889412165,"type":"ATTRACTION"},"name":"Kali River Rapids","fastPass":false},{"id":"WaltDisneyWorldAnimalKingdom_80010157","waitTime":null,"status":"Closed","active":false,"lastUpdate":"2021-01-21T22:00:18.408Z","meta":{"type":"ATTRACTION","longitude":-81.59228,"unsuitableForPregnantPeople":true,"latitude":28.359331,"singleRider":false},"fastPass":false,"name":"Kilimanjaro Safaris"},{"id":"WaltDisneyWorldAnimalKingdom_80010164","waitTime":null,"status":"Closed","active":false,"lastUpdate":"2021-01-21T22:00:10.994Z","meta":{"singleRider":false,"type":"ATTRACTION","latitude":28.359379,"longitude":-81.589019},"fastPass":false,"name":"Maharajah Jungle Trek"},{"id":"WaltDisneyWorldAnimalKingdom_80010175","waitTime":null,"status":"Closed","active":false,"lastUpdate":"2021-01-21T21:30:12.163Z","name":"Gorilla Falls Exploration Trail","meta":{"singleRider":false,"type":"ATTRACTION","longitude":-81.592149,"latitude":28.359954},"fastPass":false},{"id":"WaltDisneyWorldAnimalKingdom_80010203","waitTime":null,"status":"Closed","active":false,"lastUpdate":"2021-01-03T21:23:41.107Z","fastPass":false,"meta":{"latitude":28.3566787564,"longitude":-81.5884791864,"singleRider":false,"type":"ATTRACTION"},"name":"The Boneyard - Temporarily Unavailable"},{"id":"WaltDisneyWorldAnimalKingdom_80010228","waitTime":null,"status":"Closed","active":false,"lastUpdate":"2021-01-21T22:00:14.723Z","fastPass":false,"name":"TriceraTop Spin","meta":{"singleRider":false,"type":"ATTRACTION","latitude":28.356503,"longitude":-81.588074}},{"id":"WaltDisneyWorldAnimalKingdom_80010235","waitTime":null,"status":"Closed","active":false,"lastUpdate":"2021-01-21T21:30:12.720Z","name":"Wildlife Express Train","meta":{"longitude":-81.5914175464,"type":"ATTRACTION","singleRider":false,"latitude":28.3598097347},"fastPass":false},{"id":"WaltDisneyWorldMagicKingdom_136550","waitTime":null,"status":"Closed","active":false,"lastUpdate":"2021-01-03T21:24:21.706Z","name":"Monsters, Inc. Laugh Floor - Temporarily Unavailable","fastPass":false,"meta":{"type":"ATTRACTION","singleRider":false,"longitude":-81.5797358751,"latitude":28.4183977566}},{"id":"WaltDisneyWorldMagicKingdom_15743682","waitTime":null,"status":"Closed","active":false,"lastUpdate":"2020-09-15T11:33:17.406Z","fastPass":false,"meta":{"latitude":28.421282,"longitude":-81.578932,"singleRider":false},"name":"Meet Dashing Disney Pals as Circus Stars at Pete’s Silly Side Show - Temporarily Unavailable"},{"id":"WaltDisneyWorldMagicKingdom_15850196","waitTime":null,"status":"Closed","active":false,"lastUpdate":"2020-09-15T11:33:17.374Z","fastPass":false,"meta":{"latitude":28.416727,"longitude":-81.580746,"singleRider":false},"name":"Meet Mickey Mouse at Town Square Theater - Temporarily Unavailable"},{"id":"WaltDisneyWorldMagicKingdom_16124144","waitTime":null,"status":"Closed","active":false,"lastUpdate":"2021-01-22T00:00:14.770Z","meta":{"singleRider":false,"longitude":-81.583738382,"latitude":28.4182264646,"type":"ATTRACTION"},"name":"Walt Disney's Enchanted Tiki Room","fastPass":false},{"id":"WaltDisneyWorldMagicKingdom_16414579","waitTime":null,"status":"Closed","active":false,"lastUpdate":"2021-01-21T23:00:17.457Z","meta":{"singleRider":false,"type":"ATTRACTION","longitude":-81.58163,"latitude":28.416944},"name":"Sorcerers of the Magic Kingdom","fastPass":false},{"id":"WaltDisneyWorldMagicKingdom_16491297","waitTime":null,"status":"Closed","active":false,"lastUpdate":"2021-01-22T00:00:15.297Z","name":"The Barnstormer","fastPass":false,"meta":{"unsuitableForPregnantPeople":true,"singleRider":false,"type":"ATTRACTION","longitude":-81.5783907473,"latitude":28.4207661576}},{"id":"WaltDisneyWorldMagicKingdom_16491299","waitTime":null,"status":"Refurbishment","active":false,"lastUpdate":"2021-01-03T21:24:18.928Z","fastPass":false,"name":"Walt Disney World Railroad - Fantasyland - Temporarily Unavailable","meta":{"singleRider":false,"type":"ATTRACTION","longitude":-81.578368,"latitude":28.420934}},{"id":"WaltDisneyWorldMagicKingdom_16660079","waitTime":null,"status":"Operating","active":true,"lastUpdate":"2021-01-22T00:56:57.737Z","name":"Be Our Guest Restaurant","fastPass":false,"meta":{"longitude":-81.5807074858,"type":"RESTAURANT","singleRider":false,"latitude":28.4212491492}},{"id":"WaltDisneyWorldMagicKingdom_16767263","waitTime":null,"status":"Closed","active":false,"lastUpdate":"2021-01-22T00:00:15.921Z","name":"Under the Sea ~ Journey of The Little Mermaid","fastPass":false,"meta":{"latitude":28.4211203226,"type":"ATTRACTION","longitude":-81.5799752427,"singleRider":false}},{"id":"WaltDisneyWorldMagicKingdom_16767276","waitTime":null,"status":"Closed","active":false,"lastUpdate":"2021-01-03T21:24:20.764Z","fastPass":false,"name":"Enchanted Tales with Belle - Temporarily Unavailable","meta":{"singleRider":false,"type":"ATTRACTION","longitude":-81.58093011,"latitude":28.42099058}},{"id":"WaltDisneyWorldMagicKingdom_16767284","waitTime":null,"status":"Closed","active":false,"lastUpdate":"2021-01-22T00:00:16.799Z","name":"Seven Dwarfs Mine Train","fastPass":false,"meta":{"type":"ATTRACTION","longitude":-81.58031,"unsuitableForPregnantPeople":true,"latitude":28.42037,"singleRider":false}},{"id":"WaltDisneyWorldMagicKingdom_16874126","waitTime":null,"status":"Closed","active":false,"lastUpdate":"2020-09-15T11:33:17.441Z","name":"Meet Ariel at Her Grotto - Temporarily Unavailable","meta":{"latitude":28.420893275289,"singleRider":false,"longitude":-81.579613144497},"fastPass":false},{"id":"WaltDisneyWorldMagicKingdom_17272158","waitTime":null,"status":"Closed","active":false,"lastUpdate":"2021-01-03T21:24:21.210Z","meta":{"singleRider":false,"type":"ATTRACTION","latitude":28.41837254,"longitude":-81.58466913},"name":"A Pirate's Adventure ~ Treasures of the Seven Seas - Temporarily Unavailable","fastPass":false},{"id":"WaltDisneyWorldMagicKingdom_17505397","waitTime":null,"status":"Closed","active":false,"lastUpdate":"2020-09-15T11:33:17.486Z","fastPass":false,"name":"Meet Rapunzel and Tiana at Princess Fairytale Hall - Temporarily Unavailable","meta":{"longitude":-81.580917439677,"latitude":28.420045752669,"singleRider":false}},{"id":"WaltDisneyWorldMagicKingdom_17752793","waitTime":null,"status":"Closed","active":false,"lastUpdate":"2020-09-15T11:33:17.444Z","name":"Meet Tinker Bell at Town Square Theater - Temporarily Unavailable","meta":{"latitude":28.416727,"longitude":-81.580815,"singleRider":false},"fastPass":false},{"id":"WaltDisneyWorldMagicKingdom_18185631","waitTime":null,"status":"Operating","active":true,"lastUpdate":"2021-01-21T22:43:27.242Z","meta":{"singleRider":false,"longitude":-81.582592,"latitude":28.418491,"type":"RESTAURANT"},"fastPass":false,"name":"Jungle Navigation Co. LTD Skipper Canteen"},{"id":"WaltDisneyWorldMagicKingdom_18498503","waitTime":null,"status":"Closed","active":false,"lastUpdate":"2020-09-15T11:33:17.494Z","fastPass":false,"meta":{"singleRider":false,"latitude":28.420012,"longitude":-81.58094},"name":"Meet Cinderella and Elena at Princess Fairytale Hall - Temporarily Unavailable"},{"id":"WaltDisneyWorldMagicKingdom_2219610","waitTime":null,"status":"Refurbishment","active":false,"lastUpdate":"2021-01-03T21:23:08.615Z","name":"Walt Disney World Railroad - Frontierland - Temporarily Unavailable","fastPass":false,"meta":{"type":"ATTRACTION","latitude":28.41969,"longitude":-81.585078,"singleRider":false}},{"id":"WaltDisneyWorldMagicKingdom_387133","waitTime":null,"status":"Closed","active":false,"lastUpdate":"2020-09-15T11:33:17.492Z","fastPass":false,"name":"Meet Daring Disney Pals as Circus Stars at Pete's Silly Side Show - Temporarily Unavailable","meta":{"longitude":-81.578932,"latitude":28.421282,"singleRider":false}},{"id":"WaltDisneyWorldMagicKingdom_80010107","waitTime":null,"status":"Closed","active":false,"lastUpdate":"2021-01-22T00:00:20.807Z","name":"Astro Orbiter","fastPass":false,"meta":{"longitude":-81.5789887902,"type":"ATTRACTION","latitude":28.4184926179,"singleRider":false}},{"id":"WaltDisneyWorldMagicKingdom_80010110","waitTime":null,"status":"Closed","active":false,"lastUpdate":"2021-01-22T00:00:21.342Z","name":"Big Thunder Mountain Railroad","fastPass":false,"meta":{"longitude":-81.5846422864,"type":"ATTRACTION","singleRider":false,"latitude":28.4199638504,"unsuitableForPregnantPeople":true}},{"id":"WaltDisneyWorldMagicKingdom_80010114","waitTime":null,"status":"Closed","active":false,"lastUpdate":"2021-01-22T00:00:21.899Z","fastPass":false,"name":"Buzz Lightyear's Space Ranger Spin","meta":{"singleRider":false,"latitude":28.4182868839,"longitude":-81.5794086456,"type":"ATTRACTION"}},{"id":"WaltDisneyWorldMagicKingdom_80010117","waitTime":null,"status":"Closed","active":false,"lastUpdate":"2021-01-22T00:00:23.029Z","meta":{"singleRider":false,"type":"ATTRACTION","longitude":-81.581255,"latitude":28.420169},"name":"Prince Charming Regal Carrousel","fastPass":false},{"id":"WaltDisneyWorldMagicKingdom_80010129","waitTime":null,"status":"Closed","active":false,"lastUpdate":"2021-01-22T00:00:22.452Z","fastPass":false,"name":"Dumbo the Flying Elephant","meta":{"type":"ATTRACTION","latitude":28.420509033,"singleRider":false,"longitude":-81.5789473057}},{"id":"WaltDisneyWorldMagicKingdom_80010149","waitTime":null,"status":"Closed","active":false,"lastUpdate":"2021-01-22T00:00:24.075Z","name":"\"it's a small world\"","meta":{"type":"ATTRACTION","singleRider":false,"longitude":-81.5820392026,"latitude":28.4204816402},"fastPass":false},{"id":"WaltDisneyWorldMagicKingdom_80010153","waitTime":null,"status":"Closed","active":false,"lastUpdate":"2021-01-22T00:00:23.563Z","name":"Jungle Cruise","fastPass":false,"meta":{"longitude":-81.5834393157,"singleRider":false,"latitude":28.41797818,"type":"ATTRACTION"}},{"id":"WaltDisneyWorldMagicKingdom_80010160","waitTime":null,"status":"Refurbishment","active":false,"lastUpdate":"2021-01-03T21:23:48.006Z","fastPass":false,"name":"Liberty Square Riverboat","meta":{"singleRider":false,"longitude":-81.5827982677,"latitude":28.4195563399,"type":"ATTRACTION"}},{"id":"WaltDisneyWorldMagicKingdom_80010162","waitTime":null,"status":"Closed","active":false,"lastUpdate":"2021-01-22T00:00:13.532Z","fastPass":false,"meta":{"latitude":28.4200230397,"longitude":-81.5798248916,"singleRider":false,"type":"ATTRACTION"},"name":"Mad Tea Party"},{"id":"WaltDisneyWorldMagicKingdom_80010165","waitTime":null,"status":"Closed","active":false,"lastUpdate":"2021-01-03T21:24:20.300Z","meta":{"latitude":28.4168698711,"longitude":-81.5815081252,"singleRider":false,"type":"ATTRACTION"},"name":"Main Street Vehicles - Temporarily Unavailable","fastPass":false},{"id":"WaltDisneyWorldMagicKingdom_80010170","waitTime":null,"status":"Closed","active":false,"lastUpdate":"2021-01-22T00:00:24.601Z","name":"Mickey's PhilharMagic","meta":{"latitude":28.4200304909,"singleRider":false,"longitude":-81.5814839853,"type":"ATTRACTION"},"fastPass":false},{"id":"WaltDisneyWorldMagicKingdom_80010176","waitTime":null,"status":"Closed","active":false,"lastUpdate":"2021-01-22T00:00:08.387Z","meta":{"latitude":28.4202640272,"longitude":-81.5818916811,"singleRider":false,"type":"ATTRACTION"},"fastPass":false,"name":"Peter Pan's Flight"},{"id":"WaltDisneyWorldMagicKingdom_80010177","waitTime":null,"status":"Closed","active":false,"lastUpdate":"2021-01-22T00:00:25.140Z","meta":{"latitude":28.41796992,"longitude":-81.5842252,"type":"ATTRACTION","singleRider":false},"fastPass":false,"name":"Pirates of the Caribbean"},{"id":"WaltDisneyWorldMagicKingdom_80010190","waitTime":null,"status":"Closed","active":false,"lastUpdate":"2021-01-22T00:00:26.198Z","meta":{"longitude":-81.5781962872,"latitude":28.4188341691,"singleRider":false,"unsuitableForPregnantPeople":true,"type":"ATTRACTION"},"fastPass":false,"name":"Space Mountain"},{"id":"WaltDisneyWorldMagicKingdom_80010192","waitTime":null,"status":"Closed","active":false,"lastUpdate":"2021-01-22T00:00:26.755Z","name":"Splash Mountain","meta":{"singleRider":false,"unsuitableForPregnantPeople":true,"type":"ATTRACTION","latitude":28.419418,"longitude":-81.58498},"fastPass":false},{"id":"WaltDisneyWorldMagicKingdom_80010196","waitTime":null,"status":"Closed","active":false,"lastUpdate":"2021-01-22T00:00:27.363Z","fastPass":false,"meta":{"singleRider":false,"type":"ATTRACTION","latitude":28.4184325517,"longitude":-81.5827982677},"name":"Swiss Family Treehouse"},{"id":"WaltDisneyWorldMagicKingdom_80010208","waitTime":null,"status":"Closed","active":false,"lastUpdate":"2021-01-22T00:00:27.912Z","name":"Haunted Mansion","meta":{"latitude":28.4202,"singleRider":false,"longitude":-81.58288,"type":"ATTRACTION"},"fastPass":false},{"id":"WaltDisneyWorldMagicKingdom_80010210","waitTime":null,"status":"Closed","active":false,"lastUpdate":"2021-01-22T00:00:08.993Z","fastPass":false,"name":"The Magic Carpets of Aladdin","meta":{"singleRider":false,"type":"ATTRACTION","latitude":28.41843,"longitude":-81.583472}},{"id":"WaltDisneyWorldMagicKingdom_80010213","waitTime":null,"status":"Closed","active":false,"lastUpdate":"2021-01-22T00:00:28.535Z","meta":{"latitude":28.420212,"longitude":-81.580266,"singleRider":false,"type":"ATTRACTION"},"fastPass":false,"name":"The Many Adventures of Winnie the Pooh"},{"id":"WaltDisneyWorldMagicKingdom_80010220","waitTime":null,"status":"Refurbishment","active":false,"lastUpdate":"2021-01-03T21:24:19.374Z","name":"Tom Sawyer Island","meta":{"type":"ATTRACTION","singleRider":false,"longitude":-81.58428,"latitude":28.419503},"fastPass":false},{"id":"WaltDisneyWorldMagicKingdom_80010222","waitTime":null,"status":"Closed","active":false,"lastUpdate":"2021-01-22T00:00:12.288Z","meta":{"longitude":-81.579302,"singleRider":false,"type":"ATTRACTION","unsuitableForPregnantPeople":true,"latitude":28.419368},"name":"Tomorrowland Speedway","fastPass":false},{"id":"WaltDisneyWorldMagicKingdom_80010224","waitTime":null,"status":"Refurbishment","active":false,"lastUpdate":"2021-01-03T21:24:19.826Z","name":"Tomorrowland Transit Authority PeopleMover - Temporarily Unavailable","meta":{"type":"ATTRACTION","singleRider":false,"latitude":28.418155,"longitude":-81.579033},"fastPass":false},{"id":"WaltDisneyWorldMagicKingdom_80010230","waitTime":null,"status":"Refurbishment","active":false,"lastUpdate":"2021-01-03T21:23:09.088Z","fastPass":false,"meta":{"latitude":28.416543,"singleRider":false,"type":"ATTRACTION","longitude":-81.581204},"name":"Walt Disney World Railroad - Main Street, U.S.A. - Temporarily Unavailable"},{"id":"WaltDisneyWorldMagicKingdom_80010232","waitTime":null,"status":"Closed","active":false,"lastUpdate":"2021-01-21T23:00:14.167Z","fastPass":false,"name":"Walt Disney's Carousel of Progress","meta":{"longitude":-81.5790083064,"singleRider":false,"latitude":28.4180310951,"type":"ATTRACTION"}},{"id":"WaltDisneyWorldMagicKingdom_80069748","waitTime":null,"status":"Closed","active":false,"lastUpdate":"2021-01-22T00:00:29.109Z","fastPass":false,"name":"Country Bear Jamboree","meta":{"longitude":-81.5837222887,"latitude":28.4187861348,"type":"ATTRACTION","singleRider":false}},{"id":"WaltDisneyWorldMagicKingdom_80069754","waitTime":null,"status":"Refurbishment","active":false,"lastUpdate":"2021-01-21T05:00:35.597Z","meta":{"type":"ATTRACTION","latitude":28.4194484171,"longitude":-81.5823248578,"singleRider":false},"fastPass":false,"name":"The Hall of Presidents"},{"id":"WaltDisneyWorldMagicKingdom_90001819","waitTime":null,"status":"Operating","active":true,"lastUpdate":"2021-01-21T23:57:00.477Z","fastPass":false,"meta":{"longitude":-81.5826159743,"singleRider":false,"type":"RESTAURANT","latitude":28.4191196055},"name":"Liberty Tree Tavern"},{"id":"WaltDisneyWorldMagicKingdom_90002464","waitTime":null,"status":"Operating","active":true,"lastUpdate":"2021-01-21T21:09:50.178Z","name":"Cinderella's Royal Table","meta":{"singleRider":false,"type":"RESTAURANT","latitude":28.4195,"longitude":-81.581101},"fastPass":false},{"id":"WaltDisneyWorldMagicKingdom_90002660","waitTime":null,"status":"Operating","active":true,"lastUpdate":"2021-01-21T23:55:11.329Z","fastPass":false,"meta":{"type":"RESTAURANT","latitude":28.4181214892,"singleRider":false,"longitude":-81.5818970259},"name":"The Crystal Palace"},{"id":"WaltDisneyWorldMagicKingdom_90002670","waitTime":null,"status":"Operating","active":true,"lastUpdate":"2021-01-21T23:55:59.735Z","name":"The Plaza Restaurant","fastPass":false,"meta":{"longitude":-81.5809394969,"latitude":28.4180247703,"singleRider":false,"type":"RESTAURANT"}},{"id":"WaltDisneyWorldMagicKingdom_90002678","waitTime":null,"status":"Operating","active":true,"lastUpdate":"2021-01-21T23:55:15.074Z","name":"Tony's Town Square Restaurant","meta":{"singleRider":false,"latitude":28.4169323426,"type":"RESTAURANT","longitude":-81.5807276023},"fastPass":false},{"id":"WaltDisneyWorldEpcot_107785","waitTime":null,"status":"Closed","active":false,"lastUpdate":"2021-01-22T01:00:18.358Z","name":"The Seas with Nemo & Friends","fastPass":false,"meta":{"singleRider":false,"type":"ATTRACTION","latitude":28.374904,"longitude":-81.550852}},{"id":"WaltDisneyWorldEpcot_17564219","waitTime":null,"status":"Closed","active":false,"lastUpdate":"2020-09-15T11:33:07.103Z","fastPass":false,"name":"Meet Anna and Elsa at Royal Sommerhus - Temporarily Unavailable","meta":{"singleRider":false,"latitude":28.37097,"longitude":-81.547134}},{"id":"WaltDisneyWorldEpcot_17720675","waitTime":null,"status":"Operating","active":true,"lastUpdate":"2021-01-22T00:48:38.058Z","meta":{"longitude":-81.551645,"singleRider":false,"latitude":28.368468,"type":"RESTAURANT"},"fastPass":false,"name":"Spice Road Table"},{"id":"WaltDisneyWorldEpcot_18269694","waitTime":null,"status":"Closed","active":false,"lastUpdate":"2021-01-22T01:00:18.959Z","fastPass":false,"name":"Disney and Pixar Short Film Festival","meta":{"latitude":28.37263,"singleRider":false,"type":"ATTRACTION","longitude":-81.55115}},{"id":"WaltDisneyWorldEpcot_18375495","waitTime":null,"status":"Closed","active":false,"lastUpdate":"2021-01-22T01:00:19.497Z","name":"Frozen Ever After","fastPass":false,"meta":{"singleRider":false,"type":"ATTRACTION","latitude":28.370745,"longitude":-81.54653}},{"id":"WaltDisneyWorldEpcot_19463785","waitTime":null,"status":"Closed","active":false,"lastUpdate":"2021-01-21T23:00:15.313Z","fastPass":false,"name":"Beauty and the Beast Sing-Along","meta":{"singleRider":false,"latitude":28.368864,"longitude":-81.552978,"type":"ATTRACTION"}},{"id":"WaltDisneyWorldEpcot_19473173","waitTime":null,"status":"Closed","active":false,"lastUpdate":"2021-01-22T01:00:15.048Z","name":"Awesome Planet","fastPass":false,"meta":{"singleRider":false,"longitude":-81.552138,"latitude":28.374301,"type":"ATTRACTION"}},{"id":"WaltDisneyWorldEpcot_20194","waitTime":null,"status":"Closed","active":false,"lastUpdate":"2021-01-22T01:00:15.671Z","name":"Soarin' Around the World","fastPass":false,"meta":{"latitude":28.373592,"longitude":-81.552248,"type":"ATTRACTION","singleRider":false}},{"id":"WaltDisneyWorldEpcot_207395","waitTime":null,"status":"Closed","active":false,"lastUpdate":"2021-01-22T01:00:11.443Z","meta":{"latitude":28.371649,"type":"ATTRACTION","longitude":-81.547368,"singleRider":false},"fastPass":false,"name":"Gran Fiesta Tour Starring The Three Caballeros"},{"id":"WaltDisneyWorldEpcot_62992","waitTime":null,"status":"Closed","active":false,"lastUpdate":"2021-01-03T21:23:09.564Z","meta":{"type":"ATTRACTION","latitude":28.375255,"singleRider":false,"longitude":-81.551047},"fastPass":false,"name":"Turtle Talk With Crush - Temporarily Unavailable"},{"id":"WaltDisneyWorldEpcot_80010145","waitTime":null,"status":"Closed","active":false,"lastUpdate":"2021-01-22T00:45:10.836Z","name":"Impressions de France","fastPass":false,"meta":{"latitude":28.368864,"singleRider":false,"longitude":-81.552978,"type":"ATTRACTION"}},{"id":"WaltDisneyWorldEpcot_80010152","waitTime":null,"status":"Closed","active":false,"lastUpdate":"2021-01-22T01:00:12.145Z","fastPass":false,"meta":{"longitude":-81.551401,"latitude":28.372994,"type":"ATTRACTION","singleRider":false},"name":"Journey Into Imagination With Figment"},{"id":"WaltDisneyWorldEpcot_80010161","waitTime":null,"status":"Closed","active":false,"lastUpdate":"2021-01-22T01:00:16.320Z","meta":{"type":"ATTRACTION","longitude":-81.552301,"singleRider":false,"latitude":28.374245},"name":"Living with the Land","fastPass":false},{"id":"WaltDisneyWorldEpcot_80010173","waitTime":null,"status":"Closed","active":false,"lastUpdate":"2021-01-22T01:00:12.879Z","meta":{"longitude":-81.547156,"latitude":28.373927,"singleRider":false,"type":"ATTRACTION","unsuitableForPregnantPeople":true},"name":"Mission: SPACE","fastPass":false},{"id":"WaltDisneyWorldEpcot_80010174","waitTime":null,"status":"Closed","active":false,"lastUpdate":"2021-01-22T00:45:10.199Z","fastPass":false,"name":"Canada Far and Wide in Circle-Vision 360","meta":{"type":"ATTRACTION","singleRider":false,"latitude":28.371694,"longitude":-81.55196}},{"id":"WaltDisneyWorldEpcot_80010180","waitTime":null,"status":"Closed","active":false,"lastUpdate":"2021-01-22T01:00:17.006Z","fastPass":false,"name":"Reflections of China","meta":{"type":"ATTRACTION","latitude":28.369791,"singleRider":false,"longitude":-81.546381}},{"id":"WaltDisneyWorldEpcot_80010191","waitTime":null,"status":"Closed","active":false,"lastUpdate":"2021-01-22T01:00:13.662Z","name":"Spaceship Earth","fastPass":false,"meta":{"longitude":-81.549401,"latitude":28.375583,"singleRider":false,"type":"ATTRACTION"}},{"id":"WaltDisneyWorldEpcot_80010199","waitTime":null,"status":"Closed","active":false,"lastUpdate":"2021-01-22T01:00:14.450Z","fastPass":false,"name":"Test Track","meta":{"type":"ATTRACTION","longitude":-81.547489,"unsuitableForPregnantPeople":true,"latitude":28.373228,"singleRider":true}},{"id":"WaltDisneyWorldEpcot_80010200","waitTime":null,"status":"Closed","active":false,"lastUpdate":"2021-01-22T01:00:17.735Z","name":"The American Adventure","fastPass":false,"meta":{"singleRider":false,"latitude":28.367517,"type":"ATTRACTION","longitude":-81.549446}},{"id":"WaltDisneyWorldEpcot_90001292","waitTime":null,"status":"Operating","active":true,"lastUpdate":"2021-01-22T00:56:58.362Z","fastPass":false,"name":"Biergarten Restaurant","meta":{"type":"RESTAURANT","longitude":-81.546819,"singleRider":false,"latitude":28.368153}},{"id":"WaltDisneyWorldEpcot_90001416","waitTime":null,"status":"Operating","active":true,"lastUpdate":"2021-01-22T00:55:19.086Z","meta":{"longitude":-81.550458,"singleRider":false,"type":"RESTAURANT","latitude":28.375096},"name":"Coral Reef Restaurant","fastPass":false},{"id":"WaltDisneyWorldEpcot_90001798","waitTime":null,"status":"Operating","active":true,"lastUpdate":"2021-01-22T00:55:25.767Z","name":"Le Cellier Steakhouse","meta":{"longitude":-81.551512,"singleRider":false,"type":"RESTAURANT","latitude":28.371657},"fastPass":false},{"id":"WaltDisneyWorldEpcot_90002084","waitTime":null,"status":"Operating","active":true,"lastUpdate":"2021-01-22T00:55:30.602Z","name":"Rose & Crown Dining Room","meta":{"singleRider":false,"type":"RESTAURANT","latitude":28.370508,"longitude":-81.551684},"fastPass":false},{"id":"WaltDisneyWorldEpcot_90002237","waitTime":null,"status":"Operating","active":true,"lastUpdate":"2021-01-22T00:55:18.309Z","meta":{"latitude":28.374039,"longitude":-81.552324,"singleRider":false,"type":"RESTAURANT"},"name":"Garden Grill Restaurant","fastPass":false},{"id":"WaltDisneyWorldHollywoodStudios_136","waitTime":null,"status":"Closed","active":false,"lastUpdate":"2020-09-15T11:33:12.086Z","name":"Indiana Jones™ Epic Stunt Spectacular! - Temporarily Unavailable","meta":{"singleRider":false,"longitude":-81.5586114479,"latitude":28.3566700675},"fastPass":false},{"id":"WaltDisneyWorldHollywoodStudios_17842841","waitTime":null,"status":"Closed","active":false,"lastUpdate":"2020-09-15T11:33:12.046Z","name":"For the First Time in Forever: A Frozen Sing-Along Celebration - Temporarily Unavailable","meta":{"longitude":-81.5596944094,"latitude":28.3568243464,"singleRider":false},"fastPass":false},{"id":"WaltDisneyWorldHollywoodStudios_18189394","waitTime":null,"status":"Closed","active":false,"lastUpdate":"2020-09-15T11:33:12.077Z","fastPass":false,"name":"Star Wars Launch Bay: Meet Chewbacca - Temporarily Unavailable","meta":{"longitude":-81.560938,"singleRider":false,"latitude":28.35796}},{"id":"WaltDisneyWorldHollywoodStudios_18189398","waitTime":null,"status":"Closed","active":false,"lastUpdate":"2020-09-15T11:33:12.069Z","fastPass":false,"meta":{"singleRider":false,"latitude":28.35796,"longitude":-81.560938},"name":"Star Wars Launch Bay: Encounter Darth Vader - Temporarily Unavailable"},{"id":"WaltDisneyWorldHollywoodStudios_18360041","waitTime":null,"status":"Closed","active":false,"lastUpdate":"2021-01-03T21:23:31.878Z","name":"Star Wars Launch Bay Theater - Temporarily Unavailable","fastPass":false,"meta":{"singleRider":false,"type":"ATTRACTION","longitude":-81.561061,"latitude":28.357821}},{"id":"WaltDisneyWorldHollywoodStudios_18368385","waitTime":null,"status":"Closed","active":false,"lastUpdate":"2020-09-15T11:33:12.104Z","name":"Celebrity Spotlight - Temporarily Unavailable","fastPass":false,"meta":{"singleRider":false,"latitude":28.356072,"longitude":-81.559158}},{"id":"WaltDisneyWorldHollywoodStudios_18368386","waitTime":null,"status":"Closed","active":false,"lastUpdate":"2020-09-15T11:33:12.095Z","meta":{"longitude":-81.559479,"latitude":28.356068,"singleRider":false},"fastPass":false,"name":"Mickey and Minnie Starring in Red Carpet Dreams - Temporarily Unavailable"},{"id":"WaltDisneyWorldHollywoodStudios_18669338","waitTime":null,"status":"Closed","active":false,"lastUpdate":"2020-09-15T11:33:12.121Z","meta":{"longitude":-81.560938,"singleRider":false,"latitude":28.35796},"fastPass":false,"name":"BB-8 Astromech on Duty - Temporarily Unavailable"},{"id":"WaltDisneyWorldHollywoodStudios_18770880","waitTime":null,"status":"Closed","active":false,"lastUpdate":"2021-01-21T23:00:14.755Z","meta":{"singleRider":false,"longitude":-81.560982,"latitude":28.35686,"type":"ATTRACTION"},"name":"Walt Disney Presents","fastPass":false},{"id":"WaltDisneyWorldHollywoodStudios_18904138","waitTime":null,"status":"Closed","active":false,"lastUpdate":"2021-01-22T00:00:17.408Z","name":"Slinky Dog Dash","meta":{"singleRider":false,"latitude":28.356245,"longitude":-81.562786,"unsuitableForPregnantPeople":true,"type":"ATTRACTION"},"fastPass":false},{"id":"WaltDisneyWorldHollywoodStudios_18904172","waitTime":null,"status":"Closed","active":false,"lastUpdate":"2021-01-22T00:00:18.496Z","fastPass":false,"name":"Alien Swirling Saucers","meta":{"singleRider":false,"latitude":28.355385,"longitude":-81.562379,"type":"ATTRACTION"}},{"id":"WaltDisneyWorldHollywoodStudios_19025682","waitTime":null,"status":"Operating","active":true,"lastUpdate":"2020-09-15T14:02:51.117Z","meta":{"longitude":-81.559787,"singleRider":false,"latitude":28.355234},"fastPass":false,"name":"Star Wars: Galaxy's Edge"},{"id":"WaltDisneyWorldHollywoodStudios_19152250","waitTime":null,"status":"Closed","active":false,"lastUpdate":"2020-09-15T11:33:12.147Z","fastPass":false,"meta":{"longitude":-81.560984,"singleRider":false,"latitude":28.356865},"name":"Meet Sulley at Walt Disney Presents - Temporarily Unavailable"},{"id":"WaltDisneyWorldHollywoodStudios_19259335","waitTime":null,"status":"Closed","active":false,"lastUpdate":"2021-01-22T00:00:17.953Z","fastPass":false,"name":"Mickey & Minnie's Runaway Railway","meta":{"type":"ATTRACTION","latitude":28.3566783801,"singleRider":false,"longitude":-81.5605667783}},{"id":"WaltDisneyWorldHollywoodStudios_19263735","waitTime":null,"status":"Closed","active":false,"lastUpdate":"2021-01-22T00:00:19.692Z","name":"Millennium Falcon: Smugglers Run","fastPass":false,"meta":{"singleRider":true,"latitude":28.353889,"type":"ATTRACTION","longitude":-81.561689,"unsuitableForPregnantPeople":true}},{"id":"WaltDisneyWorldHollywoodStudios_19263736","waitTime":null,"status":"Closed","active":false,"lastUpdate":"2021-01-22T00:00:19.121Z","name":"Star Wars: Rise of the Resistance","meta":{"singleRider":false,"type":"ATTRACTION","unsuitableForPregnantPeople":true,"longitude":-81.560457,"latitude":28.354884},"fastPass":false},{"id":"WaltDisneyWorldHollywoodStudios_19267226","waitTime":null,"status":"Closed","active":false,"lastUpdate":"2021-01-03T21:23:32.330Z","fastPass":false,"name":"Oga's Cantina at the Walt Disney World Resort","meta":{"singleRider":false,"type":"RESTAURANT","latitude":28.354095,"longitude":-81.562075}},{"id":"WaltDisneyWorldHollywoodStudios_19276204","waitTime":null,"status":"Closed","active":false,"lastUpdate":"2021-01-21T23:00:16.078Z","fastPass":false,"meta":{"singleRider":false,"type":"ATTRACTION","longitude":-81.560707,"latitude":28.360035},"name":"Lightning McQueen's Racing Academy"},{"id":"WaltDisneyWorldHollywoodStudios_19497952","waitTime":null,"status":"Closed","active":false,"lastUpdate":"2021-01-21T23:00:12.891Z","meta":{"longitude":-81.559031,"latitude":28.356316,"singleRider":false,"type":"ATTRACTION"},"name":"Vacation Fun - An Original Animated Short with Mickey & Minnie","fastPass":false},{"id":"WaltDisneyWorldHollywoodStudios_19582977","waitTime":null,"status":"Closed","active":false,"lastUpdate":"2020-09-15T11:33:12.211Z","fastPass":false,"name":"Disney Society Orchestra and Friends","meta":{"longitude":-81.5595985008,"latitude":28.3589162565,"singleRider":false}},{"id":"WaltDisneyWorldHollywoodStudios_19583373","waitTime":null,"status":"Closed","active":false,"lastUpdate":"2020-09-15T11:33:12.219Z","meta":{"longitude":-81.560567,"latitude":28.357613,"singleRider":false},"name":"Disney Junior Play and Dance!","fastPass":false},{"id":"WaltDisneyWorldHollywoodStudios_202731","waitTime":null,"status":"Closed","active":false,"lastUpdate":"2020-09-15T11:33:12.226Z","name":"Disney Junior Dance Party! - Temporarily Unavailable","fastPass":false,"meta":{"longitude":-81.560567,"singleRider":false,"latitude":28.357613}},{"id":"WaltDisneyWorldHollywoodStudios_209857","waitTime":null,"status":"Closed","active":false,"lastUpdate":"2021-01-22T00:00:20.234Z","meta":{"singleRider":false,"latitude":28.356404,"type":"ATTRACTION","longitude":-81.561894},"name":"Toy Story Mania!","fastPass":false},{"id":"WaltDisneyWorldHollywoodStudios_80010151","waitTime":null,"status":"Closed","active":false,"lastUpdate":"2021-01-21T23:00:19.988Z","meta":{"longitude":-81.5594643904,"singleRider":false,"type":"ATTRACTION","latitude":28.3550644708},"name":"Muppet*Vision 3D","fastPass":false},{"id":"WaltDisneyWorldHollywoodStudios_80010182","waitTime":null,"status":"Closed","active":false,"lastUpdate":"2021-01-22T00:00:25.658Z","meta":{"singleRider":true,"unsuitableForPregnantPeople":true,"latitude":28.359712,"type":"ATTRACTION","longitude":-81.56059},"name":"Rock 'n' Roller Coaster Starring Aerosmith","fastPass":false},{"id":"WaltDisneyWorldHollywoodStudios_80010193","waitTime":null,"status":"Closed","active":false,"lastUpdate":"2021-01-22T00:00:12.951Z","name":"Star Tours – The Adventures Continue","fastPass":false,"meta":{"singleRider":false,"type":"ATTRACTION","unsuitableForPregnantPeople":true,"longitude":-81.558891,"latitude":28.355695}},{"id":"WaltDisneyWorldHollywoodStudios_80010218","waitTime":null,"status":"Closed","active":false,"lastUpdate":"2021-01-22T00:00:14.177Z","fastPass":false,"meta":{"type":"ATTRACTION","latitude":28.359553,"longitude":-81.559772,"singleRider":false,"unsuitableForPregnantPeople":true},"name":"The Twilight Zone Tower of Terror™"},{"id":"WaltDisneyWorldHollywoodStudios_80010848","waitTime":null,"status":"Closed","active":false,"lastUpdate":"2020-09-15T11:33:12.284Z","fastPass":false,"meta":{"singleRider":false,"latitude":28.3589162565,"longitude":-81.5595985008},"name":"Beauty and the Beast-Live on Stage - Temporarily Unavailable"},{"id":"WaltDisneyWorldHollywoodStudios_80010896","waitTime":null,"status":"Closed","active":false,"lastUpdate":"2020-09-15T11:33:12.290Z","name":"Voyage of The Little Mermaid - Temporarily Unavailable","fastPass":false,"meta":{"latitude":28.3574862147,"singleRider":false,"longitude":-81.5608484102}},{"id":"WaltDisneyWorldHollywoodStudios_90001216","waitTime":null,"status":"Operating","active":true,"lastUpdate":"2021-01-21T22:50:31.380Z","fastPass":false,"meta":{"type":"RESTAURANT","singleRider":false,"latitude":28.357444,"longitude":-81.558881},"name":"50's Prime Time Café"},{"id":"WaltDisneyWorldHollywoodStudios_90001744","waitTime":null,"status":"Closed","active":false,"lastUpdate":"2021-01-03T21:23:32.783Z","fastPass":false,"name":"Hollywood & Vine","meta":{"longitude":-81.558975,"type":"RESTAURANT","singleRider":false,"latitude":28.357611}},{"id":"WaltDisneyWorldHollywoodStudios_90001865","waitTime":null,"status":"Operating","active":true,"lastUpdate":"2021-01-21T21:46:57.800Z","fastPass":false,"name":"Mama Melrose's Ristorante Italiano","meta":{"type":"RESTAURANT","latitude":28.354532,"singleRider":false,"longitude":-81.559012}},{"id":"WaltDisneyWorldHollywoodStudios_90002114","waitTime":null,"status":"Operating","active":true,"lastUpdate":"2021-01-21T23:47:02.893Z","meta":{"longitude":-81.559495,"type":"RESTAURANT","latitude":28.3559,"singleRider":false},"name":"Sci-Fi Dine-In Theater Restaurant","fastPass":false},{"id":"WaltDisneyWorldHollywoodStudios_90002245","waitTime":null,"status":"Operating","active":true,"lastUpdate":"2021-01-21T23:56:59.929Z","meta":{"longitude":-81.560297,"type":"RESTAURANT","latitude":28.357648,"singleRider":false},"name":"The Hollywood Brown Derby","fastPass":false},{"id":"WaltDisneyWorldAnimalKingdom_17421326","waitTime":null,"status":"Closed","active":false,"lastUpdate":"2020-09-15T11:33:02.632Z","fastPass":false,"name":"Meet Favorite Disney Pals at Adventurers Outpost - Temporarily Unavailable","meta":{"longitude":-81.589796,"singleRider":false,"latitude":28.357972}},{"id":"WaltDisneyWorldAnimalKingdom_18069632","waitTime":null,"status":"Operating","active":true,"lastUpdate":"2021-01-21T21:55:37.500Z","fastPass":false,"name":"Tiffins Restaurant","meta":{"latitude":28.356846,"type":"RESTAURANT","singleRider":false,"longitude":-81.591487}},{"id":"WaltDisneyWorldAnimalKingdom_18377778","waitTime":null,"status":"Operating","active":true,"lastUpdate":"2021-01-21T21:55:36.754Z","fastPass":false,"name":"Nomad Lounge","meta":{"singleRider":false,"longitude":-81.591487,"type":"RESTAURANT","latitude":28.356719}},{"id":"WaltDisneyWorldAnimalKingdom_18665185","waitTime":null,"status":"Closed","active":false,"lastUpdate":"2021-01-21T22:00:13.541Z","name":"Na'vi River Journey","meta":{"type":"ATTRACTION","latitude":28.355257,"longitude":-81.591641,"singleRider":false},"fastPass":false},{"id":"WaltDisneyWorldAnimalKingdom_18665186","waitTime":null,"status":"Closed","active":false,"lastUpdate":"2021-01-21T22:00:17.888Z","name":"Avatar Flight of Passage","meta":{"longitude":-81.592147,"unsuitableForPregnantPeople":true,"type":"ATTRACTION","singleRider":false,"latitude":28.355554},"fastPass":false},{"id":"WaltDisneyWorldAnimalKingdom_19330300","waitTime":null,"status":"Closed","active":false,"lastUpdate":"2021-01-03T21:23:41.561Z","fastPass":false,"name":"The Animation Experience at Conservation Station","meta":{"latitude":28.365188,"type":"ATTRACTION","longitude":-81.588669,"singleRider":false}},{"id":"WaltDisneyWorldAnimalKingdom_26068","waitTime":null,"status":"Closed","active":false,"lastUpdate":"2021-01-21T22:00:12.932Z","meta":{"type":"ATTRACTION","longitude":-81.5873781396,"latitude":28.3584769119,"unsuitableForPregnantPeople":true,"singleRider":false},"fastPass":false,"name":"Expedition Everest - Legend of the Forbidden Mountain"},{"id":"WaltDisneyWorldAnimalKingdom_80010123","waitTime":null,"status":"Closed","active":false,"lastUpdate":"2021-01-21T22:00:12.311Z","meta":{"longitude":-81.588444,"unsuitableForPregnantPeople":true,"latitude":28.355307,"singleRider":false,"type":"ATTRACTION"},"name":"DINOSAUR","fastPass":false},{"id":"WaltDisneyWorldAnimalKingdom_80010150","waitTime":null,"status":"Closed","active":false,"lastUpdate":"2021-01-21T22:00:14.185Z","fastPass":false,"name":"It's Tough to be a Bug!","meta":{"singleRider":false,"type":"ATTRACTION","latitude":28.357488,"longitude":-81.590118}},{"id":"WaltDisneyWorldAnimalKingdom_80010154","waitTime":null,"status":"Refurbishment","active":false,"lastUpdate":"2021-01-04T05:02:16.994Z","meta":{"singleRider":false,"unsuitableForPregnantPeople":true,"latitude":28.3587834288,"longitude":-81.5889412165,"type":"ATTRACTION"},"name":"Kali River Rapids","fastPass":false},{"id":"WaltDisneyWorldAnimalKingdom_80010157","waitTime":null,"status":"Closed","active":false,"lastUpdate":"2021-01-21T22:00:18.408Z","meta":{"type":"ATTRACTION","longitude":-81.59228,"unsuitableForPregnantPeople":true,"latitude":28.359331,"singleRider":false},"fastPass":false,"name":"Kilimanjaro Safaris"},{"id":"WaltDisneyWorldAnimalKingdom_80010164","waitTime":null,"status":"Closed","active":false,"lastUpdate":"2021-01-21T22:00:10.994Z","meta":{"singleRider":false,"type":"ATTRACTION","latitude":28.359379,"longitude":-81.589019},"fastPass":false,"name":"Maharajah Jungle Trek"},{"id":"WaltDisneyWorldAnimalKingdom_80010175","waitTime":null,"status":"Closed","active":false,"lastUpdate":"2021-01-21T21:30:12.163Z","name":"Gorilla Falls Exploration Trail","meta":{"singleRider":false,"type":"ATTRACTION","longitude":-81.592149,"latitude":28.359954},"fastPass":false},{"id":"WaltDisneyWorldAnimalKingdom_80010203","waitTime":null,"status":"Closed","active":false,"lastUpdate":"2021-01-03T21:23:41.107Z","fastPass":false,"meta":{"latitude":28.3566787564,"longitude":-81.5884791864,"singleRider":false,"type":"ATTRACTION"},"name":"The Boneyard - Temporarily Unavailable"},{"id":"WaltDisneyWorldAnimalKingdom_80010228","waitTime":null,"status":"Closed","active":false,"lastUpdate":"2021-01-21T22:00:14.723Z","fastPass":false,"name":"TriceraTop Spin","meta":{"singleRider":false,"type":"ATTRACTION","latitude":28.356503,"longitude":-81.588074}},{"id":"WaltDisneyWorldAnimalKingdom_80010235","waitTime":null,"status":"Closed","active":false,"lastUpdate":"2021-01-21T21:30:12.720Z","name":"Wildlife Express Train","meta":{"longitude":-81.5914175464,"type":"ATTRACTION","singleRider":false,"latitude":28.3598097347},"fastPass":false},{"id":"WaltDisneyWorldMagicKingdom_136550","waitTime":null,"status":"Closed","active":false,"lastUpdate":"2021-01-03T21:24:21.706Z","name":"Monsters, Inc. Laugh Floor - Temporarily Unavailable","fastPass":false,"meta":{"type":"ATTRACTION","singleRider":false,"longitude":-81.5797358751,"latitude":28.4183977566}},{"id":"WaltDisneyWorldMagicKingdom_15743682","waitTime":null,"status":"Closed","active":false,"lastUpdate":"2020-09-15T11:33:17.406Z","fastPass":false,"meta":{"latitude":28.421282,"longitude":-81.578932,"singleRider":false},"name":"Meet Dashing Disney Pals as Circus Stars at Pete’s Silly Side Show - Temporarily Unavailable"},{"id":"WaltDisneyWorldMagicKingdom_15850196","waitTime":null,"status":"Closed","active":false,"lastUpdate":"2020-09-15T11:33:17.374Z","fastPass":false,"meta":{"latitude":28.416727,"longitude":-81.580746,"singleRider":false},"name":"Meet Mickey Mouse at Town Square Theater - Temporarily Unavailable"},{"id":"WaltDisneyWorldMagicKingdom_16124144","waitTime":null,"status":"Closed","active":false,"lastUpdate":"2021-01-22T00:00:14.770Z","meta":{"singleRider":false,"longitude":-81.583738382,"latitude":28.4182264646,"type":"ATTRACTION"},"name":"Walt Disney's Enchanted Tiki Room","fastPass":false},{"id":"WaltDisneyWorldMagicKingdom_16414579","waitTime":null,"status":"Closed","active":false,"lastUpdate":"2021-01-21T23:00:17.457Z","meta":{"singleRider":false,"type":"ATTRACTION","longitude":-81.58163,"latitude":28.416944},"name":"Sorcerers of the Magic Kingdom","fastPass":false},{"id":"WaltDisneyWorldMagicKingdom_16491297","waitTime":null,"status":"Closed","active":false,"lastUpdate":"2021-01-22T00:00:15.297Z","name":"The Barnstormer","fastPass":false,"meta":{"unsuitableForPregnantPeople":true,"singleRider":false,"type":"ATTRACTION","longitude":-81.5783907473,"latitude":28.4207661576}},{"id":"WaltDisneyWorldMagicKingdom_16491299","waitTime":null,"status":"Refurbishment","active":false,"lastUpdate":"2021-01-03T21:24:18.928Z","fastPass":false,"name":"Walt Disney World Railroad - Fantasyland - Temporarily Unavailable","meta":{"singleRider":false,"type":"ATTRACTION","longitude":-81.578368,"latitude":28.420934}},{"id":"WaltDisneyWorldMagicKingdom_16660079","waitTime":null,"status":"Operating","active":true,"lastUpdate":"2021-01-22T00:56:57.737Z","name":"Be Our Guest Restaurant","fastPass":false,"meta":{"longitude":-81.5807074858,"type":"RESTAURANT","singleRider":false,"latitude":28.4212491492}},{"id":"WaltDisneyWorldMagicKingdom_16767263","waitTime":null,"status":"Closed","active":false,"lastUpdate":"2021-01-22T00:00:15.921Z","name":"Under the Sea ~ Journey of The Little Mermaid","fastPass":false,"meta":{"latitude":28.4211203226,"type":"ATTRACTION","longitude":-81.5799752427,"singleRider":false}},{"id":"WaltDisneyWorldMagicKingdom_16767276","waitTime":null,"status":"Closed","active":false,"lastUpdate":"2021-01-03T21:24:20.764Z","fastPass":false,"name":"Enchanted Tales with Belle - Temporarily Unavailable","meta":{"singleRider":false,"type":"ATTRACTION","longitude":-81.58093011,"latitude":28.42099058}},{"id":"WaltDisneyWorldMagicKingdom_16767284","waitTime":null,"status":"Closed","active":false,"lastUpdate":"2021-01-22T00:00:16.799Z","name":"Seven Dwarfs Mine Train","fastPass":false,"meta":{"type":"ATTRACTION","longitude":-81.58031,"unsuitableForPregnantPeople":true,"latitude":28.42037,"singleRider":false}},{"id":"WaltDisneyWorldMagicKingdom_16874126","waitTime":null,"status":"Closed","active":false,"lastUpdate":"2020-09-15T11:33:17.441Z","name":"Meet Ariel at Her Grotto - Temporarily Unavailable","meta":{"latitude":28.420893275289,"singleRider":false,"longitude":-81.579613144497},"fastPass":false},{"id":"WaltDisneyWorldMagicKingdom_17272158","waitTime":null,"status":"Closed","active":false,"lastUpdate":"2021-01-03T21:24:21.210Z","meta":{"singleRider":false,"type":"ATTRACTION","latitude":28.41837254,"longitude":-81.58466913},"name":"A Pirate's Adventure ~ Treasures of the Seven Seas - Temporarily Unavailable","fastPass":false},{"id":"WaltDisneyWorldMagicKingdom_17505397","waitTime":null,"status":"Closed","active":false,"lastUpdate":"2020-09-15T11:33:17.486Z","fastPass":false,"name":"Meet Rapunzel and Tiana at Princess Fairytale Hall - Temporarily Unavailable","meta":{"longitude":-81.580917439677,"latitude":28.420045752669,"singleRider":false}},{"id":"WaltDisneyWorldMagicKingdom_17752793","waitTime":null,"status":"Closed","active":false,"lastUpdate":"2020-09-15T11:33:17.444Z","name":"Meet Tinker Bell at Town Square Theater - Temporarily Unavailable","meta":{"latitude":28.416727,"longitude":-81.580815,"singleRider":false},"fastPass":false},{"id":"WaltDisneyWorldMagicKingdom_18185631","waitTime":null,"status":"Operating","active":true,"lastUpdate":"2021-01-21T22:43:27.242Z","meta":{"singleRider":false,"longitude":-81.582592,"latitude":28.418491,"type":"RESTAURANT"},"fastPass":false,"name":"Jungle Navigation Co. LTD Skipper Canteen"},{"id":"WaltDisneyWorldMagicKingdom_18498503","waitTime":null,"status":"Closed","active":false,"lastUpdate":"2020-09-15T11:33:17.494Z","fastPass":false,"meta":{"singleRider":false,"latitude":28.420012,"longitude":-81.58094},"name":"Meet Cinderella and Elena at Princess Fairytale Hall - Temporarily Unavailable"},{"id":"WaltDisneyWorldMagicKingdom_2219610","waitTime":null,"status":"Refurbishment","active":false,"lastUpdate":"2021-01-03T21:23:08.615Z","name":"Walt Disney World Railroad - Frontierland - Temporarily Unavailable","fastPass":false,"meta":{"type":"ATTRACTION","latitude":28.41969,"longitude":-81.585078,"singleRider":false}},{"id":"WaltDisneyWorldMagicKingdom_387133","waitTime":null,"status":"Closed","active":false,"lastUpdate":"2020-09-15T11:33:17.492Z","fastPass":false,"name":"Meet Daring Disney Pals as Circus Stars at Pete's Silly Side Show - Temporarily Unavailable","meta":{"longitude":-81.578932,"latitude":28.421282,"singleRider":false}},{"id":"WaltDisneyWorldMagicKingdom_80010107","waitTime":null,"status":"Closed","active":false,"lastUpdate":"2021-01-22T00:00:20.807Z","name":"Astro Orbiter","fastPass":false,"meta":{"longitude":-81.5789887902,"type":"ATTRACTION","latitude":28.4184926179,"singleRider":false}},{"id":"WaltDisneyWorldMagicKingdom_80010110","waitTime":null,"status":"Closed","active":false,"lastUpdate":"2021-01-22T00:00:21.342Z","name":"Big Thunder Mountain Railroad","fastPass":false,"meta":{"longitude":-81.5846422864,"type":"ATTRACTION","singleRider":false,"latitude":28.4199638504,"unsuitableForPregnantPeople":true}},{"id":"WaltDisneyWorldMagicKingdom_80010114","waitTime":null,"status":"Closed","active":false,"lastUpdate":"2021-01-22T00:00:21.899Z","fastPass":false,"name":"Buzz Lightyear's Space Ranger Spin","meta":{"singleRider":false,"latitude":28.4182868839,"longitude":-81.5794086456,"type":"ATTRACTION"}},{"id":"WaltDisneyWorldMagicKingdom_80010117","waitTime":null,"status":"Closed","active":false,"lastUpdate":"2021-01-22T00:00:23.029Z","meta":{"singleRider":false,"type":"ATTRACTION","longitude":-81.581255,"latitude":28.420169},"name":"Prince Charming Regal Carrousel","fastPass":false},{"id":"WaltDisneyWorldMagicKingdom_80010129","waitTime":null,"status":"Closed","active":false,"lastUpdate":"2021-01-22T00:00:22.452Z","fastPass":false,"name":"Dumbo the Flying Elephant","meta":{"type":"ATTRACTION","latitude":28.420509033,"singleRider":false,"longitude":-81.5789473057}},{"id":"WaltDisneyWorldMagicKingdom_80010149","waitTime":null,"status":"Closed","active":false,"lastUpdate":"2021-01-22T00:00:24.075Z","name":"\"it's a small world\"","meta":{"type":"ATTRACTION","singleRider":false,"longitude":-81.5820392026,"latitude":28.4204816402},"fastPass":false},{"id":"WaltDisneyWorldMagicKingdom_80010153","waitTime":null,"status":"Closed","active":false,"lastUpdate":"2021-01-22T00:00:23.563Z","name":"Jungle Cruise","fastPass":false,"meta":{"longitude":-81.5834393157,"singleRider":false,"latitude":28.41797818,"type":"ATTRACTION"}},{"id":"WaltDisneyWorldMagicKingdom_80010160","waitTime":null,"status":"Refurbishment","active":false,"lastUpdate":"2021-01-03T21:23:48.006Z","fastPass":false,"name":"Liberty Square Riverboat","meta":{"singleRider":false,"longitude":-81.5827982677,"latitude":28.4195563399,"type":"ATTRACTION"}},{"id":"WaltDisneyWorldMagicKingdom_80010162","waitTime":null,"status":"Closed","active":false,"lastUpdate":"2021-01-22T00:00:13.532Z","fastPass":false,"meta":{"latitude":28.4200230397,"longitude":-81.5798248916,"singleRider":false,"type":"ATTRACTION"},"name":"Mad Tea Party"},{"id":"WaltDisneyWorldMagicKingdom_80010165","waitTime":null,"status":"Closed","active":false,"lastUpdate":"2021-01-03T21:24:20.300Z","meta":{"latitude":28.4168698711,"longitude":-81.5815081252,"singleRider":false,"type":"ATTRACTION"},"name":"Main Street Vehicles - Temporarily Unavailable","fastPass":false},{"id":"WaltDisneyWorldMagicKingdom_80010170","waitTime":null,"status":"Closed","active":false,"lastUpdate":"2021-01-22T00:00:24.601Z","name":"Mickey's PhilharMagic","meta":{"latitude":28.4200304909,"singleRider":false,"longitude":-81.5814839853,"type":"ATTRACTION"},"fastPass":false},{"id":"WaltDisneyWorldMagicKingdom_80010176","waitTime":null,"status":"Closed","active":false,"lastUpdate":"2021-01-22T00:00:08.387Z","meta":{"latitude":28.4202640272,"longitude":-81.5818916811,"singleRider":false,"type":"ATTRACTION"},"fastPass":false,"name":"Peter Pan's Flight"},{"id":"WaltDisneyWorldMagicKingdom_80010177","waitTime":null,"status":"Closed","active":false,"lastUpdate":"2021-01-22T00:00:25.140Z","meta":{"latitude":28.41796992,"longitude":-81.5842252,"type":"ATTRACTION","singleRider":false},"fastPass":false,"name":"Pirates of the Caribbean"},{"id":"WaltDisneyWorldMagicKingdom_80010190","waitTime":null,"status":"Closed","active":false,"lastUpdate":"2021-01-22T00:00:26.198Z","meta":{"longitude":-81.5781962872,"latitude":28.4188341691,"singleRider":false,"unsuitableForPregnantPeople":true,"type":"ATTRACTION"},"fastPass":false,"name":"Space Mountain"},{"id":"WaltDisneyWorldMagicKingdom_80010192","waitTime":null,"status":"Closed","active":false,"lastUpdate":"2021-01-22T00:00:26.755Z","name":"Splash Mountain","meta":{"singleRider":false,"unsuitableForPregnantPeople":true,"type":"ATTRACTION","latitude":28.419418,"longitude":-81.58498},"fastPass":false},{"id":"WaltDisneyWorldMagicKingdom_80010196","waitTime":null,"status":"Closed","active":false,"lastUpdate":"2021-01-22T00:00:27.363Z","fastPass":false,"meta":{"singleRider":false,"type":"ATTRACTION","latitude":28.4184325517,"longitude":-81.5827982677},"name":"Swiss Family Treehouse"},{"id":"WaltDisneyWorldMagicKingdom_80010208","waitTime":null,"status":"Closed","active":false,"lastUpdate":"2021-01-22T00:00:27.912Z","name":"Haunted Mansion","meta":{"latitude":28.4202,"singleRider":false,"longitude":-81.58288,"type":"ATTRACTION"},"fastPass":false},{"id":"WaltDisneyWorldMagicKingdom_80010210","waitTime":null,"status":"Closed","active":false,"lastUpdate":"2021-01-22T00:00:08.993Z","fastPass":false,"name":"The Magic Carpets of Aladdin","meta":{"singleRider":false,"type":"ATTRACTION","latitude":28.41843,"longitude":-81.583472}},{"id":"WaltDisneyWorldMagicKingdom_80010213","waitTime":null,"status":"Closed","active":false,"lastUpdate":"2021-01-22T00:00:28.535Z","meta":{"latitude":28.420212,"longitude":-81.580266,"singleRider":false,"type":"ATTRACTION"},"fastPass":false,"name":"The Many Adventures of Winnie the Pooh"},{"id":"WaltDisneyWorldMagicKingdom_80010220","waitTime":null,"status":"Refurbishment","active":false,"lastUpdate":"2021-01-03T21:24:19.374Z","name":"Tom Sawyer Island","meta":{"type":"ATTRACTION","singleRider":false,"longitude":-81.58428,"latitude":28.419503},"fastPass":false},{"id":"WaltDisneyWorldMagicKingdom_80010222","waitTime":null,"status":"Closed","active":false,"lastUpdate":"2021-01-22T00:00:12.288Z","meta":{"longitude":-81.579302,"singleRider":false,"type":"ATTRACTION","unsuitableForPregnantPeople":true,"latitude":28.419368},"name":"Tomorrowland Speedway","fastPass":false},{"id":"WaltDisneyWorldMagicKingdom_80010224","waitTime":null,"status":"Refurbishment","active":false,"lastUpdate":"2021-01-03T21:24:19.826Z","name":"Tomorrowland Transit Authority PeopleMover - Temporarily Unavailable","meta":{"type":"ATTRACTION","singleRider":false,"latitude":28.418155,"longitude":-81.579033},"fastPass":false},{"id":"WaltDisneyWorldMagicKingdom_80010230","waitTime":null,"status":"Refurbishment","active":false,"lastUpdate":"2021-01-03T21:23:09.088Z","fastPass":false,"meta":{"latitude":28.416543,"singleRider":false,"type":"ATTRACTION","longitude":-81.581204},"name":"Walt Disney World Railroad - Main Street, U.S.A. - Temporarily Unavailable"},{"id":"WaltDisneyWorldMagicKingdom_80010232","waitTime":null,"status":"Closed","active":false,"lastUpdate":"2021-01-21T23:00:14.167Z","fastPass":false,"name":"Walt Disney's Carousel of Progress","meta":{"longitude":-81.5790083064,"singleRider":false,"latitude":28.4180310951,"type":"ATTRACTION"}},{"id":"WaltDisneyWorldMagicKingdom_80069748","waitTime":null,"status":"Closed","active":false,"lastUpdate":"2021-01-22T00:00:29.109Z","fastPass":false,"name":"Country Bear Jamboree","meta":{"longitude":-81.5837222887,"latitude":28.4187861348,"type":"ATTRACTION","singleRider":false}},{"id":"WaltDisneyWorldMagicKingdom_80069754","waitTime":null,"status":"Refurbishment","active":false,"lastUpdate":"2021-01-21T05:00:35.597Z","meta":{"type":"ATTRACTION","latitude":28.4194484171,"longitude":-81.5823248578,"singleRider":false},"fastPass":false,"name":"The Hall of Presidents"},{"id":"WaltDisneyWorldMagicKingdom_90001819","waitTime":null,"status":"Operating","active":true,"lastUpdate":"2021-01-21T23:57:00.477Z","fastPass":false,"meta":{"longitude":-81.5826159743,"singleRider":false,"type":"RESTAURANT","latitude":28.4191196055},"name":"Liberty Tree Tavern"},{"id":"WaltDisneyWorldMagicKingdom_90002464","waitTime":null,"status":"Operating","active":true,"lastUpdate":"2021-01-21T21:09:50.178Z","name":"Cinderella's Royal Table","meta":{"singleRider":false,"type":"RESTAURANT","latitude":28.4195,"longitude":-81.581101},"fastPass":false},{"id":"WaltDisneyWorldMagicKingdom_90002660","waitTime":null,"status":"Operating","active":true,"lastUpdate":"2021-01-21T23:55:11.329Z","fastPass":false,"meta":{"type":"RESTAURANT","latitude":28.4181214892,"singleRider":false,"longitude":-81.5818970259},"name":"The Crystal Palace"},{"id":"WaltDisneyWorldMagicKingdom_90002670","waitTime":null,"status":"Operating","active":true,"lastUpdate":"2021-01-21T23:55:59.735Z","name":"The Plaza Restaurant","fastPass":false,"meta":{"longitude":-81.5809394969,"latitude":28.4180247703,"singleRider":false,"type":"RESTAURANT"}},{"id":"WaltDisneyWorldMagicKingdom_90002678","waitTime":null,"status":"Operating","active":true,"lastUpdate":"2021-01-21T23:55:15.074Z","name":"Tony's Town Square Restaurant","meta":{"singleRider":false,"latitude":28.4169323426,"type":"RESTAURANT","longitude":-81.5807276023},"fastPass":false},{"id":"WaltDisneyWorldEpcot_107785","waitTime":null,"status":"Closed","active":false,"lastUpdate":"2021-01-22T01:00:18.358Z","name":"The Seas with Nemo & Friends","fastPass":false,"meta":{"singleRider":false,"type":"ATTRACTION","latitude":28.374904,"longitude":-81.550852}},{"id":"WaltDisneyWorldEpcot_17564219","waitTime":null,"status":"Closed","active":false,"lastUpdate":"2020-09-15T11:33:07.103Z","fastPass":false,"name":"Meet Anna and Elsa at Royal Sommerhus - Temporarily Unavailable","meta":{"singleRider":false,"latitude":28.37097,"longitude":-81.547134}},{"id":"WaltDisneyWorldEpcot_17720675","waitTime":null,"status":"Operating","active":true,"lastUpdate":"2021-01-22T00:48:38.058Z","meta":{"longitude":-81.551645,"singleRider":false,"latitude":28.368468,"type":"RESTAURANT"},"fastPass":false,"name":"Spice Road Table"},{"id":"WaltDisneyWorldEpcot_18269694","waitTime":null,"status":"Closed","active":false,"lastUpdate":"2021-01-22T01:00:18.959Z","fastPass":false,"name":"Disney and Pixar Short Film Festival","meta":{"latitude":28.37263,"singleRider":false,"type":"ATTRACTION","longitude":-81.55115}},{"id":"WaltDisneyWorldEpcot_18375495","waitTime":null,"status":"Closed","active":false,"lastUpdate":"2021-01-22T01:00:19.497Z","name":"Frozen Ever After","fastPass":false,"meta":{"singleRider":false,"type":"ATTRACTION","latitude":28.370745,"longitude":-81.54653}},{"id":"WaltDisneyWorldEpcot_19463785","waitTime":null,"status":"Closed","active":false,"lastUpdate":"2021-01-21T23:00:15.313Z","fastPass":false,"name":"Beauty and the Beast Sing-Along","meta":{"singleRider":false,"latitude":28.368864,"longitude":-81.552978,"type":"ATTRACTION"}},{"id":"WaltDisneyWorldEpcot_19473173","waitTime":null,"status":"Closed","active":false,"lastUpdate":"2021-01-22T01:00:15.048Z","name":"Awesome Planet","fastPass":false,"meta":{"singleRider":false,"longitude":-81.552138,"latitude":28.374301,"type":"ATTRACTION"}},{"id":"WaltDisneyWorldEpcot_20194","waitTime":null,"status":"Closed","active":false,"lastUpdate":"2021-01-22T01:00:15.671Z","name":"Soarin' Around the World","fastPass":false,"meta":{"latitude":28.373592,"longitude":-81.552248,"type":"ATTRACTION","singleRider":false}},{"id":"WaltDisneyWorldEpcot_207395","waitTime":null,"status":"Closed","active":false,"lastUpdate":"2021-01-22T01:00:11.443Z","meta":{"latitude":28.371649,"type":"ATTRACTION","longitude":-81.547368,"singleRider":false},"fastPass":false,"name":"Gran Fiesta Tour Starring The Three Caballeros"},{"id":"WaltDisneyWorldEpcot_62992","waitTime":null,"status":"Closed","active":false,"lastUpdate":"2021-01-03T21:23:09.564Z","meta":{"type":"ATTRACTION","latitude":28.375255,"singleRider":false,"longitude":-81.551047},"fastPass":false,"name":"Turtle Talk With Crush - Temporarily Unavailable"},{"id":"WaltDisneyWorldEpcot_80010145","waitTime":null,"status":"Closed","active":false,"lastUpdate":"2021-01-22T00:45:10.836Z","name":"Impressions de France","fastPass":false,"meta":{"latitude":28.368864,"singleRider":false,"longitude":-81.552978,"type":"ATTRACTION"}},{"id":"WaltDisneyWorldEpcot_80010152","waitTime":null,"status":"Closed","active":false,"lastUpdate":"2021-01-22T01:00:12.145Z","fastPass":false,"meta":{"longitude":-81.551401,"latitude":28.372994,"type":"ATTRACTION","singleRider":false},"name":"Journey Into Imagination With Figment"},{"id":"WaltDisneyWorldEpcot_80010161","waitTime":null,"status":"Closed","active":false,"lastUpdate":"2021-01-22T01:00:16.320Z","meta":{"type":"ATTRACTION","longitude":-81.552301,"singleRider":false,"latitude":28.374245},"name":"Living with the Land","fastPass":false},{"id":"WaltDisneyWorldEpcot_80010173","waitTime":null,"status":"Closed","active":false,"lastUpdate":"2021-01-22T01:00:12.879Z","meta":{"longitude":-81.547156,"latitude":28.373927,"singleRider":false,"type":"ATTRACTION","unsuitableForPregnantPeople":true},"name":"Mission: SPACE","fastPass":false},{"id":"WaltDisneyWorldEpcot_80010174","waitTime":null,"status":"Closed","active":false,"lastUpdate":"2021-01-22T00:45:10.199Z","fastPass":false,"name":"Canada Far and Wide in Circle-Vision 360","meta":{"type":"ATTRACTION","singleRider":false,"latitude":28.371694,"longitude":-81.55196}},{"id":"WaltDisneyWorldEpcot_80010180","waitTime":null,"status":"Closed","active":false,"lastUpdate":"2021-01-22T01:00:17.006Z","fastPass":false,"name":"Reflections of China","meta":{"type":"ATTRACTION","latitude":28.369791,"singleRider":false,"longitude":-81.546381}},{"id":"WaltDisneyWorldEpcot_80010191","waitTime":null,"status":"Closed","active":false,"lastUpdate":"2021-01-22T01:00:13.662Z","name":"Spaceship Earth","fastPass":false,"meta":{"longitude":-81.549401,"latitude":28.375583,"singleRider":false,"type":"ATTRACTION"}},{"id":"WaltDisneyWorldEpcot_80010199","waitTime":null,"status":"Closed","active":false,"lastUpdate":"2021-01-22T01:00:14.450Z","fastPass":false,"name":"Test Track","meta":{"type":"ATTRACTION","longitude":-81.547489,"unsuitableForPregnantPeople":true,"latitude":28.373228,"singleRider":true}},{"id":"WaltDisneyWorldEpcot_80010200","waitTime":null,"status":"Closed","active":false,"lastUpdate":"2021-01-22T01:00:17.735Z","name":"The American Adventure","fastPass":false,"meta":{"singleRider":false,"latitude":28.367517,"type":"ATTRACTION","longitude":-81.549446}},{"id":"WaltDisneyWorldEpcot_90001292","waitTime":null,"status":"Operating","active":true,"lastUpdate":"2021-01-22T00:56:58.362Z","fastPass":false,"name":"Biergarten Restaurant","meta":{"type":"RESTAURANT","longitude":-81.546819,"singleRider":false,"latitude":28.368153}},{"id":"WaltDisneyWorldEpcot_90001416","waitTime":null,"status":"Operating","active":true,"lastUpdate":"2021-01-22T00:55:19.086Z","meta":{"longitude":-81.550458,"singleRider":false,"type":"RESTAURANT","latitude":28.375096},"name":"Coral Reef Restaurant","fastPass":false},{"id":"WaltDisneyWorldEpcot_90001798","waitTime":null,"status":"Operating","active":true,"lastUpdate":"2021-01-22T00:55:25.767Z","name":"Le Cellier Steakhouse","meta":{"longitude":-81.551512,"singleRider":false,"type":"RESTAURANT","latitude":28.371657},"fastPass":false},{"id":"WaltDisneyWorldEpcot_90002084","waitTime":null,"status":"Operating","active":true,"lastUpdate":"2021-01-22T00:55:30.602Z","name":"Rose & Crown Dining Room","meta":{"singleRider":false,"type":"RESTAURANT","latitude":28.370508,"longitude":-81.551684},"fastPass":false},{"id":"WaltDisneyWorldEpcot_90002237","waitTime":null,"status":"Operating","active":true,"lastUpdate":"2021-01-22T00:55:18.309Z","meta":{"latitude":28.374039,"longitude":-81.552324,"singleRider":false,"type":"RESTAURANT"},"name":"Garden Grill Restaurant","fastPass":false},{"id":"WaltDisneyWorldHollywoodStudios_136","waitTime":null,"status":"Closed","active":false,"lastUpdate":"2020-09-15T11:33:12.086Z","name":"Indiana Jones™ Epic Stunt Spectacular! - Temporarily Unavailable","meta":{"singleRider":false,"longitude":-81.5586114479,"latitude":28.3566700675},"fastPass":false},{"id":"WaltDisneyWorldHollywoodStudios_17842841","waitTime":null,"status":"Closed","active":false,"lastUpdate":"2020-09-15T11:33:12.046Z","name":"For the First Time in Forever: A Frozen Sing-Along Celebration - Temporarily Unavailable","meta":{"longitude":-81.5596944094,"latitude":28.3568243464,"singleRider":false},"fastPass":false},{"id":"WaltDisneyWorldHollywoodStudios_18189394","waitTime":null,"status":"Closed","active":false,"lastUpdate":"2020-09-15T11:33:12.077Z","fastPass":false,"name":"Star Wars Launch Bay: Meet Chewbacca - Temporarily Unavailable","meta":{"longitude":-81.560938,"singleRider":false,"latitude":28.35796}},{"id":"WaltDisneyWorldHollywoodStudios_18189398","waitTime":null,"status":"Closed","active":false,"lastUpdate":"2020-09-15T11:33:12.069Z","fastPass":false,"meta":{"singleRider":false,"latitude":28.35796,"longitude":-81.560938},"name":"Star Wars Launch Bay: Encounter Darth Vader - Temporarily Unavailable"},{"id":"WaltDisneyWorldHollywoodStudios_18360041","waitTime":null,"status":"Closed","active":false,"lastUpdate":"2021-01-03T21:23:31.878Z","name":"Star Wars Launch Bay Theater - Temporarily Unavailable","fastPass":false,"meta":{"singleRider":false,"type":"ATTRACTION","longitude":-81.561061,"latitude":28.357821}},{"id":"WaltDisneyWorldHollywoodStudios_18368385","waitTime":null,"status":"Closed","active":false,"lastUpdate":"2020-09-15T11:33:12.104Z","name":"Celebrity Spotlight - Temporarily Unavailable","fastPass":false,"meta":{"singleRider":false,"latitude":28.356072,"longitude":-81.559158}},{"id":"WaltDisneyWorldHollywoodStudios_18368386","waitTime":null,"status":"Closed","active":false,"lastUpdate":"2020-09-15T11:33:12.095Z","meta":{"longitude":-81.559479,"latitude":28.356068,"singleRider":false},"fastPass":false,"name":"Mickey and Minnie Starring in Red Carpet Dreams - Temporarily Unavailable"},{"id":"WaltDisneyWorldHollywoodStudios_18669338","waitTime":null,"status":"Closed","active":false,"lastUpdate":"2020-09-15T11:33:12.121Z","meta":{"longitude":-81.560938,"singleRider":false,"latitude":28.35796},"fastPass":false,"name":"BB-8 Astromech on Duty - Temporarily Unavailable"},{"id":"WaltDisneyWorldHollywoodStudios_18770880","waitTime":null,"status":"Closed","active":false,"lastUpdate":"2021-01-21T23:00:14.755Z","meta":{"singleRider":false,"longitude":-81.560982,"latitude":28.35686,"type":"ATTRACTION"},"name":"Walt Disney Presents","fastPass":false},{"id":"WaltDisneyWorldHollywoodStudios_18904138","waitTime":null,"status":"Closed","active":false,"lastUpdate":"2021-01-22T00:00:17.408Z","name":"Slinky Dog Dash","meta":{"singleRider":false,"latitude":28.356245,"longitude":-81.562786,"unsuitableForPregnantPeople":true,"type":"ATTRACTION"},"fastPass":false},{"id":"WaltDisneyWorldHollywoodStudios_18904172","waitTime":null,"status":"Closed","active":false,"lastUpdate":"2021-01-22T00:00:18.496Z","fastPass":false,"name":"Alien Swirling Saucers","meta":{"singleRider":false,"latitude":28.355385,"longitude":-81.562379,"type":"ATTRACTION"}},{"id":"WaltDisneyWorldHollywoodStudios_19025682","waitTime":null,"status":"Operating","active":true,"lastUpdate":"2020-09-15T14:02:51.117Z","meta":{"longitude":-81.559787,"singleRider":false,"latitude":28.355234},"fastPass":false,"name":"Star Wars: Galaxy's Edge"},{"id":"WaltDisneyWorldHollywoodStudios_19152250","waitTime":null,"status":"Closed","active":false,"lastUpdate":"2020-09-15T11:33:12.147Z","fastPass":false,"meta":{"longitude":-81.560984,"singleRider":false,"latitude":28.356865},"name":"Meet Sulley at Walt Disney Presents - Temporarily Unavailable"},{"id":"WaltDisneyWorldHollywoodStudios_19259335","waitTime":null,"status":"Closed","active":false,"lastUpdate":"2021-01-22T00:00:17.953Z","fastPass":false,"name":"Mickey & Minnie's Runaway Railway","meta":{"type":"ATTRACTION","latitude":28.3566783801,"singleRider":false,"longitude":-81.5605667783}},{"id":"WaltDisneyWorldHollywoodStudios_19263735","waitTime":null,"status":"Closed","active":false,"lastUpdate":"2021-01-22T00:00:19.692Z","name":"Millennium Falcon: Smugglers Run","fastPass":false,"meta":{"singleRider":true,"latitude":28.353889,"type":"ATTRACTION","longitude":-81.561689,"unsuitableForPregnantPeople":true}},{"id":"WaltDisneyWorldHollywoodStudios_19263736","waitTime":null,"status":"Closed","active":false,"lastUpdate":"2021-01-22T00:00:19.121Z","name":"Star Wars: Rise of the Resistance","meta":{"singleRider":false,"type":"ATTRACTION","unsuitableForPregnantPeople":true,"longitude":-81.560457,"latitude":28.354884},"fastPass":false},{"id":"WaltDisneyWorldHollywoodStudios_19267226","waitTime":null,"status":"Closed","active":false,"lastUpdate":"2021-01-03T21:23:32.330Z","fastPass":false,"name":"Oga's Cantina at the Walt Disney World Resort","meta":{"singleRider":false,"type":"RESTAURANT","latitude":28.354095,"longitude":-81.562075}},{"id":"WaltDisneyWorldHollywoodStudios_19276204","waitTime":null,"status":"Closed","active":false,"lastUpdate":"2021-01-21T23:00:16.078Z","fastPass":false,"meta":{"singleRider":false,"type":"ATTRACTION","longitude":-81.560707,"latitude":28.360035},"name":"Lightning McQueen's Racing Academy"},