[{"id":"WaltDisneyWorldMagicKingdom_136550","waitTime":null,"status":"Closed","active":false,"lastUpdate":"2021-01-03T21:24:21.706Z","meta":{"type":"ATTRACTION","singleRider":false,"longitude":-81.5797358751,"latitude":28.4183977566},"fastPass":false,"name":"Monsters, Inc. Laugh Floor - Temporarily Unavailable"},{"id":"WaltDisneyWorldMagicKingdom_15743682","waitTime":null,"status":"Closed","active":false,"lastUpdate":"2020-09-15T11:33:17.406Z","meta":{"latitude":28.421282,"longitude":-81.578932,"singleRider":false},"name":"Meet Dashing Disney Pals as Circus Stars at Pete’s Silly Side Show - Temporarily Unavailable","fastPass":false},{"id":"WaltDisneyWorldMagicKingdom_15850196","waitTime":null,"status":"Closed","active":false,"lastUpdate":"2020-09-15T11:33:17.374Z","fastPass":false,"name":"Meet Mickey Mouse at Town Square Theater - Temporarily Unavailable","meta":{"singleRider":false,"longitude":-81.580746,"latitude":28.416727}},{"id":"WaltDisneyWorldMagicKingdom_16124144","waitTime":null,"status":"Closed","active":false,"lastUpdate":"2021-01-28T00:00:17.826Z","fastPass":false,"meta":{"singleRider":false,"longitude":-81.583738382,"type":"ATTRACTION","latitude":28.4182264646},"name":"Walt Disney's Enchanted Tiki Room"},{"id":"WaltDisneyWorldMagicKingdom_16414579","waitTime":null,"status":"Closed","active":false,"lastUpdate":"2021-01-24T23:00:36.558Z","meta":{"singleRider":false,"type":"ATTRACTION","latitude":28.416944,"longitude":-81.58163},"fastPass":false,"name":"Sorcerers of the Magic Kingdom"},{"id":"WaltDisneyWorldMagicKingdom_16491297","waitTime":null,"status":"Closed","active":false,"lastUpdate":"2021-01-28T00:00:29.106Z","fastPass":false,"name":"The Barnstormer","meta":{"longitude":-81.5783907473,"latitude":28.4207661576,"type":"ATTRACTION","singleRider":false,"unsuitableForPregnantPeople":true}},{"id":"WaltDisneyWorldMagicKingdom_16491299","waitTime":null,"status":"Refurbishment","active":false,"lastUpdate":"2021-01-03T21:24:18.928Z","name":"Walt Disney World Railroad - Fantasyland - Temporarily Unavailable","fastPass":false,"meta":{"type":"ATTRACTION","singleRider":false,"latitude":28.420934,"longitude":-81.578368}},{"id":"WaltDisneyWorldMagicKingdom_16660079","waitTime":null,"status":"Operating","active":true,"lastUpdate":"2021-01-27T17:36:22.599Z","fastPass":false,"name":"Be Our Guest Restaurant","meta":{"singleRider":false,"type":"RESTAURANT","longitude":-81.5807074858,"latitude":28.4212491492}},{"id":"WaltDisneyWorldMagicKingdom_16767263","waitTime":null,"status":"Closed","active":false,"lastUpdate":"2021-01-28T00:00:29.550Z","meta":{"longitude":-81.5799752427,"latitude":28.4211203226,"type":"ATTRACTION","singleRider":false},"name":"Under the Sea ~ Journey of The Little Mermaid","fastPass":false},{"id":"WaltDisneyWorldMagicKingdom_16767276","waitTime":null,"status":"Closed","active":false,"lastUpdate":"2021-01-03T21:24:20.764Z","name":"Enchanted Tales with Belle - Temporarily Unavailable","meta":{"longitude":-81.58093011,"singleRider":false,"type":"ATTRACTION","latitude":28.42099058},"fastPass":false},{"id":"WaltDisneyWorldMagicKingdom_16767284","waitTime":null,"status":"Closed","active":false,"lastUpdate":"2021-01-28T00:00:18.655Z","fastPass":false,"meta":{"unsuitableForPregnantPeople":true,"longitude":-81.58031,"type":"ATTRACTION","singleRider":false,"latitude":28.42037},"name":"Seven Dwarfs Mine Train"},{"id":"WaltDisneyWorldMagicKingdom_16874126","waitTime":null,"status":"Closed","active":false,"lastUpdate":"2020-09-15T11:33:17.441Z","name":"Meet Ariel at Her Grotto - Temporarily Unavailable","meta":{"singleRider":false,"latitude":28.420893275289,"longitude":-81.579613144497},"fastPass":false},{"id":"WaltDisneyWorldMagicKingdom_17272158","waitTime":null,"status":"Closed","active":false,"lastUpdate":"2021-01-03T21:24:21.210Z","name":"A Pirate's Adventure ~ Treasures of the Seven Seas - Temporarily Unavailable","meta":{"latitude":28.41837254,"longitude":-81.58466913,"singleRider":false,"type":"ATTRACTION"},"fastPass":false},{"id":"WaltDisneyWorldMagicKingdom_17505397","waitTime":null,"status":"Closed","active":false,"lastUpdate":"2020-09-15T11:33:17.486Z","meta":{"singleRider":false,"longitude":-81.580917439677,"latitude":28.420045752669},"fastPass":false,"name":"Meet Rapunzel and Tiana at Princess Fairytale Hall - Temporarily Unavailable"},{"id":"WaltDisneyWorldMagicKingdom_17752793","waitTime":null,"status":"Closed","active":false,"lastUpdate":"2020-09-15T11:33:17.444Z","name":"Meet Tinker Bell at Town Square Theater - Temporarily Unavailable","fastPass":false,"meta":{"longitude":-81.580815,"singleRider":false,"latitude":28.416727}},{"id":"WaltDisneyWorldMagicKingdom_18185631","waitTime":null,"status":"Operating","active":true,"lastUpdate":"2021-01-27T23:33:12.879Z","fastPass":false,"name":"Jungle Navigation Co. LTD Skipper Canteen","meta":{"latitude":28.418491,"singleRider":false,"type":"RESTAURANT","longitude":-81.582592}},{"id":"WaltDisneyWorldMagicKingdom_18498503","waitTime":null,"status":"Closed","active":false,"lastUpdate":"2020-09-15T11:33:17.494Z","fastPass":false,"meta":{"singleRider":false,"longitude":-81.58094,"latitude":28.420012},"name":"Meet Cinderella and Elena at Princess Fairytale Hall - Temporarily Unavailable"},{"id":"WaltDisneyWorldMagicKingdom_2219610","waitTime":null,"status":"Refurbishment","active":false,"lastUpdate":"2021-01-03T21:23:08.615Z","fastPass":false,"meta":{"type":"ATTRACTION","latitude":28.41969,"longitude":-81.585078,"singleRider":false},"name":"Walt Disney World Railroad - Frontierland - Temporarily Unavailable"},{"id":"WaltDisneyWorldMagicKingdom_387133","waitTime":null,"status":"Closed","active":false,"lastUpdate":"2020-09-15T11:33:17.492Z","fastPass":false,"meta":{"longitude":-81.578932,"singleRider":false,"latitude":28.421282},"name":"Meet Daring Disney Pals as Circus Stars at Pete's Silly Side Show - Temporarily Unavailable"},{"id":"WaltDisneyWorldMagicKingdom_80010107","waitTime":null,"status":"Closed","active":false,"lastUpdate":"2021-01-28T00:00:32.085Z","name":"Astro Orbiter","fastPass":false,"meta":{"longitude":-81.5789887902,"latitude":28.4184926179,"singleRider":false,"type":"ATTRACTION"}},{"id":"WaltDisneyWorldMagicKingdom_80010110","waitTime":null,"status":"Closed","active":false,"lastUpdate":"2021-01-28T00:00:32.562Z","name":"Big Thunder Mountain Railroad","meta":{"unsuitableForPregnantPeople":true,"type":"ATTRACTION","singleRider":false,"longitude":-81.5846422864,"latitude":28.4199638504},"fastPass":false},{"id":"WaltDisneyWorldMagicKingdom_80010114","waitTime":null,"status":"Closed","active":false,"lastUpdate":"2021-01-28T00:00:33.053Z","name":"Buzz Lightyear's Space Ranger Spin","fastPass":false,"meta":{"longitude":-81.5794086456,"singleRider":false,"type":"ATTRACTION","latitude":28.4182868839}},{"id":"WaltDisneyWorldMagicKingdom_80010117","waitTime":null,"status":"Closed","active":false,"lastUpdate":"2021-01-28T00:00:26.661Z","meta":{"latitude":28.420169,"singleRider":false,"type":"ATTRACTION","longitude":-81.581255},"fastPass":false,"name":"Prince Charming Regal Carrousel"},{"id":"WaltDisneyWorldMagicKingdom_80010129","waitTime":null,"status":"Closed","active":false,"lastUpdate":"2021-01-28T00:00:33.606Z","name":"Dumbo the Flying Elephant","fastPass":false,"meta":{"longitude":-81.5789473057,"type":"ATTRACTION","singleRider":false,"latitude":28.420509033}},{"id":"WaltDisneyWorldMagicKingdom_80010149","waitTime":null,"status":"Closed","active":false,"lastUpdate":"2021-01-28T00:00:34.045Z","name":"\"it's a small world\"","fastPass":false,"meta":{"singleRider":false,"latitude":28.4204816402,"longitude":-81.5820392026,"type":"ATTRACTION"}},{"id":"WaltDisneyWorldMagicKingdom_80010153","waitTime":null,"status":"Closed","active":false,"lastUpdate":"2021-01-28T00:00:20.893Z","fastPass":false,"meta":{"type":"ATTRACTION","singleRider":false,"longitude":-81.5834393157,"latitude":28.41797818},"name":"Jungle Cruise"},{"id":"WaltDisneyWorldMagicKingdom_80010160","waitTime":null,"status":"Refurbishment","active":false,"lastUpdate":"2021-01-03T21:23:48.006Z","name":"Liberty Square Riverboat","meta":{"longitude":-81.5827982677,"singleRider":false,"type":"ATTRACTION","latitude":28.4195563399},"fastPass":false},{"id":"WaltDisneyWorldMagicKingdom_80010162","waitTime":null,"status":"Closed","active":false,"lastUpdate":"2021-01-28T00:00:22.317Z","name":"Mad Tea Party","fastPass":false,"meta":{"type":"ATTRACTION","singleRider":false,"latitude":28.4200230397,"longitude":-81.5798248916}},{"id":"WaltDisneyWorldMagicKingdom_80010165","waitTime":null,"status":"Closed","active":false,"lastUpdate":"2021-01-03T21:24:20.300Z","name":"Main Street Vehicles - Temporarily Unavailable","fastPass":false,"meta":{"longitude":-81.5815081252,"type":"ATTRACTION","singleRider":false,"latitude":28.4168698711}},{"id":"WaltDisneyWorldMagicKingdom_80010170","waitTime":null,"status":"Closed","active":false,"lastUpdate":"2021-01-28T00:00:21.761Z","fastPass":false,"name":"Mickey's PhilharMagic","meta":{"longitude":-81.5814839853,"singleRider":false,"type":"ATTRACTION","latitude":28.4200304909}},{"id":"WaltDisneyWorldMagicKingdom_80010176","waitTime":null,"status":"Closed","active":false,"lastUpdate":"2021-01-28T00:00:22.819Z","fastPass":false,"meta":{"latitude":28.4202640272,"longitude":-81.5818916811,"singleRider":false,"type":"ATTRACTION"},"name":"Peter Pan's Flight"},{"id":"WaltDisneyWorldMagicKingdom_80010177","waitTime":null,"status":"Closed","active":false,"lastUpdate":"2021-01-28T00:00:34.483Z","meta":{"singleRider":false,"longitude":-81.5842252,"latitude":28.41796992,"type":"ATTRACTION"},"name":"Pirates of the Caribbean","fastPass":false},{"id":"WaltDisneyWorldMagicKingdom_80010190","waitTime":null,"status":"Closed","active":false,"lastUpdate":"2021-01-28T00:00:23.855Z","name":"Space Mountain","fastPass":false,"meta":{"singleRider":false,"type":"ATTRACTION","longitude":-81.5781962872,"unsuitableForPregnantPeople":true,"latitude":28.4188341691}},{"id":"WaltDisneyWorldMagicKingdom_80010192","waitTime":null,"status":"Closed","active":false,"lastUpdate":"2021-01-28T00:00:24.344Z","meta":{"longitude":-81.58498,"singleRider":false,"type":"ATTRACTION","latitude":28.419418,"unsuitableForPregnantPeople":true},"fastPass":false,"name":"Splash Mountain"},{"id":"WaltDisneyWorldMagicKingdom_80010196","waitTime":null,"status":"Closed","active":false,"lastUpdate":"2021-01-28T00:00:25.303Z","meta":{"longitude":-81.5827982677,"singleRider":false,"type":"ATTRACTION","latitude":28.4184325517},"name":"Swiss Family Treehouse","fastPass":false},{"id":"WaltDisneyWorldMagicKingdom_80010208","waitTime":null,"status":"Closed","active":false,"lastUpdate":"2021-01-28T00:00:34.921Z","meta":{"latitude":28.4202,"singleRider":false,"longitude":-81.58288,"type":"ATTRACTION"},"fastPass":false,"name":"Haunted Mansion"},{"id":"WaltDisneyWorldMagicKingdom_80010210","waitTime":null,"status":"Closed","active":false,"lastUpdate":"2021-01-28T00:00:25.741Z","meta":{"latitude":28.41843,"longitude":-81.583472,"singleRider":false,"type":"ATTRACTION"},"fastPass":false,"name":"The Magic Carpets of Aladdin"},{"id":"WaltDisneyWorldMagicKingdom_80010213","waitTime":null,"status":"Closed","active":false,"lastUpdate":"2021-01-28T00:00:26.218Z","meta":{"type":"ATTRACTION","singleRider":false,"latitude":28.420212,"longitude":-81.580266},"fastPass":false,"name":"The Many Adventures of Winnie the Pooh"},{"id":"WaltDisneyWorldMagicKingdom_80010220","waitTime":null,"status":"Refurbishment","active":false,"lastUpdate":"2021-01-03T21:24:19.374Z","name":"Tom Sawyer Island","meta":{"longitude":-81.58428,"latitude":28.419503,"type":"ATTRACTION","singleRider":false},"fastPass":false},{"id":"WaltDisneyWorldMagicKingdom_80010222","waitTime":null,"status":"Closed","active":false,"lastUpdate":"2021-01-28T00:00:35.827Z","meta":{"unsuitableForPregnantPeople":true,"type":"ATTRACTION","longitude":-81.579302,"singleRider":false,"latitude":28.419368},"name":"Tomorrowland Speedway","fastPass":false},{"id":"WaltDisneyWorldMagicKingdom_80010224","waitTime":null,"status":"Refurbishment","active":false,"lastUpdate":"2021-01-03T21:24:19.826Z","fastPass":false,"meta":{"longitude":-81.579033,"type":"ATTRACTION","singleRider":false,"latitude":28.418155},"name":"Tomorrowland Transit Authority PeopleMover - Temporarily Unavailable"},{"id":"WaltDisneyWorldMagicKingdom_80010230","waitTime":null,"status":"Refurbishment","active":false,"lastUpdate":"2021-01-03T21:23:09.088Z","name":"Walt Disney World Railroad - Main Street, U.S.A. - Temporarily Unavailable","fastPass":false,"meta":{"longitude":-81.581204,"type":"ATTRACTION","latitude":28.416543,"singleRider":false}},{"id":"WaltDisneyWorldMagicKingdom_80010232","waitTime":null,"status":"Closed","active":false,"lastUpdate":"2021-01-27T23:00:13.130Z","name":"Walt Disney's Carousel of Progress","meta":{"longitude":-81.5790083064,"latitude":28.4180310951,"type":"ATTRACTION","singleRider":false},"fastPass":false},{"id":"WaltDisneyWorldMagicKingdom_80069748","waitTime":null,"status":"Closed","active":false,"lastUpdate":"2021-01-28T00:00:36.263Z","fastPass":false,"meta":{"singleRider":false,"latitude":28.4187861348,"longitude":-81.5837222887,"type":"ATTRACTION"},"name":"Country Bear Jamboree"},{"id":"WaltDisneyWorldMagicKingdom_80069754","waitTime":null,"status":"Refurbishment","active":false,"lastUpdate":"2021-01-21T05:00:35.597Z","meta":{"singleRider":false,"longitude":-81.5823248578,"latitude":28.4194484171,"type":"ATTRACTION"},"fastPass":false,"name":"The Hall of Presidents"},{"id":"WaltDisneyWorldMagicKingdom_90001815","waitTime":null,"status":"Refurbishment","active":false,"lastUpdate":"2021-01-11T05:03:18.974Z","fastPass":false,"meta":{"latitude":28.4195299,"singleRider":false,"longitude":-81.5825378,"type":"RESTAURANT"},"name":"Liberty Square Market - Temporarily Unavailable"},{"id":"WaltDisneyWorldMagicKingdom_90001819","waitTime":null,"status":"Operating","active":true,"lastUpdate":"2021-01-27T23:39:56.764Z","fastPass":false,"name":"Liberty Tree Tavern","meta":{"type":"RESTAURANT","singleRider":false,"longitude":-81.5826159743,"latitude":28.4191196055}},{"id":"WaltDisneyWorldMagicKingdom_90002464","waitTime":null,"status":"Operating","active":true,"lastUpdate":"2021-01-27T20:38:22.309Z","name":"Cinderella's Royal Table","fastPass":false,"meta":{"latitude":28.4195,"longitude":-81.581101,"singleRider":false,"type":"RESTAURANT"}},{"id":"WaltDisneyWorldMagicKingdom_90002660","waitTime":null,"status":"Operating","active":true,"lastUpdate":"2021-01-27T23:56:21.227Z","fastPass":false,"meta":{"type":"RESTAURANT","longitude":-81.5818970259,"singleRider":false,"latitude":28.4181214892},"name":"The Crystal Palace"},{"id":"WaltDisneyWorldMagicKingdom_90002670","waitTime":null,"status":"Operating","active":true,"lastUpdate":"2021-01-27T23:49:33.436Z","meta":{"singleRider":false,"longitude":-81.5809394969,"type":"RESTAURANT","latitude":28.4180247703},"fastPass":false,"name":"The Plaza Restaurant"},{"id":"WaltDisneyWorldMagicKingdom_90002678","waitTime":null,"status":"Operating","active":true,"lastUpdate":"2021-01-27T21:27:01.265Z","name":"Tony's Town Square Restaurant","fastPass":false,"meta":{"singleRider":false,"latitude":28.4169323426,"longitude":-81.5807276023,"type":"RESTAURANT"}},{"id":"WaltDisneyWorldEpcot_107785","waitTime":10,"status":"Operating","active":true,"lastUpdate":"2021-01-27T16:43:14.515Z","name":"The Seas with Nemo & Friends","fastPass":false,"meta":{"latitude":28.374904,"longitude":-81.550852,"type":"ATTRACTION","singleRider":false}},{"id":"WaltDisneyWorldEpcot_15525573","waitTime":5,"status":"Operating","active":true,"lastUpdate":"2021-01-27T23:49:12.374Z","name":"La Hacienda de San Angel","meta":{"singleRider":false,"type":"RESTAURANT","latitude":28.371221,"longitude":-81.547532},"fastPass":false},{"id":"WaltDisneyWorldEpcot_17564219","waitTime":null,"status":"Closed","active":false,"lastUpdate":"2020-09-15T11:33:07.103Z","name":"Meet Anna and Elsa at Royal Sommerhus - Temporarily Unavailable","meta":{"singleRider":false,"longitude":-81.547134,"latitude":28.37097},"fastPass":false},{"id":"WaltDisneyWorldEpcot_17720675","waitTime":5,"status":"Operating","active":true,"lastUpdate":"2021-01-27T19:36:09.715Z","name":"Spice Road Table","meta":{"latitude":28.368468,"longitude":-81.551645,"type":"RESTAURANT","singleRider":false},"fastPass":false},{"id":"WaltDisneyWorldEpcot_18269694","waitTime":null,"status":"Operating","active":true,"lastUpdate":"2021-01-27T16:03:07.688Z","fastPass":false,"meta":{"latitude":28.37263,"type":"ATTRACTION","longitude":-81.55115,"singleRider":false},"name":"Disney and Pixar Short Film Festival"},{"id":"WaltDisneyWorldEpcot_18375495","waitTime":15,"status":"Operating","active":true,"lastUpdate":"2021-01-27T23:15:11.561Z","meta":{"singleRider":false,"latitude":28.370745,"longitude":-81.54653,"type":"ATTRACTION"},"name":"Frozen Ever After","fastPass":false},{"id":"WaltDisneyWorldEpcot_19463785","waitTime":null,"status":"Closed","active":false,"lastUpdate":"2021-01-27T23:00:14.357Z","fastPass":false,"name":"Beauty and the Beast Sing-Along","meta":{"type":"ATTRACTION","longitude":-81.552978,"latitude":28.368864,"singleRider":false}},{"id":"WaltDisneyWorldEpcot_19473173","waitTime":null,"status":"Operating","active":true,"lastUpdate":"2021-01-27T16:03:10.606Z","name":"Awesome Planet","meta":{"singleRider":false,"longitude":-81.552138,"type":"ATTRACTION","latitude":28.374301},"fastPass":false},{"id":"WaltDisneyWorldEpcot_20194","waitTime":15,"status":"Operating","active":true,"lastUpdate":"2021-01-27T23:59:17.698Z","fastPass":false,"name":"Soarin' Around the World","meta":{"singleRider":false,"type":"ATTRACTION","longitude":-81.552248,"latitude":28.373592}},{"id":"WaltDisneyWorldEpcot_207395","waitTime":15,"status":"Operating","active":true,"lastUpdate":"2021-01-27T21:42:11.285Z","name":"Gran Fiesta Tour Starring The Three Caballeros","meta":{"singleRider":false,"longitude":-81.547368,"type":"ATTRACTION","latitude":28.371649},"fastPass":false},{"id":"WaltDisneyWorldEpcot_62992","waitTime":null,"status":"Closed","active":false,"lastUpdate":"2021-01-03T21:23:09.564Z","name":"Turtle Talk With Crush - Temporarily Unavailable","meta":{"longitude":-81.551047,"type":"ATTRACTION","singleRider":false,"latitude":28.375255},"fastPass":false},{"id":"WaltDisneyWorldEpcot_80010145","waitTime":null,"status":"Operating","active":true,"lastUpdate":"2021-01-27T23:30:11.108Z","name":"Impressions de France","fastPass":false,"meta":{"longitude":-81.552978,"type":"ATTRACTION","latitude":28.368864,"singleRider":false}},{"id":"WaltDisneyWorldEpcot_80010152","waitTime":5,"status":"Operating","active":true,"lastUpdate":"2021-01-27T22:58:19.632Z","fastPass":false,"name":"Journey Into Imagination With Figment","meta":{"type":"ATTRACTION","singleRider":false,"latitude":28.372994,"longitude":-81.551401}},{"id":"WaltDisneyWorldEpcot_80010161","waitTime":5,"status":"Operating","active":true,"lastUpdate":"2021-01-27T16:00:16.000Z","meta":{"type":"ATTRACTION","latitude":28.374245,"singleRider":false,"longitude":-81.552301},"name":"Living with the Land","fastPass":false},{"id":"WaltDisneyWorldEpcot_80010173","waitTime":40,"status":"Operating","active":true,"lastUpdate":"2021-01-27T23:21:16.599Z","meta":{"latitude":28.373927,"longitude":-81.547156,"unsuitableForPregnantPeople":true,"type":"ATTRACTION","singleRider":false},"name":"Mission: SPACE","fastPass":false},{"id":"WaltDisneyWorldEpcot_80010174","waitTime":null,"status":"Operating","active":true,"lastUpdate":"2021-01-27T16:03:13.839Z","name":"Canada Far and Wide in Circle-Vision 360","meta":{"latitude":28.371694,"singleRider":false,"type":"ATTRACTION","longitude":-81.55196},"fastPass":false},{"id":"WaltDisneyWorldEpcot_80010180","waitTime":null,"status":"Operating","active":true,"lastUpdate":"2021-01-27T16:03:09.442Z","name":"Reflections of China","meta":{"singleRider":false,"latitude":28.369791,"longitude":-81.546381,"type":"ATTRACTION"},"fastPass":false},{"id":"WaltDisneyWorldEpcot_80010191","waitTime":5,"status":"Operating","active":true,"lastUpdate":"2021-01-27T21:20:18.809Z","name":"Spaceship Earth","fastPass":false,"meta":{"latitude":28.375583,"longitude":-81.549401,"type":"ATTRACTION","singleRider":false}},{"id":"WaltDisneyWorldEpcot_80010199","waitTime":null,"status":"Down","active":false,"lastUpdate":"2021-01-27T21:20:19.970Z","name":"Test Track","meta":{"longitude":-81.547489,"unsuitableForPregnantPeople":true,"type":"ATTRACTION","singleRider":true,"latitude":28.373228},"fastPass":false},{"id":"WaltDisneyWorldEpcot_80010200","waitTime":null,"status":"Operating","active":true,"lastUpdate":"2021-01-27T16:03:10.023Z","fastPass":false,"name":"The American Adventure","meta":{"latitude":28.367517,"singleRider":false,"type":"ATTRACTION","longitude":-81.549446}},{"id":"WaltDisneyWorldEpcot_90001292","waitTime":55,"status":"Operating","active":true,"lastUpdate":"2021-01-28T00:00:38.918Z","meta":{"type":"RESTAURANT","longitude":-81.546819,"singleRider":false,"latitude":28.368153},"name":"Biergarten Restaurant","fastPass":false},{"id":"WaltDisneyWorldEpcot_90001416","waitTime":null,"status":"Operating","active":true,"lastUpdate":"2021-01-27T23:57:12.272Z","meta":{"type":"RESTAURANT","longitude":-81.550458,"singleRider":false,"latitude":28.375096},"name":"Coral Reef Restaurant","fastPass":false},{"id":"WaltDisneyWorldEpcot_90001798","waitTime":45,"status":"Operating","active":true,"lastUpdate":"2021-01-28T00:01:57.613Z","name":"Le Cellier Steakhouse","meta":{"longitude":-81.551512,"singleRider":false,"type":"RESTAURANT","latitude":28.371657},"fastPass":false},{"id":"WaltDisneyWorldEpcot_90002084","waitTime":50,"status":"Operating","active":true,"lastUpdate":"2021-01-28T00:01:34.861Z","fastPass":false,"meta":{"type":"RESTAURANT","longitude":-81.551684,"singleRider":false,"latitude":28.370508},"name":"Rose & Crown Dining Room"},{"id":"WaltDisneyWorldEpcot_90002100","waitTime":null,"status":"Operating","active":true,"lastUpdate":"2021-01-27T21:04:19.213Z","name":"San Angel Inn Restaurante    ","fastPass":false,"meta":{"singleRider":false,"longitude":-81.547258,"latitude":28.371612,"type":"RESTAURANT"}},{"id":"WaltDisneyWorldEpcot_90002237","waitTime":40,"status":"Operating","active":true,"lastUpdate":"2021-01-27T23:58:48.794Z","fastPass":false,"meta":{"longitude":-81.552324,"latitude":28.374039,"singleRider":false,"type":"RESTAURANT"},"name":"Garden Grill Restaurant"},{"id":"WaltDisneyWorldHollywoodStudios_136","waitTime":null,"status":"Closed","active":false,"lastUpdate":"2020-09-15T11:33:12.086Z","name":"Indiana Jones™ Epic Stunt Spectacular! - Temporarily Unavailable","meta":{"singleRider":false,"longitude":-81.5586114479,"latitude":28.3566700675},"fastPass":false},{"id":"WaltDisneyWorldHollywoodStudios_17842841","waitTime":null,"status":"Closed","active":false,"lastUpdate":"2020-09-15T11:33:12.046Z","fastPass":false,"name":"For the First Time in Forever: A Frozen Sing-Along Celebration - Temporarily Unavailable","meta":{"longitude":-81.5596944094,"latitude":28.3568243464,"singleRider":false}},{"id":"WaltDisneyWorldHollywoodStudios_18189394","waitTime":null,"status":"Closed","active":false,"lastUpdate":"2020-09-15T11:33:12.077Z","fastPass":false,"meta":{"singleRider":false,"latitude":28.35796,"longitude":-81.560938},"name":"Star Wars Launch Bay: Meet Chewbacca - Temporarily Unavailable"},{"id":"WaltDisneyWorldHollywoodStudios_18189398","waitTime":null,"status":"Closed","active":false,"lastUpdate":"2020-09-15T11:33:12.069Z","fastPass":false,"name":"Star Wars Launch Bay: Encounter Darth Vader - Temporarily Unavailable","meta":{"singleRider":false,"latitude":28.35796,"longitude":-81.560938}},{"id":"WaltDisneyWorldHollywoodStudios_18360041","waitTime":null,"status":"Closed","active":false,"lastUpdate":"2021-01-03T21:23:31.878Z","name":"Star Wars Launch Bay Theater - Temporarily Unavailable","meta":{"singleRider":false,"latitude":28.357821,"longitude":-81.561061,"type":"ATTRACTION"},"fastPass":false},{"id":"WaltDisneyWorldHollywoodStudios_18368385","waitTime":null,"status":"Closed","active":false,"lastUpdate":"2020-09-15T11:33:12.104Z","name":"Celebrity Spotlight - Temporarily Unavailable","meta":{"longitude":-81.559158,"singleRider":false,"latitude":28.356072},"fastPass":false},{"id":"WaltDisneyWorldHollywoodStudios_18368386","waitTime":null,"status":"Closed","active":false,"lastUpdate":"2020-09-15T11:33:12.095Z","name":"Mickey and Minnie Starring in Red Carpet Dreams - Temporarily Unavailable","fastPass":false,"meta":{"longitude":-81.559479,"singleRider":false,"latitude":28.356068}},{"id":"WaltDisneyWorldHollywoodStudios_18669338","waitTime":null,"status":"Closed","active":false,"lastUpdate":"2020-09-15T11:33:12.121Z","name":"BB-8 Astromech on Duty - Temporarily Unavailable","meta":{"longitude":-81.560938,"latitude":28.35796,"singleRider":false},"fastPass":false},{"id":"WaltDisneyWorldHollywoodStudios_18770880","waitTime":null,"status":"Closed","active":false,"lastUpdate":"2021-01-27T23:00:13.750Z","fastPass":false,"meta":{"type":"ATTRACTION","singleRider":false,"latitude":28.35686,"longitude":-81.560982},"name":"Walt Disney Presents"},{"id":"WaltDisneyWorldHollywoodStudios_18904138","waitTime":null,"status":"Closed","active":false,"lastUpdate":"2021-01-28T00:00:30.035Z","name":"Slinky Dog Dash","fastPass":false,"meta":{"singleRider":false,"unsuitableForPregnantPeople":true,"latitude":28.356245,"type":"ATTRACTION","longitude":-81.562786}},{"id":"WaltDisneyWorldHollywoodStudios_18904172","waitTime":null,"status":"Closed","active":false,"lastUpdate":"2021-01-28T00:00:30.537Z","meta":{"singleRider":false,"latitude":28.355385,"longitude":-81.562379,"type":"ATTRACTION"},"name":"Alien Swirling Saucers","fastPass":false},{"id":"WaltDisneyWorldHollywoodStudios_19025682","waitTime":null,"status":"Operating","active":true,"lastUpdate":"2020-09-15T14:02:51.117Z","meta":{"singleRider":false,"longitude":-81.559787,"latitude":28.355234},"name":"Star Wars: Galaxy's Edge","fastPass":false},{"id":"WaltDisneyWorldHollywoodStudios_19152250","waitTime":null,"status":"Closed","active":false,"lastUpdate":"2020-09-15T11:33:12.147Z","name":"Meet Sulley at Walt Disney Presents - Temporarily Unavailable","fastPass":false,"meta":{"singleRider":false,"longitude":-81.560984,"latitude":28.356865}},{"id":"WaltDisneyWorldHollywoodStudios_19259335","waitTime":null,"status":"Closed","active":false,"lastUpdate":"2021-01-28T00:00:31.026Z","meta":{"type":"ATTRACTION","latitude":28.3566783801,"longitude":-81.5605667783,"singleRider":false},"name":"Mickey & Minnie's Runaway Railway","fastPass":false},{"id":"WaltDisneyWorldHollywoodStudios_19263735","waitTime":null,"status":"Closed","active":false,"lastUpdate":"2021-01-28T00:00:20.219Z","name":"Millennium Falcon: Smugglers Run","meta":{"latitude":28.353889,"unsuitableForPregnantPeople":true,"singleRider":true,"type":"ATTRACTION","longitude":-81.561689},"fastPass":false},{"id":"WaltDisneyWorldHollywoodStudios_19263736","waitTime":null,"status":"Closed","active":false,"lastUpdate":"2021-01-28T00:00:19.606Z","fastPass":false,"name":"Star Wars: Rise of the Resistance","meta":{"unsuitableForPregnantPeople":true,"latitude":28.354884,"type":"ATTRACTION","longitude":-81.560457,"singleRider":false}},{"id":"WaltDisneyWorldHollywoodStudios_19267226","waitTime":null,"status":"Operating","active":true,"lastUpdate":"2021-01-26T04:24:55.320Z","fastPass":false,"name":"Oga's Cantina at the Walt Disney World Resort","meta":{"singleRider":false,"type":"RESTAURANT","longitude":-81.562075,"latitude":28.354095}},{"id":"WaltDisneyWorldHollywoodStudios_19276204","waitTime":null,"status":"Closed","active":false,"lastUpdate":"2021-01-27T23:00:11.314Z","meta":{"singleRider":false,"latitude":28.360035,"longitude":-81.560707,"type":"ATTRACTION"},"fastPass":false,"name":"Lightning McQueen's Racing Academy"},{"id":"WaltDisneyWorldHollywoodStudios_19497952","waitTime":null,"status":"Closed","active":false,"lastUpdate":"2021-01-27T23:00:14.907Z","name":"Vacation Fun - An Original Animated Short with Mickey & Minnie","meta":{"singleRider":false,"latitude":28.356316,"type":"ATTRACTION","longitude":-81.559031},"fastPass":false},{"id":"WaltDisneyWorldHollywoodStudios_19582977","waitTime":null,"status":"Closed","active":false,"lastUpdate":"2020-09-15T11:33:12.211Z","name":"Disney Society Orchestra and Friends","fastPass":false,"meta":{"longitude":-81.5595985008,"singleRider":false,"latitude":28.3589162565}},{"id":"WaltDisneyWorldHollywoodStudios_19583373","waitTime":null,"status":"Closed","active":false,"lastUpdate":"2020-09-15T11:33:12.219Z","fastPass":false,"name":"Disney Junior Play and Dance!","meta":{"longitude":-81.560567,"latitude":28.357613,"singleRider":false}},{"id":"WaltDisneyWorldHollywoodStudios_202731","waitTime":null,"status":"Closed","active":false,"lastUpdate":"2020-09-15T11:33:12.226Z","fastPass":false,"name":"Disney Junior Dance Party! - Temporarily Unavailable","meta":{"latitude":28.357613,"singleRider":false,"longitude":-81.560567}},{"id":"WaltDisneyWorldHollywoodStudios_209857","waitTime":null,"status":"Closed","active":false,"lastUpdate":"2021-01-28T00:00:31.532Z","name":"Toy Story Mania!","meta":{"longitude":-81.561894,"type":"ATTRACTION","singleRider":false,"latitude":28.356404},"fastPass":false},{"id":"WaltDisneyWorldHollywoodStudios_80010151","waitTime":null,"status":"Closed","active":false,"lastUpdate":"2021-01-27T23:00:15.905Z","fastPass":false,"meta":{"type":"ATTRACTION","singleRider":false,"longitude":-81.5594643904,"latitude":28.3550644708},"name":"Muppet*Vision 3D"},{"id":"WaltDisneyWorldHollywoodStudios_80010182","waitTime":null,"status":"Closed","active":false,"lastUpdate":"2021-01-28T00:00:23.311Z","name":"Rock 'n' Roller Coaster Starring Aerosmith","meta":{"latitude":28.359712,"longitude":-81.56059,"unsuitableForPregnantPeople":true,"type":"ATTRACTION","singleRider":true},"fastPass":false},{"id":"WaltDisneyWorldHollywoodStudios_80010193","waitTime":null,"status":"Closed","active":false,"lastUpdate":"2021-01-28T00:00:24.842Z","name":"Star Tours – The Adventures Continue","fastPass":false,"meta":{"longitude":-81.558891,"singleRider":false,"type":"ATTRACTION","latitude":28.355695,"unsuitableForPregnantPeople":true}},{"id":"WaltDisneyWorldHollywoodStudios_80010218","waitTime":null,"status":"Closed","active":false,"lastUpdate":"2021-01-28T00:00:35.365Z","name":"The Twilight Zone Tower of Terror™","meta":{"longitude":-81.559772,"latitude":28.359553,"singleRider":false,"type":"ATTRACTION","unsuitableForPregnantPeople":true},"fastPass":false},{"id":"WaltDisneyWorldHollywoodStudios_80010848","waitTime":null,"status":"Closed","active":false,"lastUpdate":"2020-09-15T11:33:12.284Z","meta":{"latitude":28.3589162565,"longitude":-81.5595985008,"singleRider":false},"name":"Beauty and the Beast-Live on Stage - Temporarily Unavailable","fastPass":false},{"id":"WaltDisneyWorldHollywoodStudios_80010896","waitTime":null,"status":"Closed","active":false,"lastUpdate":"2020-09-15T11:33:12.290Z","name":"Voyage of The Little Mermaid - Temporarily Unavailable","fastPass":false,"meta":{"longitude":-81.5608484102,"latitude":28.3574862147,"singleRider":false}},{"id":"WaltDisneyWorldHollywoodStudios_90001216","waitTime":null,"status":"Operating","active":true,"lastUpdate":"2021-01-27T16:37:33.771Z","name":"50's Prime Time Café","fastPass":false,"meta":{"longitude":-81.558881,"type":"RESTAURANT","singleRider":false,"latitude":28.357444}},{"id":"WaltDisneyWorldHollywoodStudios_90001744","waitTime":null,"status":"Operating","active":true,"lastUpdate":"2021-01-26T04:24:48.725Z","name":"Hollywood & Vine","meta":{"type":"RESTAURANT","longitude":-81.558975,"singleRider":false,"latitude":28.357611},"fastPass":false},{"id":"WaltDisneyWorldHollywoodStudios_90001865","waitTime":null,"status":"Operating","active":true,"lastUpdate":"2021-01-27T23:49:54.863Z","fastPass":false,"name":"Mama Melrose's Ristorante Italiano","meta":{"longitude":-81.559012,"singleRider":false,"type":"RESTAURANT","latitude":28.354532}},{"id":"WaltDisneyWorldHollywoodStudios_90002114","waitTime":null,"status":"Operating","active":true,"lastUpdate":"2021-01-27T20:00:33.859Z","name":"Sci-Fi Dine-In Theater Restaurant","fastPass":false,"meta":{"singleRider":false,"longitude":-81.559495,"type":"RESTAURANT","latitude":28.3559}},{"id":"WaltDisneyWorldHollywoodStudios_90002245","waitTime":null,"status":"Operating","active":true,"lastUpdate":"2021-01-27T23:54:05.776Z","name":"The Hollywood Brown Derby","fastPass":false,"meta":{"latitude":28.357648,"longitude":-81.560297,"type":"RESTAURANT","singleRider":false}},{"id":"WaltDisneyWorldAnimalKingdom_17421326","waitTime":null,"status":"Closed","active":false,"lastUpdate":"2020-09-15T11:33:02.632Z","fastPass":false,"name":"Meet Favorite Disney Pals at Adventurers Outpost - Temporarily Unavailable","meta":{"singleRider":false,"longitude":-81.589796,"latitude":28.357972}},{"id":"WaltDisneyWorldAnimalKingdom_18069632","waitTime":null,"status":"Operating","active":true,"lastUpdate":"2021-01-27T21:55:23.378Z","name":"Tiffins Restaurant","fastPass":false,"meta":{"singleRider":false,"latitude":28.356846,"type":"RESTAURANT","longitude":-81.591487}},{"id":"WaltDisneyWorldAnimalKingdom_18377778","waitTime":null,"status":"Operating","active":true,"lastUpdate":"2021-01-27T22:09:38.450Z","name":"Nomad Lounge","fastPass":false,"meta":{"longitude":-81.591487,"singleRider":false,"type":"RESTAURANT","latitude":28.356719}},{"id":"WaltDisneyWorldAnimalKingdom_18665185","waitTime":null,"status":"Closed","active":false,"lastUpdate":"2021-01-27T22:00:15.109Z","name":"Na'vi River Journey","meta":{"longitude":-81.591641,"type":"ATTRACTION","singleRider":false,"latitude":28.355257},"fastPass":false},{"id":"WaltDisneyWorldAnimalKingdom_18665186","waitTime":null,"status":"Closed","active":false,"lastUpdate":"2021-01-27T22:00:18.089Z","fastPass":false,"name":"Avatar Flight of Passage","meta":{"singleRider":false,"unsuitableForPregnantPeople":true,"latitude":28.355554,"longitude":-81.592147,"type":"ATTRACTION"}},{"id":"WaltDisneyWorldAnimalKingdom_19330300","waitTime":null,"status":"Closed","active":false,"lastUpdate":"2021-01-03T21:23:41.561Z","fastPass":false,"meta":{"longitude":-81.588669,"singleRider":false,"type":"ATTRACTION","latitude":28.365188},"name":"The Animation Experience at Conservation Station"},{"id":"WaltDisneyWorldAnimalKingdom_26068","waitTime":null,"status":"Closed","active":false,"lastUpdate":"2021-01-27T22:00:15.695Z","meta":{"longitude":-81.5873781396,"singleRider":false,"type":"ATTRACTION","latitude":28.3584769119,"unsuitableForPregnantPeople":true},"name":"Expedition Everest - Legend of the Forbidden Mountain","fastPass":false},{"id":"WaltDisneyWorldAnimalKingdom_80010123","waitTime":null,"status":"Closed","active":false,"lastUpdate":"2021-01-27T22:00:16.915Z","name":"DINOSAUR","meta":{"type":"ATTRACTION","latitude":28.355307,"longitude":-81.588444,"unsuitableForPregnantPeople":true,"singleRider":false},"fastPass":false},{"id":"WaltDisneyWorldAnimalKingdom_80010150","waitTime":null,"status":"Closed","active":false,"lastUpdate":"2021-01-27T22:00:14.001Z","meta":{"longitude":-81.590118,"singleRider":false,"latitude":28.357488,"type":"ATTRACTION"},"fastPass":false,"name":"It's Tough to be a Bug!"},{"id":"WaltDisneyWorldAnimalKingdom_80010154","waitTime":null,"status":"Refurbishment","active":false,"lastUpdate":"2021-01-04T05:02:16.994Z","name":"Kali River Rapids","fastPass":false,"meta":{"latitude":28.3587834288,"singleRider":false,"longitude":-81.5889412165,"unsuitableForPregnantPeople":true,"type":"ATTRACTION"}},{"id":"WaltDisneyWorldAnimalKingdom_80010157","waitTime":null,"status":"Closed","active":false,"lastUpdate":"2021-01-27T22:00:16.240Z","name":"Kilimanjaro Safaris","meta":{"longitude":-81.59228,"unsuitableForPregnantPeople":true,"type":"ATTRACTION","singleRider":false,"latitude":28.359331},"fastPass":false},{"id":"WaltDisneyWorldAnimalKingdom_80010164","waitTime":null,"status":"Closed","active":false,"lastUpdate":"2021-01-27T22:00:18.682Z","name":"Maharajah Jungle Trek","fastPass":false,"meta":{"latitude":28.359379,"singleRider":false,"type":"ATTRACTION","longitude":-81.589019}},{"id":"WaltDisneyWorldAnimalKingdom_80010175","waitTime":null,"status":"Closed","active":false,"lastUpdate":"2021-01-27T21:30:16.069Z","name":"Gorilla Falls Exploration Trail","fastPass":false,"meta":{"longitude":-81.592149,"type":"ATTRACTION","latitude":28.359954,"singleRider":false}},{"id":"WaltDisneyWorldAnimalKingdom_80010203","waitTime":null,"status":"Closed","active":false,"lastUpdate":"2021-01-03T21:23:41.107Z","meta":{"longitude":-81.5884791864,"latitude":28.3566787564,"type":"ATTRACTION","singleRider":false},"fastPass":false,"name":"The Boneyard - Temporarily Unavailable"},{"id":"WaltDisneyWorldAnimalKingdom_80010228","waitTime":null,"status":"Closed","active":false,"lastUpdate":"2021-01-27T22:00:17.495Z","meta":{"singleRider":false,"latitude":28.356503,"longitude":-81.588074,"type":"ATTRACTION"},"name":"TriceraTop Spin","fastPass":false},{"id":"WaltDisneyWorldAnimalKingdom_80010235","waitTime":null,"status":"Closed","active":false,"lastUpdate":"2021-01-27T21:30:14.179Z","name":"Wildlife Express Train","meta":{"longitude":-81.5914175464,"type":"ATTRACTION","singleRider":false,"latitude":28.3598097347},"fastPass":false}]