[{"id":"WaltDisneyWorldMagicKingdom_136550","waitTime":null,"status":"Closed","active":false,"lastUpdate":"2021-01-03T21:24:21.706Z","fastPass":false,"meta":{"singleRider":false,"latitude":28.4183977566,"type":"ATTRACTION","longitude":-81.5797358751},"name":"Monsters, Inc. Laugh Floor - Temporarily Unavailable"},{"id":"WaltDisneyWorldMagicKingdom_15743682","waitTime":null,"status":"Closed","active":false,"lastUpdate":"2020-09-15T11:33:17.406Z","meta":{"latitude":28.421282,"longitude":-81.578932,"singleRider":false},"fastPass":false,"name":"Meet Dashing Disney Pals as Circus Stars at Pete’s Silly Side Show - Temporarily Unavailable"},{"id":"WaltDisneyWorldMagicKingdom_15850196","waitTime":null,"status":"Closed","active":false,"lastUpdate":"2020-09-15T11:33:17.374Z","name":"Meet Mickey Mouse at Town Square Theater - Temporarily Unavailable","meta":{"singleRider":false,"longitude":-81.580746,"latitude":28.416727},"fastPass":false},{"id":"WaltDisneyWorldMagicKingdom_16124144","waitTime":null,"status":"Operating","active":true,"lastUpdate":"2021-01-31T14:00:34.948Z","fastPass":false,"name":"Walt Disney's Enchanted Tiki Room","meta":{"longitude":-81.583738382,"singleRider":false,"type":"ATTRACTION","latitude":28.4182264646}},{"id":"WaltDisneyWorldMagicKingdom_16414579","waitTime":null,"status":"Closed","active":false,"lastUpdate":"2021-01-24T23:00:36.558Z","meta":{"longitude":-81.58163,"singleRider":false,"type":"ATTRACTION","latitude":28.416944},"fastPass":false,"name":"Sorcerers of the Magic Kingdom"},{"id":"WaltDisneyWorldMagicKingdom_16491297","waitTime":5,"status":"Operating","active":true,"lastUpdate":"2021-01-31T23:57:23.611Z","name":"The Barnstormer","meta":{"unsuitableForPregnantPeople":true,"type":"ATTRACTION","singleRider":false,"longitude":-81.5783907473,"latitude":28.4207661576},"fastPass":false},{"id":"WaltDisneyWorldMagicKingdom_16491299","waitTime":null,"status":"Refurbishment","active":false,"lastUpdate":"2021-01-03T21:24:18.928Z","name":"Walt Disney World Railroad - Fantasyland - Temporarily Unavailable","meta":{"longitude":-81.578368,"singleRider":false,"type":"ATTRACTION","latitude":28.420934},"fastPass":false},{"id":"WaltDisneyWorldMagicKingdom_16660079","waitTime":null,"status":"Operating","active":true,"lastUpdate":"2021-02-01T00:05:26.745Z","name":"Be Our Guest Restaurant","meta":{"type":"RESTAURANT","singleRider":false,"latitude":28.4212491492,"longitude":-81.5807074858},"fastPass":false},{"id":"WaltDisneyWorldMagicKingdom_16767263","waitTime":5,"status":"Operating","active":true,"lastUpdate":"2021-01-31T22:15:22.947Z","name":"Under the Sea ~ Journey of The Little Mermaid","fastPass":false,"meta":{"longitude":-81.5799752427,"type":"ATTRACTION","latitude":28.4211203226,"singleRider":false}},{"id":"WaltDisneyWorldMagicKingdom_16767276","waitTime":null,"status":"Closed","active":false,"lastUpdate":"2021-01-03T21:24:20.764Z","meta":{"type":"ATTRACTION","longitude":-81.58093011,"singleRider":false,"latitude":28.42099058},"fastPass":false,"name":"Enchanted Tales with Belle - Temporarily Unavailable"},{"id":"WaltDisneyWorldMagicKingdom_16767284","waitTime":50,"status":"Operating","active":true,"lastUpdate":"2021-01-31T23:32:25.438Z","name":"Seven Dwarfs Mine Train","fastPass":false,"meta":{"singleRider":false,"unsuitableForPregnantPeople":true,"latitude":28.42037,"longitude":-81.58031,"type":"ATTRACTION"}},{"id":"WaltDisneyWorldMagicKingdom_16874126","waitTime":null,"status":"Closed","active":false,"lastUpdate":"2020-09-15T11:33:17.441Z","fastPass":false,"name":"Meet Ariel at Her Grotto - Temporarily Unavailable","meta":{"longitude":-81.579613144497,"singleRider":false,"latitude":28.420893275289}},{"id":"WaltDisneyWorldMagicKingdom_17272158","waitTime":null,"status":"Closed","active":false,"lastUpdate":"2021-01-03T21:24:21.210Z","fastPass":false,"meta":{"latitude":28.41837254,"singleRider":false,"type":"ATTRACTION","longitude":-81.58466913},"name":"A Pirate's Adventure ~ Treasures of the Seven Seas - Temporarily Unavailable"},{"id":"WaltDisneyWorldMagicKingdom_17505397","waitTime":null,"status":"Closed","active":false,"lastUpdate":"2020-09-15T11:33:17.486Z","name":"Meet Rapunzel and Tiana at Princess Fairytale Hall - Temporarily Unavailable","meta":{"singleRider":false,"longitude":-81.580917439677,"latitude":28.420045752669},"fastPass":false},{"id":"WaltDisneyWorldMagicKingdom_17752793","waitTime":null,"status":"Closed","active":false,"lastUpdate":"2020-09-15T11:33:17.444Z","meta":{"singleRider":false,"latitude":28.416727,"longitude":-81.580815},"name":"Meet Tinker Bell at Town Square Theater - Temporarily Unavailable","fastPass":false},{"id":"WaltDisneyWorldMagicKingdom_18185631","waitTime":null,"status":"Operating","active":true,"lastUpdate":"2021-01-31T23:02:37.634Z","name":"Jungle Navigation Co. LTD Skipper Canteen","fastPass":false,"meta":{"singleRider":false,"type":"RESTAURANT","latitude":28.418491,"longitude":-81.582592}},{"id":"WaltDisneyWorldMagicKingdom_18498503","waitTime":null,"status":"Closed","active":false,"lastUpdate":"2020-09-15T11:33:17.494Z","meta":{"latitude":28.420012,"longitude":-81.58094,"singleRider":false},"name":"Meet Cinderella and Elena at Princess Fairytale Hall - Temporarily Unavailable","fastPass":false},{"id":"WaltDisneyWorldMagicKingdom_2219610","waitTime":null,"status":"Refurbishment","active":false,"lastUpdate":"2021-01-03T21:23:08.615Z","meta":{"longitude":-81.585078,"latitude":28.41969,"type":"ATTRACTION","singleRider":false},"name":"Walt Disney World Railroad - Frontierland - Temporarily Unavailable","fastPass":false},{"id":"WaltDisneyWorldMagicKingdom_387133","waitTime":null,"status":"Closed","active":false,"lastUpdate":"2020-09-15T11:33:17.492Z","meta":{"singleRider":false,"latitude":28.421282,"longitude":-81.578932},"fastPass":false,"name":"Meet Daring Disney Pals as Circus Stars at Pete's Silly Side Show - Temporarily Unavailable"},{"id":"WaltDisneyWorldMagicKingdom_80010107","waitTime":30,"status":"Operating","active":true,"lastUpdate":"2021-01-31T22:12:40.915Z","meta":{"type":"ATTRACTION","singleRider":false,"latitude":28.4184926179,"longitude":-81.5789887902},"fastPass":false,"name":"Astro Orbiter"},{"id":"WaltDisneyWorldMagicKingdom_80010110","waitTime":45,"status":"Operating","active":true,"lastUpdate":"2021-02-01T00:02:20.866Z","fastPass":false,"name":"Big Thunder Mountain Railroad","meta":{"singleRider":false,"longitude":-81.5846422864,"type":"ATTRACTION","latitude":28.4199638504,"unsuitableForPregnantPeople":true}},{"id":"WaltDisneyWorldMagicKingdom_80010114","waitTime":5,"status":"Operating","active":true,"lastUpdate":"2021-01-31T23:44:22.743Z","name":"Buzz Lightyear's Space Ranger Spin","fastPass":false,"meta":{"longitude":-81.5794086456,"latitude":28.4182868839,"singleRider":false,"type":"ATTRACTION"}},{"id":"WaltDisneyWorldMagicKingdom_80010117","waitTime":20,"status":"Operating","active":true,"lastUpdate":"2021-01-31T22:15:36.294Z","fastPass":false,"name":"Prince Charming Regal Carrousel","meta":{"type":"ATTRACTION","longitude":-81.581255,"singleRider":false,"latitude":28.420169}},{"id":"WaltDisneyWorldMagicKingdom_80010129","waitTime":5,"status":"Operating","active":true,"lastUpdate":"2021-02-01T00:03:23.149Z","name":"Dumbo the Flying Elephant","meta":{"longitude":-81.5789473057,"type":"ATTRACTION","singleRider":false,"latitude":28.420509033},"fastPass":false},{"id":"WaltDisneyWorldMagicKingdom_80010149","waitTime":25,"status":"Operating","active":true,"lastUpdate":"2021-01-31T23:44:24.005Z","name":"\"it's a small world\"","fastPass":false,"meta":{"longitude":-81.5820392026,"latitude":28.4204816402,"singleRider":false,"type":"ATTRACTION"}},{"id":"WaltDisneyWorldMagicKingdom_80010153","waitTime":40,"status":"Operating","active":true,"lastUpdate":"2021-01-31T23:39:25.136Z","name":"Jungle Cruise","fastPass":false,"meta":{"type":"ATTRACTION","longitude":-81.5834393157,"latitude":28.41797818,"singleRider":false}},{"id":"WaltDisneyWorldMagicKingdom_80010160","waitTime":null,"status":"Refurbishment","active":false,"lastUpdate":"2021-01-03T21:23:48.006Z","meta":{"longitude":-81.5827982677,"singleRider":false,"latitude":28.4195563399,"type":"ATTRACTION"},"fastPass":false,"name":"Liberty Square Riverboat"},{"id":"WaltDisneyWorldMagicKingdom_80010162","waitTime":5,"status":"Operating","active":true,"lastUpdate":"2021-01-31T21:56:21.743Z","name":"Mad Tea Party","meta":{"longitude":-81.5798248916,"type":"ATTRACTION","singleRider":false,"latitude":28.4200230397},"fastPass":false},{"id":"WaltDisneyWorldMagicKingdom_80010165","waitTime":null,"status":"Closed","active":false,"lastUpdate":"2021-01-03T21:24:20.300Z","name":"Main Street Vehicles - Temporarily Unavailable","meta":{"singleRider":false,"type":"ATTRACTION","longitude":-81.5815081252,"latitude":28.4168698711},"fastPass":false},{"id":"WaltDisneyWorldMagicKingdom_80010170","waitTime":15,"status":"Operating","active":true,"lastUpdate":"2021-01-31T22:57:23.066Z","meta":{"singleRider":false,"type":"ATTRACTION","latitude":28.4200304909,"longitude":-81.5814839853},"name":"Mickey's PhilharMagic","fastPass":false},{"id":"WaltDisneyWorldMagicKingdom_80010176","waitTime":25,"status":"Operating","active":true,"lastUpdate":"2021-01-31T23:44:23.334Z","name":"Peter Pan's Flight","meta":{"type":"ATTRACTION","longitude":-81.5818916811,"singleRider":false,"latitude":28.4202640272},"fastPass":false},{"id":"WaltDisneyWorldMagicKingdom_80010177","waitTime":25,"status":"Operating","active":true,"lastUpdate":"2021-02-01T00:03:25.754Z","name":"Pirates of the Caribbean","meta":{"longitude":-81.5842252,"type":"ATTRACTION","latitude":28.41796992,"singleRider":false},"fastPass":false},{"id":"WaltDisneyWorldMagicKingdom_80010190","waitTime":20,"status":"Operating","active":true,"lastUpdate":"2021-01-31T23:01:20.615Z","meta":{"longitude":-81.5781962872,"latitude":28.4188341691,"unsuitableForPregnantPeople":true,"type":"ATTRACTION","singleRider":false},"fastPass":false,"name":"Space Mountain"},{"id":"WaltDisneyWorldMagicKingdom_80010192","waitTime":null,"status":"Down","active":false,"lastUpdate":"2021-02-01T00:01:26.081Z","name":"Splash Mountain","meta":{"unsuitableForPregnantPeople":true,"latitude":28.419418,"longitude":-81.58498,"type":"ATTRACTION","singleRider":false},"fastPass":false},{"id":"WaltDisneyWorldMagicKingdom_80010196","waitTime":null,"status":"Operating","active":true,"lastUpdate":"2021-01-31T14:00:41.543Z","name":"Swiss Family Treehouse","fastPass":false,"meta":{"longitude":-81.5827982677,"latitude":28.4184325517,"singleRider":false,"type":"ATTRACTION"}},{"id":"WaltDisneyWorldMagicKingdom_80010208","waitTime":5,"status":"Operating","active":true,"lastUpdate":"2021-01-31T22:09:20.792Z","name":"Haunted Mansion","meta":{"singleRider":false,"type":"ATTRACTION","longitude":-81.58288,"latitude":28.4202},"fastPass":false},{"id":"WaltDisneyWorldMagicKingdom_80010210","waitTime":5,"status":"Operating","active":true,"lastUpdate":"2021-01-31T23:58:22.201Z","name":"The Magic Carpets of Aladdin","fastPass":false,"meta":{"type":"ATTRACTION","latitude":28.41843,"singleRider":false,"longitude":-81.583472}},{"id":"WaltDisneyWorldMagicKingdom_80010213","waitTime":15,"status":"Operating","active":true,"lastUpdate":"2021-01-31T22:54:23.210Z","fastPass":false,"name":"The Many Adventures of Winnie the Pooh","meta":{"type":"ATTRACTION","longitude":-81.580266,"latitude":28.420212,"singleRider":false}},{"id":"WaltDisneyWorldMagicKingdom_80010220","waitTime":null,"status":"Refurbishment","active":false,"lastUpdate":"2021-01-03T21:24:19.374Z","fastPass":false,"name":"Tom Sawyer Island","meta":{"latitude":28.419503,"longitude":-81.58428,"singleRider":false,"type":"ATTRACTION"}},{"id":"WaltDisneyWorldMagicKingdom_80010222","waitTime":15,"status":"Operating","active":true,"lastUpdate":"2021-02-01T00:03:34.459Z","name":"Tomorrowland Speedway","meta":{"type":"ATTRACTION","unsuitableForPregnantPeople":true,"latitude":28.419368,"longitude":-81.579302,"singleRider":false},"fastPass":false},{"id":"WaltDisneyWorldMagicKingdom_80010224","waitTime":null,"status":"Refurbishment","active":false,"lastUpdate":"2021-01-03T21:24:19.826Z","fastPass":false,"name":"Tomorrowland Transit Authority PeopleMover - Temporarily Unavailable","meta":{"type":"ATTRACTION","latitude":28.418155,"longitude":-81.579033,"singleRider":false}},{"id":"WaltDisneyWorldMagicKingdom_80010230","waitTime":null,"status":"Refurbishment","active":false,"lastUpdate":"2021-01-03T21:23:09.088Z","name":"Walt Disney World Railroad - Main Street, U.S.A. - Temporarily Unavailable","fastPass":false,"meta":{"latitude":28.416543,"singleRider":false,"longitude":-81.581204,"type":"ATTRACTION"}},{"id":"WaltDisneyWorldMagicKingdom_80010232","waitTime":5,"status":"Operating","active":true,"lastUpdate":"2021-01-31T14:00:41.992Z","fastPass":false,"name":"Walt Disney's Carousel of Progress","meta":{"latitude":28.4180310951,"type":"ATTRACTION","longitude":-81.5790083064,"singleRider":false}},{"id":"WaltDisneyWorldMagicKingdom_80069748","waitTime":null,"status":"Operating","active":true,"lastUpdate":"2021-01-31T16:00:39.245Z","name":"Country Bear Jamboree","fastPass":false,"meta":{"longitude":-81.5837222887,"latitude":28.4187861348,"singleRider":false,"type":"ATTRACTION"}},{"id":"WaltDisneyWorldMagicKingdom_80069754","waitTime":null,"status":"Refurbishment","active":false,"lastUpdate":"2021-01-21T05:00:35.597Z","fastPass":false,"meta":{"latitude":28.4194484171,"type":"ATTRACTION","longitude":-81.5823248578,"singleRider":false},"name":"The Hall of Presidents"},{"id":"WaltDisneyWorldMagicKingdom_90001815","waitTime":null,"status":"Refurbishment","active":false,"lastUpdate":"2021-01-11T05:03:18.974Z","meta":{"singleRider":false,"longitude":-81.5825378,"type":"RESTAURANT","latitude":28.4195299},"fastPass":false,"name":"Liberty Square Market - Temporarily Unavailable"},{"id":"WaltDisneyWorldMagicKingdom_90001819","waitTime":null,"status":"Operating","active":true,"lastUpdate":"2021-02-01T00:01:41.145Z","name":"Liberty Tree Tavern","meta":{"longitude":-81.5826159743,"latitude":28.4191196055,"singleRider":false,"type":"RESTAURANT"},"fastPass":false},{"id":"WaltDisneyWorldMagicKingdom_90002464","waitTime":null,"status":"Operating","active":true,"lastUpdate":"2021-01-28T22:02:13.916Z","fastPass":false,"meta":{"singleRider":false,"type":"RESTAURANT","longitude":-81.581101,"latitude":28.4195},"name":"Cinderella's Royal Table"},{"id":"WaltDisneyWorldMagicKingdom_90002660","waitTime":null,"status":"Operating","active":true,"lastUpdate":"2021-01-31T23:44:34.382Z","name":"The Crystal Palace","meta":{"longitude":-81.5818970259,"latitude":28.4181214892,"singleRider":false,"type":"RESTAURANT"},"fastPass":false},{"id":"WaltDisneyWorldMagicKingdom_90002670","waitTime":null,"status":"Operating","active":true,"lastUpdate":"2021-01-31T23:54:20.591Z","name":"The Plaza Restaurant","meta":{"latitude":28.4180247703,"longitude":-81.5809394969,"singleRider":false,"type":"RESTAURANT"},"fastPass":false},{"id":"WaltDisneyWorldMagicKingdom_90002678","waitTime":null,"status":"Operating","active":true,"lastUpdate":"2021-01-31T23:10:52.971Z","name":"Tony's Town Square Restaurant","fastPass":false,"meta":{"singleRider":false,"type":"RESTAURANT","latitude":28.4169323426,"longitude":-81.5807276023}},{"id":"WaltDisneyWorldEpcot_107785","waitTime":5,"status":"Operating","active":true,"lastUpdate":"2021-01-31T16:00:35.029Z","fastPass":false,"name":"The Seas with Nemo & Friends","meta":{"longitude":-81.550852,"latitude":28.374904,"singleRider":false,"type":"ATTRACTION"}},{"id":"WaltDisneyWorldEpcot_15525573","waitTime":null,"status":"Operating","active":true,"lastUpdate":"2021-01-31T22:38:23.845Z","fastPass":false,"name":"La Hacienda de San Angel","meta":{"latitude":28.371221,"longitude":-81.547532,"type":"RESTAURANT","singleRider":false}},{"id":"WaltDisneyWorldEpcot_17564219","waitTime":null,"status":"Closed","active":false,"lastUpdate":"2020-09-15T11:33:07.103Z","fastPass":false,"name":"Meet Anna and Elsa at Royal Sommerhus - Temporarily Unavailable","meta":{"longitude":-81.547134,"latitude":28.37097,"singleRider":false}},{"id":"WaltDisneyWorldEpcot_17720675","waitTime":5,"status":"Operating","active":true,"lastUpdate":"2021-01-31T23:28:39.610Z","meta":{"singleRider":false,"longitude":-81.551645,"type":"RESTAURANT","latitude":28.368468},"fastPass":false,"name":"Spice Road Table"},{"id":"WaltDisneyWorldEpcot_18269694","waitTime":null,"status":"Operating","active":true,"lastUpdate":"2021-01-31T16:03:37.229Z","name":"Disney and Pixar Short Film Festival","meta":{"type":"ATTRACTION","latitude":28.37263,"longitude":-81.55115,"singleRider":false},"fastPass":false},{"id":"WaltDisneyWorldEpcot_18375495","waitTime":20,"status":"Operating","active":true,"lastUpdate":"2021-01-31T23:54:23.357Z","fastPass":false,"meta":{"singleRider":false,"latitude":28.370745,"type":"ATTRACTION","longitude":-81.54653},"name":"Frozen Ever After"},{"id":"WaltDisneyWorldEpcot_19463785","waitTime":null,"status":"Closed","active":false,"lastUpdate":"2021-01-31T23:00:36.330Z","meta":{"type":"ATTRACTION","latitude":28.368864,"singleRider":false,"longitude":-81.552978},"name":"Beauty and the Beast Sing-Along","fastPass":false},{"id":"WaltDisneyWorldEpcot_19473173","waitTime":null,"status":"Operating","active":true,"lastUpdate":"2021-01-31T16:03:32.952Z","meta":{"type":"ATTRACTION","longitude":-81.552138,"latitude":28.374301,"singleRider":false},"fastPass":false,"name":"Awesome Planet"},{"id":"WaltDisneyWorldEpcot_20194","waitTime":20,"status":"Operating","active":true,"lastUpdate":"2021-01-31T22:28:19.921Z","name":"Soarin' Around the World","meta":{"latitude":28.373592,"longitude":-81.552248,"type":"ATTRACTION","singleRider":false},"fastPass":false},{"id":"WaltDisneyWorldEpcot_207395","waitTime":5,"status":"Operating","active":true,"lastUpdate":"2021-01-31T19:39:33.006Z","fastPass":false,"meta":{"singleRider":false,"type":"ATTRACTION","latitude":28.371649,"longitude":-81.547368},"name":"Gran Fiesta Tour Starring The Three Caballeros"},{"id":"WaltDisneyWorldEpcot_62992","waitTime":null,"status":"Closed","active":false,"lastUpdate":"2021-01-03T21:23:09.564Z","meta":{"type":"ATTRACTION","latitude":28.375255,"singleRider":false,"longitude":-81.551047},"name":"Turtle Talk With Crush - Temporarily Unavailable","fastPass":false},{"id":"WaltDisneyWorldEpcot_80010145","waitTime":null,"status":"Operating","active":true,"lastUpdate":"2021-01-31T23:30:32.694Z","fastPass":false,"name":"Impressions de France","meta":{"longitude":-81.552978,"latitude":28.368864,"singleRider":false,"type":"ATTRACTION"}},{"id":"WaltDisneyWorldEpcot_80010152","waitTime":5,"status":"Operating","active":true,"lastUpdate":"2021-01-31T19:32:20.279Z","meta":{"singleRider":false,"type":"ATTRACTION","longitude":-81.551401,"latitude":28.372994},"fastPass":false,"name":"Journey Into Imagination With Figment"},{"id":"WaltDisneyWorldEpcot_80010161","waitTime":5,"status":"Operating","active":true,"lastUpdate":"2021-01-31T16:00:37.892Z","name":"Living with the Land","meta":{"singleRider":false,"latitude":28.374245,"longitude":-81.552301,"type":"ATTRACTION"},"fastPass":false},{"id":"WaltDisneyWorldEpcot_80010173","waitTime":10,"status":"Operating","active":true,"lastUpdate":"2021-01-31T19:49:20.321Z","name":"Mission: SPACE","meta":{"latitude":28.373927,"type":"ATTRACTION","singleRider":false,"unsuitableForPregnantPeople":true,"longitude":-81.547156},"fastPass":false},{"id":"WaltDisneyWorldEpcot_80010174","waitTime":null,"status":"Operating","active":true,"lastUpdate":"2021-01-31T16:00:38.543Z","name":"Canada Far and Wide in Circle-Vision 360","fastPass":false,"meta":{"longitude":-81.55196,"singleRider":false,"type":"ATTRACTION","latitude":28.371694}},{"id":"WaltDisneyWorldEpcot_80010180","waitTime":null,"status":"Operating","active":true,"lastUpdate":"2021-01-31T16:03:36.724Z","name":"Reflections of China","fastPass":false,"meta":{"singleRider":false,"type":"ATTRACTION","longitude":-81.546381,"latitude":28.369791}},{"id":"WaltDisneyWorldEpcot_80010191","waitTime":5,"status":"Operating","active":true,"lastUpdate":"2021-01-31T21:33:19.941Z","name":"Spaceship Earth","fastPass":false,"meta":{"latitude":28.375583,"singleRider":false,"longitude":-81.549401,"type":"ATTRACTION"}},{"id":"WaltDisneyWorldEpcot_80010199","waitTime":35,"status":"Operating","active":true,"lastUpdate":"2021-01-31T23:39:25.687Z","meta":{"longitude":-81.547489,"type":"ATTRACTION","unsuitableForPregnantPeople":true,"singleRider":true,"latitude":28.373228},"name":"Test Track","fastPass":false},{"id":"WaltDisneyWorldEpcot_80010200","waitTime":null,"status":"Operating","active":true,"lastUpdate":"2021-01-31T16:03:38.296Z","fastPass":false,"meta":{"longitude":-81.549446,"type":"ATTRACTION","singleRider":false,"latitude":28.367517},"name":"The American Adventure"},{"id":"WaltDisneyWorldEpcot_90001292","waitTime":20,"status":"Operating","active":true,"lastUpdate":"2021-02-01T00:05:52.137Z","fastPass":false,"name":"Biergarten Restaurant","meta":{"type":"RESTAURANT","latitude":28.368153,"longitude":-81.546819,"singleRider":false}},{"id":"WaltDisneyWorldEpcot_90001416","waitTime":null,"status":"Operating","active":true,"lastUpdate":"2021-01-31T21:29:47.031Z","name":"Coral Reef Restaurant","fastPass":false,"meta":{"longitude":-81.550458,"type":"RESTAURANT","latitude":28.375096,"singleRider":false}},{"id":"WaltDisneyWorldEpcot_90001798","waitTime":null,"status":"Operating","active":true,"lastUpdate":"2021-02-01T00:05:27.333Z","fastPass":false,"name":"Le Cellier Steakhouse","meta":{"singleRider":false,"type":"RESTAURANT","longitude":-81.551512,"latitude":28.371657}},{"id":"WaltDisneyWorldEpcot_90002084","waitTime":25,"status":"Operating","active":true,"lastUpdate":"2021-02-01T00:06:15.120Z","meta":{"latitude":28.370508,"type":"RESTAURANT","singleRider":false,"longitude":-81.551684},"name":"Rose & Crown Dining Room","fastPass":false},{"id":"WaltDisneyWorldEpcot_90002100","waitTime":null,"status":"Operating","active":true,"lastUpdate":"2021-01-31T21:01:22.746Z","name":"San Angel Inn Restaurante    ","fastPass":false,"meta":{"type":"RESTAURANT","longitude":-81.547258,"singleRider":false,"latitude":28.371612}},{"id":"WaltDisneyWorldEpcot_90002237","waitTime":20,"status":"Operating","active":true,"lastUpdate":"2021-02-01T00:04:31.401Z","name":"Garden Grill Restaurant","meta":{"singleRider":false,"longitude":-81.552324,"type":"RESTAURANT","latitude":28.374039},"fastPass":false},{"id":"WaltDisneyWorldHollywoodStudios_136","waitTime":null,"status":"Closed","active":false,"lastUpdate":"2020-09-15T11:33:12.086Z","name":"Indiana Jones™ Epic Stunt Spectacular! - Temporarily Unavailable","fastPass":false,"meta":{"singleRider":false,"longitude":-81.5586114479,"latitude":28.3566700675}},{"id":"WaltDisneyWorldHollywoodStudios_17842841","waitTime":null,"status":"Closed","active":false,"lastUpdate":"2020-09-15T11:33:12.046Z","name":"For the First Time in Forever: A Frozen Sing-Along Celebration - Temporarily Unavailable","meta":{"longitude":-81.5596944094,"singleRider":false,"latitude":28.3568243464},"fastPass":false},{"id":"WaltDisneyWorldHollywoodStudios_18189394","waitTime":null,"status":"Closed","active":false,"lastUpdate":"2020-09-15T11:33:12.077Z","name":"Star Wars Launch Bay: Meet Chewbacca - Temporarily Unavailable","fastPass":false,"meta":{"latitude":28.35796,"longitude":-81.560938,"singleRider":false}},{"id":"WaltDisneyWorldHollywoodStudios_18189398","waitTime":null,"status":"Closed","active":false,"lastUpdate":"2020-09-15T11:33:12.069Z","fastPass":false,"name":"Star Wars Launch Bay: Encounter Darth Vader - Temporarily Unavailable","meta":{"longitude":-81.560938,"singleRider":false,"latitude":28.35796}},{"id":"WaltDisneyWorldHollywoodStudios_18360041","waitTime":null,"status":"Closed","active":false,"lastUpdate":"2021-01-03T21:23:31.878Z","fastPass":false,"meta":{"longitude":-81.561061,"type":"ATTRACTION","singleRider":false,"latitude":28.357821},"name":"Star Wars Launch Bay Theater - Temporarily Unavailable"},{"id":"WaltDisneyWorldHollywoodStudios_18368385","waitTime":null,"status":"Closed","active":false,"lastUpdate":"2020-09-15T11:33:12.104Z","fastPass":false,"name":"Celebrity Spotlight - Temporarily Unavailable","meta":{"longitude":-81.559158,"singleRider":false,"latitude":28.356072}},{"id":"WaltDisneyWorldHollywoodStudios_18368386","waitTime":null,"status":"Closed","active":false,"lastUpdate":"2020-09-15T11:33:12.095Z","name":"Mickey and Minnie Starring in Red Carpet Dreams - Temporarily Unavailable","meta":{"longitude":-81.559479,"latitude":28.356068,"singleRider":false},"fastPass":false},{"id":"WaltDisneyWorldHollywoodStudios_18669338","waitTime":null,"status":"Closed","active":false,"lastUpdate":"2020-09-15T11:33:12.121Z","fastPass":false,"name":"BB-8 Astromech on Duty - Temporarily Unavailable","meta":{"latitude":28.35796,"longitude":-81.560938,"singleRider":false}},{"id":"WaltDisneyWorldHollywoodStudios_18770880","waitTime":null,"status":"Closed","active":false,"lastUpdate":"2021-01-31T23:00:35.826Z","fastPass":false,"name":"Walt Disney Presents","meta":{"singleRider":false,"latitude":28.35686,"longitude":-81.560982,"type":"ATTRACTION"}},{"id":"WaltDisneyWorldHollywoodStudios_18904138","waitTime":null,"status":"Closed","active":false,"lastUpdate":"2021-02-01T00:00:36.366Z","name":"Slinky Dog Dash","meta":{"latitude":28.356245,"singleRider":false,"unsuitableForPregnantPeople":true,"longitude":-81.562786,"type":"ATTRACTION"},"fastPass":false},{"id":"WaltDisneyWorldHollywoodStudios_18904172","waitTime":null,"status":"Closed","active":false,"lastUpdate":"2021-02-01T00:00:38.623Z","name":"Alien Swirling Saucers","fastPass":false,"meta":{"latitude":28.355385,"singleRider":false,"longitude":-81.562379,"type":"ATTRACTION"}},{"id":"WaltDisneyWorldHollywoodStudios_19025682","waitTime":null,"status":"Operating","active":true,"lastUpdate":"2020-09-15T14:02:51.117Z","name":"Star Wars: Galaxy's Edge","fastPass":false,"meta":{"singleRider":false,"latitude":28.355234,"longitude":-81.559787}},{"id":"WaltDisneyWorldHollywoodStudios_19152250","waitTime":null,"status":"Closed","active":false,"lastUpdate":"2020-09-15T11:33:12.147Z","meta":{"singleRider":false,"longitude":-81.560984,"latitude":28.356865},"name":"Meet Sulley at Walt Disney Presents - Temporarily Unavailable","fastPass":false},{"id":"WaltDisneyWorldHollywoodStudios_19259335","waitTime":null,"status":"Closed","active":false,"lastUpdate":"2021-02-01T00:00:37.078Z","name":"Mickey & Minnie's Runaway Railway","meta":{"longitude":-81.5605667783,"type":"ATTRACTION","singleRider":false,"latitude":28.3566783801},"fastPass":false},{"id":"WaltDisneyWorldHollywoodStudios_19263735","waitTime":null,"status":"Closed","active":false,"lastUpdate":"2021-02-01T00:00:33.446Z","name":"Millennium Falcon: Smugglers Run","fastPass":false,"meta":{"latitude":28.353889,"longitude":-81.561689,"singleRider":true,"unsuitableForPregnantPeople":true,"type":"ATTRACTION"}},{"id":"WaltDisneyWorldHollywoodStudios_19263736","waitTime":null,"status":"Closed","active":false,"lastUpdate":"2021-02-01T00:00:26.416Z","meta":{"unsuitableForPregnantPeople":true,"type":"ATTRACTION","latitude":28.354884,"singleRider":false,"longitude":-81.560457},"name":"Star Wars: Rise of the Resistance","fastPass":false},{"id":"WaltDisneyWorldHollywoodStudios_19267226","waitTime":null,"status":"Closed","active":false,"lastUpdate":"2021-01-30T21:13:32.709Z","meta":{"latitude":28.354095,"type":"RESTAURANT","singleRider":false,"longitude":-81.562075},"name":"Oga's Cantina at the Walt Disney World Resort","fastPass":false},{"id":"WaltDisneyWorldHollywoodStudios_19276204","waitTime":null,"status":"Closed","active":false,"lastUpdate":"2021-01-31T23:00:36.802Z","name":"Lightning McQueen's Racing Academy","fastPass":false,"meta":{"latitude":28.360035,"singleRider":false,"longitude":-81.560707,"type":"ATTRACTION"}},{"id":"WaltDisneyWorldHollywoodStudios_19497952","waitTime":null,"status":"Closed","active":false,"lastUpdate":"2021-01-31T23:00:35.349Z","meta":{"singleRider":false,"longitude":-81.559031,"type":"ATTRACTION","latitude":28.356316},"name":"Vacation Fun - An Original Animated Short with Mickey & Minnie","fastPass":false},{"id":"WaltDisneyWorldHollywoodStudios_19582977","waitTime":null,"status":"Closed","active":false,"lastUpdate":"2020-09-15T11:33:12.211Z","fastPass":false,"name":"Disney Society Orchestra and Friends","meta":{"singleRider":false,"longitude":-81.5595985008,"latitude":28.3589162565}},{"id":"WaltDisneyWorldHollywoodStudios_19583373","waitTime":null,"status":"Closed","active":false,"lastUpdate":"2020-09-15T11:33:12.219Z","fastPass":false,"meta":{"singleRider":false,"latitude":28.357613,"longitude":-81.560567},"name":"Disney Junior Play and Dance!"},{"id":"WaltDisneyWorldHollywoodStudios_202731","waitTime":null,"status":"Closed","active":false,"lastUpdate":"2020-09-15T11:33:12.226Z","fastPass":false,"name":"Disney Junior Dance Party! - Temporarily Unavailable","meta":{"latitude":28.357613,"singleRider":false,"longitude":-81.560567}},{"id":"WaltDisneyWorldHollywoodStudios_209857","waitTime":null,"status":"Closed","active":false,"lastUpdate":"2021-02-01T00:00:37.609Z","meta":{"type":"ATTRACTION","latitude":28.356404,"longitude":-81.561894,"singleRider":false},"fastPass":false,"name":"Toy Story Mania!"},{"id":"WaltDisneyWorldHollywoodStudios_80010151","waitTime":null,"status":"Closed","active":false,"lastUpdate":"2021-01-31T23:00:32.564Z","name":"Muppet*Vision 3D","fastPass":false,"meta":{"type":"ATTRACTION","latitude":28.3550644708,"longitude":-81.5594643904,"singleRider":false}},{"id":"WaltDisneyWorldHollywoodStudios_80010182","waitTime":null,"status":"Closed","active":false,"lastUpdate":"2021-02-01T00:00:25.663Z","fastPass":false,"name":"Rock 'n' Roller Coaster Starring Aerosmith","meta":{"type":"ATTRACTION","longitude":-81.56059,"unsuitableForPregnantPeople":true,"singleRider":true,"latitude":28.359712}},{"id":"WaltDisneyWorldHollywoodStudios_80010193","waitTime":null,"status":"Closed","active":false,"lastUpdate":"2021-02-01T00:00:39.131Z","name":"Star Tours – The Adventures Continue","fastPass":false,"meta":{"longitude":-81.558891,"singleRider":false,"unsuitableForPregnantPeople":true,"type":"ATTRACTION","latitude":28.355695}},{"id":"WaltDisneyWorldHollywoodStudios_80010218","waitTime":null,"status":"Closed","active":false,"lastUpdate":"2021-02-01T00:00:38.141Z","name":"The Twilight Zone Tower of Terror™","meta":{"singleRider":false,"latitude":28.359553,"unsuitableForPregnantPeople":true,"longitude":-81.559772,"type":"ATTRACTION"},"fastPass":false},{"id":"WaltDisneyWorldHollywoodStudios_80010848","waitTime":null,"status":"Closed","active":false,"lastUpdate":"2020-09-15T11:33:12.284Z","meta":{"singleRider":false,"latitude":28.3589162565,"longitude":-81.5595985008},"fastPass":false,"name":"Beauty and the Beast-Live on Stage - Temporarily Unavailable"},{"id":"WaltDisneyWorldHollywoodStudios_80010896","waitTime":null,"status":"Closed","active":false,"lastUpdate":"2020-09-15T11:33:12.290Z","fastPass":false,"meta":{"latitude":28.3574862147,"singleRider":false,"longitude":-81.5608484102},"name":"Voyage of The Little Mermaid - Temporarily Unavailable"},{"id":"WaltDisneyWorldHollywoodStudios_90001216","waitTime":null,"status":"Operating","active":true,"lastUpdate":"2021-01-27T16:37:33.771Z","name":"50's Prime Time Café","meta":{"longitude":-81.558881,"latitude":28.357444,"singleRider":false,"type":"RESTAURANT"},"fastPass":false},{"id":"WaltDisneyWorldHollywoodStudios_90001744","waitTime":null,"status":"Closed","active":false,"lastUpdate":"2021-01-30T21:13:33.319Z","name":"Hollywood & Vine","meta":{"latitude":28.357611,"type":"RESTAURANT","longitude":-81.558975,"singleRider":false},"fastPass":false},{"id":"WaltDisneyWorldHollywoodStudios_90001865","waitTime":null,"status":"Operating","active":true,"lastUpdate":"2021-01-31T23:55:19.686Z","name":"Mama Melrose's Ristorante Italiano","meta":{"singleRider":false,"latitude":28.354532,"longitude":-81.559012,"type":"RESTAURANT"},"fastPass":false},{"id":"WaltDisneyWorldHollywoodStudios_90002114","waitTime":null,"status":"Operating","active":true,"lastUpdate":"2021-01-27T20:00:33.859Z","name":"Sci-Fi Dine-In Theater Restaurant","meta":{"type":"RESTAURANT","longitude":-81.559495,"singleRider":false,"latitude":28.3559},"fastPass":false},{"id":"WaltDisneyWorldHollywoodStudios_90002245","waitTime":null,"status":"Operating","active":true,"lastUpdate":"2021-01-31T22:26:46.900Z","name":"The Hollywood Brown Derby","fastPass":false,"meta":{"latitude":28.357648,"longitude":-81.560297,"type":"RESTAURANT","singleRider":false}},{"id":"WaltDisneyWorldAnimalKingdom_17421326","waitTime":null,"status":"Closed","active":false,"lastUpdate":"2020-09-15T11:33:02.632Z","name":"Meet Favorite Disney Pals at Adventurers Outpost - Temporarily Unavailable","fastPass":false,"meta":{"longitude":-81.589796,"latitude":28.357972,"singleRider":false}},{"id":"WaltDisneyWorldAnimalKingdom_18069632","waitTime":null,"status":"Operating","active":true,"lastUpdate":"2021-01-31T21:56:22.856Z","meta":{"singleRider":false,"latitude":28.356846,"longitude":-81.591487,"type":"RESTAURANT"},"name":"Tiffins Restaurant","fastPass":false},{"id":"WaltDisneyWorldAnimalKingdom_18377778","waitTime":null,"status":"Operating","active":true,"lastUpdate":"2021-01-31T22:12:25.407Z","name":"Nomad Lounge","meta":{"latitude":28.356719,"type":"RESTAURANT","longitude":-81.591487,"singleRider":false},"fastPass":false},{"id":"WaltDisneyWorldAnimalKingdom_18665185","waitTime":null,"status":"Closed","active":false,"lastUpdate":"2021-01-31T22:00:34.642Z","name":"Na'vi River Journey","fastPass":false,"meta":{"longitude":-81.591641,"singleRider":false,"latitude":28.355257,"type":"ATTRACTION"}},{"id":"WaltDisneyWorldAnimalKingdom_18665186","waitTime":null,"status":"Closed","active":false,"lastUpdate":"2021-01-31T22:00:38.674Z","name":"Avatar Flight of Passage","meta":{"singleRider":false,"longitude":-81.592147,"type":"ATTRACTION","latitude":28.355554,"unsuitableForPregnantPeople":true},"fastPass":false},{"id":"WaltDisneyWorldAnimalKingdom_19330300","waitTime":null,"status":"Closed","active":false,"lastUpdate":"2021-01-31T22:12:40.317Z","meta":{"longitude":-81.588669,"singleRider":false,"type":"ATTRACTION","latitude":28.365188},"name":"The Animation Experience at Conservation Station","fastPass":false},{"id":"WaltDisneyWorldAnimalKingdom_26068","waitTime":null,"status":"Closed","active":false,"lastUpdate":"2021-01-31T22:00:38.111Z","meta":{"singleRider":false,"type":"ATTRACTION","longitude":-81.5873781396,"unsuitableForPregnantPeople":true,"latitude":28.3584769119},"name":"Expedition Everest - Legend of the Forbidden Mountain","fastPass":false},{"id":"WaltDisneyWorldAnimalKingdom_80010123","waitTime":null,"status":"Closed","active":false,"lastUpdate":"2021-01-31T22:00:39.245Z","fastPass":false,"name":"DINOSAUR","meta":{"unsuitableForPregnantPeople":true,"longitude":-81.588444,"singleRider":false,"type":"ATTRACTION","latitude":28.355307}},{"id":"WaltDisneyWorldAnimalKingdom_80010150","waitTime":null,"status":"Closed","active":false,"lastUpdate":"2021-01-31T22:00:35.382Z","name":"It's Tough to be a Bug!","meta":{"longitude":-81.590118,"singleRider":false,"type":"ATTRACTION","latitude":28.357488},"fastPass":false},{"id":"WaltDisneyWorldAnimalKingdom_80010154","waitTime":null,"status":"Refurbishment","active":false,"lastUpdate":"2021-01-04T05:02:16.994Z","meta":{"longitude":-81.5889412165,"unsuitableForPregnantPeople":true,"latitude":28.3587834288,"singleRider":false,"type":"ATTRACTION"},"fastPass":false,"name":"Kali River Rapids"},{"id":"WaltDisneyWorldAnimalKingdom_80010157","waitTime":null,"status":"Closed","active":false,"lastUpdate":"2021-01-31T22:00:33.242Z","name":"Kilimanjaro Safaris","meta":{"singleRider":false,"unsuitableForPregnantPeople":true,"latitude":28.359331,"type":"ATTRACTION","longitude":-81.59228},"fastPass":false},{"id":"WaltDisneyWorldAnimalKingdom_80010164","waitTime":null,"status":"Closed","active":false,"lastUpdate":"2021-01-31T22:00:39.806Z","meta":{"singleRider":false,"latitude":28.359379,"longitude":-81.589019,"type":"ATTRACTION"},"fastPass":false,"name":"Maharajah Jungle Trek"},{"id":"WaltDisneyWorldAnimalKingdom_80010175","waitTime":null,"status":"Closed","active":false,"lastUpdate":"2021-01-31T21:30:34.236Z","fastPass":false,"meta":{"latitude":28.359954,"type":"ATTRACTION","singleRider":false,"longitude":-81.592149},"name":"Gorilla Falls Exploration Trail"},{"id":"WaltDisneyWorldAnimalKingdom_80010203","waitTime":null,"status":"Closed","active":false,"lastUpdate":"2021-01-03T21:23:41.107Z","meta":{"type":"ATTRACTION","latitude":28.3566787564,"singleRider":false,"longitude":-81.5884791864},"name":"The Boneyard - Temporarily Unavailable","fastPass":false},{"id":"WaltDisneyWorldAnimalKingdom_80010228","waitTime":null,"status":"Closed","active":false,"lastUpdate":"2021-01-31T22:00:34.129Z","fastPass":false,"name":"TriceraTop Spin","meta":{"longitude":-81.588074,"singleRider":false,"latitude":28.356503,"type":"ATTRACTION"}},{"id":"WaltDisneyWorldAnimalKingdom_80010235","waitTime":null,"status":"Closed","active":false,"lastUpdate":"2021-01-31T21:30:35.382Z","fastPass":false,"name":"Wildlife Express Train","meta":{"singleRider":false,"type":"ATTRACTION","latitude":28.3598097347,"longitude":-81.5914175464}},{"id":"WaltDisneyWorldMagicKingdom_136550","waitTime":null,"status":"Closed","active":false,"lastUpdate":"2021-01-03T21:24:21.706Z","fastPass":false,"meta":{"singleRider":false,"latitude":28.4183977566,"type":"ATTRACTION","longitude":-81.5797358751},"name":"Monsters, Inc. Laugh Floor - Temporarily Unavailable"},{"id":"WaltDisneyWorldMagicKingdom_15743682","waitTime":null,"status":"Closed","active":false,"lastUpdate":"2020-09-15T11:33:17.406Z","meta":{"latitude":28.421282,"longitude":-81.578932,"singleRider":false},"fastPass":false,"name":"Meet Dashing Disney Pals as Circus Stars at Pete’s Silly Side Show - Temporarily Unavailable"},{"id":"WaltDisneyWorldMagicKingdom_15850196","waitTime":null,"status":"Closed","active":false,"lastUpdate":"2020-09-15T11:33:17.374Z","name":"Meet Mickey Mouse at Town Square Theater - Temporarily Unavailable","meta":{"singleRider":false,"longitude":-81.580746,"latitude":28.416727},"fastPass":false},{"id":"WaltDisneyWorldMagicKingdom_16124144","waitTime":null,"status":"Operating","active":true,"lastUpdate":"2021-01-31T14:00:34.948Z","fastPass":false,"name":"Walt Disney's Enchanted Tiki Room","meta":{"longitude":-81.583738382,"singleRider":false,"type":"ATTRACTION","latitude":28.4182264646}},{"id":"WaltDisneyWorldMagicKingdom_16414579","waitTime":null,"status":"Closed","active":false,"lastUpdate":"2021-01-24T23:00:36.558Z","meta":{"longitude":-81.58163,"singleRider":false,"type":"ATTRACTION","latitude":28.416944},"fastPass":false,"name":"Sorcerers of the Magic Kingdom"},{"id":"WaltDisneyWorldMagicKingdom_16491297","waitTime":5,"status":"Operating","active":true,"lastUpdate":"2021-02-01T01:09:22.459Z","name":"The Barnstormer","meta":{"unsuitableForPregnantPeople":true,"type":"ATTRACTION","singleRider":false,"longitude":-81.5783907473,"latitude":28.4207661576},"fastPass":false},{"id":"WaltDisneyWorldMagicKingdom_16491299","waitTime":null,"status":"Refurbishment","active":false,"lastUpdate":"2021-01-03T21:24:18.928Z","name":"Walt Disney World Railroad - Fantasyland - Temporarily Unavailable","meta":{"longitude":-81.578368,"singleRider":false,"type":"ATTRACTION","latitude":28.420934},"fastPass":false},{"id":"WaltDisneyWorldMagicKingdom_16660079","waitTime":null,"status":"Operating","active":true,"lastUpdate":"2021-02-01T00:55:05.745Z","name":"Be Our Guest Restaurant","meta":{"type":"RESTAURANT","singleRider":false,"latitude":28.4212491492,"longitude":-81.5807074858},"fastPass":false},{"id":"WaltDisneyWorldMagicKingdom_16767263","waitTime":5,"status":"Operating","active":true,"lastUpdate":"2021-01-31T22:15:22.947Z","name":"Under the Sea ~ Journey of The Little Mermaid","fastPass":false,"meta":{"longitude":-81.5799752427,"type":"ATTRACTION","latitude":28.4211203226,"singleRider":false}},{"id":"WaltDisneyWorldMagicKingdom_16767276","waitTime":null,"status":"Closed","active":false,"lastUpdate":"2021-01-03T21:24:20.764Z","meta":{"type":"ATTRACTION","longitude":-81.58093011,"singleRider":false,"latitude":28.42099058},"fastPass":false,"name":"Enchanted Tales with Belle - Temporarily Unavailable"},{"id":"WaltDisneyWorldMagicKingdom_16767284","waitTime":45,"status":"Operating","active":true,"lastUpdate":"2021-02-01T01:20:23.955Z","name":"Seven Dwarfs Mine Train","fastPass":false,"meta":{"singleRider":false,"unsuitableForPregnantPeople":true,"latitude":28.42037,"longitude":-81.58031,"type":"ATTRACTION"}},{"id":"WaltDisneyWorldMagicKingdom_16874126","waitTime":null,"status":"Closed","active":false,"lastUpdate":"2020-09-15T11:33:17.441Z","fastPass":false,"name":"Meet Ariel at Her Grotto - Temporarily Unavailable","meta":{"longitude":-81.579613144497,"singleRider":false,"latitude":28.420893275289}},{"id":"WaltDisneyWorldMagicKingdom_17272158","waitTime":null,"status":"Closed","active":false,"lastUpdate":"2021-01-03T21:24:21.210Z","fastPass":false,"meta":{"latitude":28.41837254,"singleRider":false,"type":"ATTRACTION","longitude":-81.58466913},"name":"A Pirate's Adventure ~ Treasures of the Seven Seas - Temporarily Unavailable"},{"id":"WaltDisneyWorldMagicKingdom_17505397","waitTime":null,"status":"Closed","active":false,"lastUpdate":"2020-09-15T11:33:17.486Z","name":"Meet Rapunzel and Tiana at Princess Fairytale Hall - Temporarily Unavailable","meta":{"singleRider":false,"longitude":-81.580917439677,"latitude":28.420045752669},"fastPass":false},{"id":"WaltDisneyWorldMagicKingdom_17752793","waitTime":null,"status":"Closed","active":false,"lastUpdate":"2020-09-15T11:33:17.444Z","meta":{"singleRider":false,"latitude":28.416727,"longitude":-81.580815},"name":"Meet Tinker Bell at Town Square Theater - Temporarily Unavailable","fastPass":false},{"id":"WaltDisneyWorldMagicKingdom_18185631","waitTime":null,"status":"Operating","active":true,"lastUpdate":"2021-01-31T23:02:37.634Z","name":"Jungle Navigation Co. LTD Skipper Canteen","fastPass":false,"meta":{"singleRider":false,"type":"RESTAURANT","latitude":28.418491,"longitude":-81.582592}},{"id":"WaltDisneyWorldMagicKingdom_18498503","waitTime":null,"status":"Closed","active":false,"lastUpdate":"2020-09-15T11:33:17.494Z","meta":{"latitude":28.420012,"longitude":-81.58094,"singleRider":false},"name":"Meet Cinderella and Elena at Princess Fairytale Hall - Temporarily Unavailable","fastPass":false},{"id":"WaltDisneyWorldMagicKingdom_2219610","waitTime":null,"status":"Refurbishment","active":false,"lastUpdate":"2021-01-03T21:23:08.615Z","meta":{"longitude":-81.585078,"latitude":28.41969,"type":"ATTRACTION","singleRider":false},"name":"Walt Disney World Railroad - Frontierland - Temporarily Unavailable","fastPass":false},{"id":"WaltDisneyWorldMagicKingdom_387133","waitTime":null,"status":"Closed","active":false,"lastUpdate":"2020-09-15T11:33:17.492Z","meta":{"singleRider":false,"latitude":28.421282,"longitude":-81.578932},"fastPass":false,"name":"Meet Daring Disney Pals as Circus Stars at Pete's Silly Side Show - Temporarily Unavailable"},{"id":"WaltDisneyWorldMagicKingdom_80010107","waitTime":20,"status":"Operating","active":true,"lastUpdate":"2021-02-01T01:06:34.160Z","meta":{"type":"ATTRACTION","singleRider":false,"latitude":28.4184926179,"longitude":-81.5789887902},"fastPass":false,"name":"Astro Orbiter"},{"id":"WaltDisneyWorldMagicKingdom_80010110","waitTime":25,"status":"Operating","active":true,"lastUpdate":"2021-02-01T01:06:22.872Z","fastPass":false,"name":"Big Thunder Mountain Railroad","meta":{"singleRider":false,"longitude":-81.5846422864,"type":"ATTRACTION","latitude":28.4199638504,"unsuitableForPregnantPeople":true}},{"id":"WaltDisneyWorldMagicKingdom_80010114","waitTime":5,"status":"Operating","active":true,"lastUpdate":"2021-01-31T23:44:22.743Z","name":"Buzz Lightyear's Space Ranger Spin","fastPass":false,"meta":{"longitude":-81.5794086456,"latitude":28.4182868839,"singleRider":false,"type":"ATTRACTION"}},{"id":"WaltDisneyWorldMagicKingdom_80010117","waitTime":20,"status":"Operating","active":true,"lastUpdate":"2021-02-01T00:39:36.612Z","fastPass":false,"name":"Prince Charming Regal Carrousel","meta":{"type":"ATTRACTION","longitude":-81.581255,"singleRider":false,"latitude":28.420169}},{"id":"WaltDisneyWorldMagicKingdom_80010129","waitTime":5,"status":"Operating","active":true,"lastUpdate":"2021-02-01T00:57:21.996Z","name":"Dumbo the Flying Elephant","meta":{"longitude":-81.5789473057,"type":"ATTRACTION","singleRider":false,"latitude":28.420509033},"fastPass":false},{"id":"WaltDisneyWorldMagicKingdom_80010149","waitTime":5,"status":"Operating","active":true,"lastUpdate":"2021-02-01T01:15:29.323Z","name":"\"it's a small world\"","fastPass":false,"meta":{"longitude":-81.5820392026,"latitude":28.4204816402,"singleRider":false,"type":"ATTRACTION"}},{"id":"WaltDisneyWorldMagicKingdom_80010153","waitTime":25,"status":"Operating","active":true,"lastUpdate":"2021-02-01T00:10:23.440Z","name":"Jungle Cruise","fastPass":false,"meta":{"type":"ATTRACTION","longitude":-81.5834393157,"latitude":28.41797818,"singleRider":false}},{"id":"WaltDisneyWorldMagicKingdom_80010160","waitTime":null,"status":"Refurbishment","active":false,"lastUpdate":"2021-01-03T21:23:48.006Z","meta":{"longitude":-81.5827982677,"singleRider":false,"latitude":28.4195563399,"type":"ATTRACTION"},"fastPass":false,"name":"Liberty Square Riverboat"},{"id":"WaltDisneyWorldMagicKingdom_80010162","waitTime":5,"status":"Operating","active":true,"lastUpdate":"2021-01-31T21:56:21.743Z","name":"Mad Tea Party","meta":{"longitude":-81.5798248916,"type":"ATTRACTION","singleRider":false,"latitude":28.4200230397},"fastPass":false},{"id":"WaltDisneyWorldMagicKingdom_80010165","waitTime":null,"status":"Closed","active":false,"lastUpdate":"2021-01-03T21:24:20.300Z","name":"Main Street Vehicles - Temporarily Unavailable","meta":{"singleRider":false,"type":"ATTRACTION","longitude":-81.5815081252,"latitude":28.4168698711},"fastPass":false},{"id":"WaltDisneyWorldMagicKingdom_80010170","waitTime":10,"status":"Operating","active":true,"lastUpdate":"2021-02-01T00:32:25.471Z","meta":{"singleRider":false,"type":"ATTRACTION","latitude":28.4200304909,"longitude":-81.5814839853},"name":"Mickey's PhilharMagic","fastPass":false},{"id":"WaltDisneyWorldMagicKingdom_80010176","waitTime":5,"status":"Operating","active":true,"lastUpdate":"2021-02-01T01:17:23.033Z","name":"Peter Pan's Flight","meta":{"type":"ATTRACTION","longitude":-81.5818916811,"singleRider":false,"latitude":28.4202640272},"fastPass":false},{"id":"WaltDisneyWorldMagicKingdom_80010177","waitTime":10,"status":"Operating","active":true,"lastUpdate":"2021-02-01T01:18:22.603Z","name":"Pirates of the Caribbean","meta":{"longitude":-81.5842252,"type":"ATTRACTION","latitude":28.41796992,"singleRider":false},"fastPass":false},{"id":"WaltDisneyWorldMagicKingdom_80010190","waitTime":15,"status":"Operating","active":true,"lastUpdate":"2021-02-01T01:03:22.910Z","meta":{"longitude":-81.5781962872,"latitude":28.4188341691,"unsuitableForPregnantPeople":true,"type":"ATTRACTION","singleRider":false},"fastPass":false,"name":"Space Mountain"},{"id":"WaltDisneyWorldMagicKingdom_80010192","waitTime":25,"status":"Operating","active":true,"lastUpdate":"2021-02-01T00:47:26.034Z","name":"Splash Mountain","meta":{"unsuitableForPregnantPeople":true,"latitude":28.419418,"longitude":-81.58498,"type":"ATTRACTION","singleRider":false},"fastPass":false},{"id":"WaltDisneyWorldMagicKingdom_80010196","waitTime":null,"status":"Operating","active":true,"lastUpdate":"2021-01-31T14:00:41.543Z","name":"Swiss Family Treehouse","fastPass":false,"meta":{"longitude":-81.5827982677,"latitude":28.4184325517,"singleRider":false,"type":"ATTRACTION"}},{"id":"WaltDisneyWorldMagicKingdom_80010208","waitTime":5,"status":"Operating","active":true,"lastUpdate":"2021-01-31T22:09:20.792Z","name":"Haunted Mansion","meta":{"singleRider":false,"type":"ATTRACTION","longitude":-81.58288,"latitude":28.4202},"fastPass":false},{"id":"WaltDisneyWorldMagicKingdom_80010210","waitTime":5,"status":"Operating","active":true,"lastUpdate":"2021-02-01T00:36:23.877Z","name":"The Magic Carpets of Aladdin","fastPass":false,"meta":{"type":"ATTRACTION","latitude":28.41843,"singleRider":false,"longitude":-81.583472}},{"id":"WaltDisneyWorldMagicKingdom_80010213","waitTime":10,"status":"Operating","active":true,"lastUpdate":"2021-02-01T00:48:23.069Z","fastPass":false,"name":"The Many Adventures of Winnie the Pooh","meta":{"type":"ATTRACTION","longitude":-81.580266,"latitude":28.420212,"singleRider":false}},{"id":"WaltDisneyWorldMagicKingdom_80010220","waitTime":null,"status":"Refurbishment","active":false,"lastUpdate":"2021-01-03T21:24:19.374Z","fastPass":false,"name":"Tom Sawyer Island","meta":{"latitude":28.419503,"longitude":-81.58428,"singleRider":false,"type":"ATTRACTION"}},{"id":"WaltDisneyWorldMagicKingdom_80010222","waitTime":25,"status":"Operating","active":true,"lastUpdate":"2021-02-01T00:55:21.461Z","name":"Tomorrowland Speedway","meta":{"type":"ATTRACTION","unsuitableForPregnantPeople":true,"latitude":28.419368,"longitude":-81.579302,"singleRider":false},"fastPass":false},{"id":"WaltDisneyWorldMagicKingdom_80010224","waitTime":null,"status":"Refurbishment","active":false,"lastUpdate":"2021-01-03T21:24:19.826Z","fastPass":false,"name":"Tomorrowland Transit Authority PeopleMover - Temporarily Unavailable","meta":{"type":"ATTRACTION","latitude":28.418155,"longitude":-81.579033,"singleRider":false}},{"id":"WaltDisneyWorldMagicKingdom_80010230","waitTime":null,"status":"Refurbishment","active":false,"lastUpdate":"2021-01-03T21:23:09.088Z","name":"Walt Disney World Railroad - Main Street, U.S.A. - Temporarily Unavailable","fastPass":false,"meta":{"latitude":28.416543,"singleRider":false,"longitude":-81.581204,"type":"ATTRACTION"}},{"id":"WaltDisneyWorldMagicKingdom_80010232","waitTime":null,"status":"Closed","active":false,"lastUpdate":"2021-02-01T01:00:41.172Z","fastPass":false,"name":"Walt Disney's Carousel of Progress","meta":{"latitude":28.4180310951,"type":"ATTRACTION","longitude":-81.5790083064,"singleRider":false}},{"id":"WaltDisneyWorldMagicKingdom_80069748","waitTime":null,"status":"Operating","active":true,"lastUpdate":"2021-01-31T16:00:39.245Z","name":"Country Bear Jamboree","fastPass":false,"meta":{"longitude":-81.5837222887,"latitude":28.4187861348,"singleRider":false,"type":"ATTRACTION"}},{"id":"WaltDisneyWorldMagicKingdom_80069754","waitTime":null,"status":"Refurbishment","active":false,"lastUpdate":"2021-01-21T05:00:35.597Z","fastPass":false,"meta":{"latitude":28.4194484171,"type":"ATTRACTION","longitude":-81.5823248578,"singleRider":false},"name":"The Hall of Presidents"},{"id":"WaltDisneyWorldMagicKingdom_90001815","waitTime":null,"status":"Refurbishment","active":false,"lastUpdate":"2021-01-11T05:03:18.974Z","meta":{"singleRider":false,"longitude":-81.5825378,"type":"RESTAURANT","latitude":28.4195299},"fastPass":false,"name":"Liberty Square Market - Temporarily Unavailable"},{"id":"WaltDisneyWorldMagicKingdom_90001819","waitTime":null,"status":"Operating","active":true,"lastUpdate":"2021-02-01T00:01:41.145Z","name":"Liberty Tree Tavern","meta":{"longitude":-81.5826159743,"latitude":28.4191196055,"singleRider":false,"type":"RESTAURANT"},"fastPass":false},{"id":"WaltDisneyWorldMagicKingdom_90002464","waitTime":null,"status":"Operating","active":true,"lastUpdate":"2021-01-28T22:02:13.916Z","fastPass":false,"meta":{"singleRider":false,"type":"RESTAURANT","longitude":-81.581101,"latitude":28.4195},"name":"Cinderella's Royal Table"},{"id":"WaltDisneyWorldMagicKingdom_90002660","waitTime":null,"status":"Operating","active":true,"lastUpdate":"2021-01-31T23:44:34.382Z","name":"The Crystal Palace","meta":{"longitude":-81.5818970259,"latitude":28.4181214892,"singleRider":false,"type":"RESTAURANT"},"fastPass":false},{"id":"WaltDisneyWorldMagicKingdom_90002670","waitTime":null,"status":"Operating","active":true,"lastUpdate":"2021-01-31T23:54:20.591Z","name":"The Plaza Restaurant","meta":{"latitude":28.4180247703,"longitude":-81.5809394969,"singleRider":false,"type":"RESTAURANT"},"fastPass":false},{"id":"WaltDisneyWorldMagicKingdom_90002678","waitTime":null,"status":"Operating","active":true,"lastUpdate":"2021-01-31T23:10:52.971Z","name":"Tony's Town Square Restaurant","fastPass":false,"meta":{"singleRider":false,"type":"RESTAURANT","latitude":28.4169323426,"longitude":-81.5807276023}},{"id":"WaltDisneyWorldEpcot_107785","waitTime":null,"status":"Closed","active":false,"lastUpdate":"2021-02-01T01:00:36.104Z","fastPass":false,"name":"The Seas with Nemo & Friends","meta":{"longitude":-81.550852,"latitude":28.374904,"singleRider":false,"type":"ATTRACTION"}},{"id":"WaltDisneyWorldEpcot_15525573","waitTime":null,"status":"Operating","active":true,"lastUpdate":"2021-01-31T22:38:23.845Z","fastPass":false,"name":"La Hacienda de San Angel","meta":{"latitude":28.371221,"longitude":-81.547532,"type":"RESTAURANT","singleRider":false}},{"id":"WaltDisneyWorldEpcot_17564219","waitTime":null,"status":"Closed","active":false,"lastUpdate":"2020-09-15T11:33:07.103Z","fastPass":false,"name":"Meet Anna and Elsa at Royal Sommerhus - Temporarily Unavailable","meta":{"longitude":-81.547134,"latitude":28.37097,"singleRider":false}},{"id":"WaltDisneyWorldEpcot_17720675","waitTime":null,"status":"Operating","active":true,"lastUpdate":"2021-02-01T00:55:26.164Z","meta":{"singleRider":false,"longitude":-81.551645,"type":"RESTAURANT","latitude":28.368468},"fastPass":false,"name":"Spice Road Table"},{"id":"WaltDisneyWorldEpcot_18269694","waitTime":null,"status":"Closed","active":false,"lastUpdate":"2021-02-01T01:00:36.716Z","name":"Disney and Pixar Short Film Festival","meta":{"type":"ATTRACTION","latitude":28.37263,"longitude":-81.55115,"singleRider":false},"fastPass":false},{"id":"WaltDisneyWorldEpcot_18375495","waitTime":null,"status":"Closed","active":false,"lastUpdate":"2021-02-01T01:00:42.092Z","fastPass":false,"meta":{"singleRider":false,"latitude":28.370745,"type":"ATTRACTION","longitude":-81.54653},"name":"Frozen Ever After"},{"id":"WaltDisneyWorldEpcot_19463785","waitTime":null,"status":"Closed","active":false,"lastUpdate":"2021-01-31T23:00:36.330Z","meta":{"type":"ATTRACTION","latitude":28.368864,"singleRider":false,"longitude":-81.552978},"name":"Beauty and the Beast Sing-Along","fastPass":false},{"id":"WaltDisneyWorldEpcot_19473173","waitTime":null,"status":"Closed","active":false,"lastUpdate":"2021-02-01T01:00:35.467Z","meta":{"type":"ATTRACTION","longitude":-81.552138,"latitude":28.374301,"singleRider":false},"fastPass":false,"name":"Awesome Planet"},{"id":"WaltDisneyWorldEpcot_20194","waitTime":null,"status":"Closed","active":false,"lastUpdate":"2021-02-01T01:00:37.442Z","name":"Soarin' Around the World","meta":{"latitude":28.373592,"longitude":-81.552248,"type":"ATTRACTION","singleRider":false},"fastPass":false},{"id":"WaltDisneyWorldEpcot_207395","waitTime":null,"status":"Closed","active":false,"lastUpdate":"2021-02-01T01:00:38.262Z","fastPass":false,"meta":{"singleRider":false,"type":"ATTRACTION","latitude":28.371649,"longitude":-81.547368},"name":"Gran Fiesta Tour Starring The Three Caballeros"},{"id":"WaltDisneyWorldEpcot_62992","waitTime":null,"status":"Closed","active":false,"lastUpdate":"2021-01-03T21:23:09.564Z","meta":{"type":"ATTRACTION","latitude":28.375255,"singleRider":false,"longitude":-81.551047},"name":"Turtle Talk With Crush - Temporarily Unavailable","fastPass":false},{"id":"WaltDisneyWorldEpcot_80010145","waitTime":null,"status":"Closed","active":false,"lastUpdate":"2021-02-01T00:45:36.884Z","fastPass":false,"name":"Impressions de France","meta":{"longitude":-81.552978,"latitude":28.368864,"singleRider":false,"type":"ATTRACTION"}},{"id":"WaltDisneyWorldEpcot_80010152","waitTime":null,"status":"Closed","active":false,"lastUpdate":"2021-02-01T01:00:38.761Z","meta":{"singleRider":false,"type":"ATTRACTION","longitude":-81.551401,"latitude":28.372994},"fastPass":false,"name":"Journey Into Imagination With Figment"},{"id":"WaltDisneyWorldEpcot_80010161","waitTime":null,"status":"Closed","active":false,"lastUpdate":"2021-02-01T01:00:34.922Z","name":"Living with the Land","meta":{"singleRider":false,"latitude":28.374245,"longitude":-81.552301,"type":"ATTRACTION"},"fastPass":false},{"id":"WaltDisneyWorldEpcot_80010173","waitTime":null,"status":"Closed","active":false,"lastUpdate":"2021-02-01T01:00:39.265Z","name":"Mission: SPACE","meta":{"latitude":28.373927,"type":"ATTRACTION","singleRider":false,"unsuitableForPregnantPeople":true,"longitude":-81.547156},"fastPass":false},{"id":"WaltDisneyWorldEpcot_80010174","waitTime":null,"status":"Closed","active":false,"lastUpdate":"2021-02-01T00:45:36.285Z","name":"Canada Far and Wide in Circle-Vision 360","fastPass":false,"meta":{"longitude":-81.55196,"singleRider":false,"type":"ATTRACTION","latitude":28.371694}},{"id":"WaltDisneyWorldEpcot_80010180","waitTime":null,"status":"Closed","active":false,"lastUpdate":"2021-02-01T01:00:39.748Z","name":"Reflections of China","fastPass":false,"meta":{"singleRider":false,"type":"ATTRACTION","longitude":-81.546381,"latitude":28.369791}},{"id":"WaltDisneyWorldEpcot_80010191","waitTime":null,"status":"Closed","active":false,"lastUpdate":"2021-02-01T01:00:40.218Z","name":"Spaceship Earth","fastPass":false,"meta":{"latitude":28.375583,"singleRider":false,"longitude":-81.549401,"type":"ATTRACTION"}},{"id":"WaltDisneyWorldEpcot_80010199","waitTime":null,"status":"Closed","active":false,"lastUpdate":"2021-02-01T01:00:40.676Z","meta":{"longitude":-81.547489,"type":"ATTRACTION","unsuitableForPregnantPeople":true,"singleRider":true,"latitude":28.373228},"name":"Test Track","fastPass":false},{"id":"WaltDisneyWorldEpcot_80010200","waitTime":null,"status":"Closed","active":false,"lastUpdate":"2021-02-01T01:00:41.650Z","fastPass":false,"meta":{"longitude":-81.549446,"type":"ATTRACTION","singleRider":false,"latitude":28.367517},"name":"The American Adventure"},{"id":"WaltDisneyWorldEpcot_90001292","waitTime":null,"status":"Operating","active":true,"lastUpdate":"2021-02-01T00:55:26.910Z","fastPass":false,"name":"Biergarten Restaurant","meta":{"type":"RESTAURANT","latitude":28.368153,"longitude":-81.546819,"singleRider":false}},{"id":"WaltDisneyWorldEpcot_90001416","waitTime":null,"status":"Operating","active":true,"lastUpdate":"2021-01-31T21:29:47.031Z","name":"Coral Reef Restaurant","fastPass":false,"meta":{"longitude":-81.550458,"type":"RESTAURANT","latitude":28.375096,"singleRider":false}},{"id":"WaltDisneyWorldEpcot_90001798","waitTime":null,"status":"Operating","active":true,"lastUpdate":"2021-02-01T00:05:27.333Z","fastPass":false,"name":"Le Cellier Steakhouse","meta":{"singleRider":false,"type":"RESTAURANT","longitude":-81.551512,"latitude":28.371657}},{"id":"WaltDisneyWorldEpcot_90002084","waitTime":null,"status":"Operating","active":true,"lastUpdate":"2021-02-01T00:55:33.533Z","meta":{"latitude":28.370508,"type":"RESTAURANT","singleRider":false,"longitude":-81.551684},"name":"Rose & Crown Dining Room","fastPass":false},{"id":"WaltDisneyWorldEpcot_90002100","waitTime":null,"status":"Operating","active":true,"lastUpdate":"2021-02-01T00:53:55.681Z","name":"San Angel Inn Restaurante    ","fastPass":false,"meta":{"type":"RESTAURANT","longitude":-81.547258,"singleRider":false,"latitude":28.371612}},{"id":"WaltDisneyWorldEpcot_90002237","waitTime":null,"status":"Operating","active":true,"lastUpdate":"2021-02-01T00:53:51.024Z","name":"Garden Grill Restaurant","meta":{"singleRider":false,"longitude":-81.552324,"type":"RESTAURANT","latitude":28.374039},"fastPass":false},{"id":"WaltDisneyWorldHollywoodStudios_136","waitTime":null,"status":"Closed","active":false,"lastUpdate":"2020-09-15T11:33:12.086Z","name":"Indiana Jones™ Epic Stunt Spectacular! - Temporarily Unavailable","fastPass":false,"meta":{"singleRider":false,"longitude":-81.5586114479,"latitude":28.3566700675}},{"id":"WaltDisneyWorldHollywoodStudios_17842841","waitTime":null,"status":"Closed","active":false,"lastUpdate":"2020-09-15T11:33:12.046Z","name":"For the First Time in Forever: A Frozen Sing-Along Celebration - Temporarily Unavailable","meta":{"longitude":-81.5596944094,"singleRider":false,"latitude":28.3568243464},"fastPass":false},{"id":"WaltDisneyWorldHollywoodStudios_18189394","waitTime":null,"status":"Closed","active":false,"lastUpdate":"2020-09-15T11:33:12.077Z","name":"Star Wars Launch Bay: Meet Chewbacca - Temporarily Unavailable","fastPass":false,"meta":{"latitude":28.35796,"longitude":-81.560938,"singleRider":false}},{"id":"WaltDisneyWorldHollywoodStudios_18189398","waitTime":null,"status":"Closed","active":false,"lastUpdate":"2020-09-15T11:33:12.069Z","fastPass":false,"name":"Star Wars Launch Bay: Encounter Darth Vader - Temporarily Unavailable","meta":{"longitude":-81.560938,"singleRider":false,"latitude":28.35796}},{"id":"WaltDisneyWorldHollywoodStudios_18360041","waitTime":null,"status":"Closed","active":false,"lastUpdate":"2021-01-03T21:23:31.878Z","fastPass":false,"meta":{"longitude":-81.561061,"type":"ATTRACTION","singleRider":false,"latitude":28.357821},"name":"Star Wars Launch Bay Theater - Temporarily Unavailable"},{"id":"WaltDisneyWorldHollywoodStudios_18368385","waitTime":null,"status":"Closed","active":false,"lastUpdate":"2020-09-15T11:33:12.104Z","fastPass":false,"name":"Celebrity Spotlight - Temporarily Unavailable","meta":{"longitude":-81.559158,"singleRider":false,"latitude":28.356072}},{"id":"WaltDisneyWorldHollywoodStudios_18368386","waitTime":null,"status":"Closed","active":false,"lastUpdate":"2020-09-15T11:33:12.095Z","name":"Mickey and Minnie Starring in Red Carpet Dreams - Temporarily Unavailable","meta":{"longitude":-81.559479,"latitude":28.356068,"singleRider":false},"fastPass":false},{"id":"WaltDisneyWorldHollywoodStudios_18669338","waitTime":null,"status":"Closed","active":false,"lastUpdate":"2020-09-15T11:33:12.121Z","fastPass":false,"name":"BB-8 Astromech on Duty - Temporarily Unavailable","meta":{"latitude":28.35796,"longitude":-81.560938,"singleRider":false}},{"id":"WaltDisneyWorldHollywoodStudios_18770880","waitTime":null,"status":"Closed","active":false,"lastUpdate":"2021-01-31T23:00:35.826Z","fastPass":false,"name":"Walt Disney Presents","meta":{"singleRider":false,"latitude":28.35686,"longitude":-81.560982,"type":"ATTRACTION"}},{"id":"WaltDisneyWorldHollywoodStudios_18904138","waitTime":null,"status":"Closed","active":false,"lastUpdate":"2021-02-01T00:00:36.366Z","name":"Slinky Dog Dash","meta":{"latitude":28.356245,"singleRider":false,"unsuitableForPregnantPeople":true,"longitude":-81.562786,"type":"ATTRACTION"},"fastPass":false},{"id":"WaltDisneyWorldHollywoodStudios_18904172","waitTime":null,"status":"Closed","active":false,"lastUpdate":"2021-02-01T00:00:38.623Z","name":"Alien Swirling Saucers","fastPass":false,"meta":{"latitude":28.355385,"singleRider":false,"longitude":-81.562379,"type":"ATTRACTION"}},{"id":"WaltDisneyWorldHollywoodStudios_19025682","waitTime":null,"status":"Operating","active":true,"lastUpdate":"2020-09-15T14:02:51.117Z","name":"Star Wars: Galaxy's Edge","fastPass":false,"meta":{"singleRider":false,"latitude":28.355234,"longitude":-81.559787}},{"id":"WaltDisneyWorldHollywoodStudios_19152250","waitTime":null,"status":"Closed","active":false,"lastUpdate":"2020-09-15T11:33:12.147Z","meta":{"singleRider":false,"longitude":-81.560984,"latitude":28.356865},"name":"Meet Sulley at Walt Disney Presents - Temporarily Unavailable","fastPass":false},{"id":"WaltDisneyWorldHollywoodStudios_19259335","waitTime":null,"status":"Closed","active":false,"lastUpdate":"2021-02-01T00:00:37.078Z","name":"Mickey & Minnie's Runaway Railway","meta":{"longitude":-81.5605667783,"type":"ATTRACTION","singleRider":false,"latitude":28.3566783801},"fastPass":false},{"id":"WaltDisneyWorldHollywoodStudios_19263735","waitTime":null,"status":"Closed","active":false,"lastUpdate":"2021-02-01T00:00:33.446Z","name":"Millennium Falcon: Smugglers Run","fastPass":false,"meta":{"latitude":28.353889,"longitude":-81.561689,"singleRider":true,"unsuitableForPregnantPeople":true,"type":"ATTRACTION"}},{"id":"WaltDisneyWorldHollywoodStudios_19263736","waitTime":null,"status":"Closed","active":false,"lastUpdate":"2021-02-01T00:00:26.416Z","meta":{"unsuitableForPregnantPeople":true,"type":"ATTRACTION","latitude":28.354884,"singleRider":false,"longitude":-81.560457},"name":"Star Wars: Rise of the Resistance","fastPass":false},{"id":"WaltDisneyWorldHollywoodStudios_19267226","waitTime":null,"status":"Closed","active":false,"lastUpdate":"2021-01-30T21:13:32.709Z","meta":{"latitude":28.354095,"type":"RESTAURANT","singleRider":false,"longitude":-81.562075},"name":"Oga's Cantina at the Walt Disney World Resort","fastPass":false},{"id":"WaltDisneyWorldHollywoodStudios_19276204","waitTime":null,"status":"Closed","active":false,"lastUpdate":"2021-01-31T23:00:36.802Z","name":"Lightning McQueen's Racing Academy","fastPass":false,"meta":{"latitude":28.360035,"singleRider":false,"longitude":-81.560707,"type":"ATTRACTION"}},{"id":"WaltDisneyWorldHollywoodStudios_19497952","waitTime":null,"status":"Closed","active":false,"lastUpdate":"2021-01-31T23:00:35.349Z","meta":{"singleRider":false,"longitude":-81.559031,"type":"ATTRACTION","latitude":28.356316},"name":"Vacation Fun - An Original Animated Short with Mickey & Minnie","fastPass":false},{"id":"WaltDisneyWorldHollywoodStudios_19582977","waitTime":null,"status":"Closed","active":false,"lastUpdate":"2020-09-15T11:33:12.211Z","fastPass":false,"name":"Disney Society Orchestra and Friends","meta":{"singleRider":false,"longitude":-81.5595985008,"latitude":28.3589162565}},{"id":"WaltDisneyWorldHollywoodStudios_19583373","waitTime":null,"status":"Closed","active":false,"lastUpdate":"2020-09-15T11:33:12.219Z","fastPass":false,"meta":{"singleRider":false,"latitude":28.357613,"longitude":-81.560567},"name":"Disney Junior Play and Dance!"},{"id":"WaltDisneyWorldHollywoodStudios_202731","waitTime":null,"status":"Closed","active":false,"lastUpdate":"2020-09-15T11:33:12.226Z","fastPass":false,"name":"Disney Junior Dance Party! - Temporarily Unavailable","meta":{"latitude":28.357613,"singleRider":false,"longitude":-81.560567}},{"id":"WaltDisneyWorldHollywoodStudios_209857","waitTime":null,"status":"Closed","active":false,"lastUpdate":"2021-02-01T00:00:37.609Z","meta":{"type":"ATTRACTION","latitude":28.356404,"longitude":-81.561894,"singleRider":false},"fastPass":false,"name":"Toy Story Mania!"},{"id":"WaltDisneyWorldHollywoodStudios_80010151","waitTime":null,"status":"Closed","active":false,"lastUpdate":"2021-01-31T23:00:32.564Z","name":"Muppet*Vision 3D","fastPass":false,"meta":{"type":"ATTRACTION","latitude":28.3550644708,"longitude":-81.5594643904,"singleRider":false}},{"id":"WaltDisneyWorldHollywoodStudios_80010182","waitTime":null,"status":"Closed","active":false,"lastUpdate":"2021-02-01T00:00:25.663Z","fastPass":false,"name":"Rock 'n' Roller Coaster Starring Aerosmith","meta":{"type":"ATTRACTION","longitude":-81.56059,"unsuitableForPregnantPeople":true,"singleRider":true,"latitude":28.359712}},{"id":"WaltDisneyWorldHollywoodStudios_80010193","waitTime":null,"status":"Closed","active":false,"lastUpdate":"2021-02-01T00:00:39.131Z","name":"Star Tours – The Adventures Continue","fastPass":false,"meta":{"longitude":-81.558891,"singleRider":false,"unsuitableForPregnantPeople":true,"type":"ATTRACTION","latitude":28.355695}},{"id":"WaltDisneyWorldHollywoodStudios_80010218","waitTime":null,"status":"Closed","active":false,"lastUpdate":"2021-02-01T00:00:38.141Z","name":"The Twilight Zone Tower of Terror™","meta":{"singleRider":false,"latitude":28.359553,"unsuitableForPregnantPeople":true,"longitude":-81.559772,"type":"ATTRACTION"},"fastPass":false},{"id":"WaltDisneyWorldHollywoodStudios_80010848","waitTime":null,"status":"Closed","active":false,"lastUpdate":"2020-09-15T11:33:12.284Z","meta":{"singleRider":false,"latitude":28.3589162565,"longitude":-81.5595985008},"fastPass":false,"name":"Beauty and the Beast-Live on Stage - Temporarily Unavailable"},{"id":"WaltDisneyWorldHollywoodStudios_80010896","waitTime":null,"status":"Closed","active":false,"lastUpdate":"2020-09-15T11:33:12.290Z","fastPass":false,"meta":{"latitude":28.3574862147,"singleRider":false,"longitude":-81.5608484102},"name":"Voyage of The Little Mermaid - Temporarily Unavailable"},{"id":"WaltDisneyWorldHollywoodStudios_90001216","waitTime":null,"status":"Operating","active":true,"lastUpdate":"2021-01-27T16:37:33.771Z","name":"50's Prime Time Café","meta":{"longitude":-81.558881,"latitude":28.357444,"singleRider":false,"type":"RESTAURANT"},"fastPass":false},{"id":"WaltDisneyWorldHollywoodStudios_90001744","waitTime":null,"status":"Closed","active":false,"lastUpdate":"2021-01-30T21:13:33.319Z","name":"Hollywood & Vine","meta":{"latitude":28.357611,"type":"RESTAURANT","longitude":-81.558975,"singleRider":false},"fastPass":false},{"id":"WaltDisneyWorldHollywoodStudios_90001865","waitTime":null,"status":"Operating","active":true,"lastUpdate":"2021-01-31T23:55:19.686Z","name":"Mama Melrose's Ristorante Italiano","meta":{"singleRider":false,"latitude":28.354532,"longitude":-81.559012,"type":"RESTAURANT"},"fastPass":false},{"id":"WaltDisneyWorldHollywoodStudios_90002114","waitTime":null,"status":"Operating","active":true,"lastUpdate":"2021-01-27T20:00:33.859Z","name":"Sci-Fi Dine-In Theater Restaurant","meta":{"type":"RESTAURANT","longitude":-81.559495,"singleRider":false,"latitude":28.3559},"fastPass":false},{"id":"WaltDisneyWorldHollywoodStudios_90002245","waitTime":null,"status":"Operating","active":true,"lastUpdate":"2021-01-31T22:26:46.900Z","name":"The Hollywood Brown Derby","fastPass":false,"meta":{"latitude":28.357648,"longitude":-81.560297,"type":"RESTAURANT","singleRider":false}},{"id":"WaltDisneyWorldAnimalKingdom_17421326","waitTime":null,"status":"Closed","active":false,"lastUpdate":"2020-09-15T11:33:02.632Z","name":"Meet Favorite Disney Pals at Adventurers Outpost - Temporarily Unavailable","fastPass":false,"meta":{"longitude":-81.589796,"latitude":28.357972,"singleRider":false}},{"id":"WaltDisneyWorldAnimalKingdom_18069632","waitTime":null,"status":"Operating","active":true,"lastUpdate":"2021-01-31T21:56:22.856Z","meta":{"singleRider":false,"latitude":28.356846,"longitude":-81.591487,"type":"RESTAURANT"},"name":"Tiffins Restaurant","fastPass":false},{"id":"WaltDisneyWorldAnimalKingdom_18377778","waitTime":null,"status":"Operating","active":true,"lastUpdate":"2021-01-31T22:12:25.407Z","name":"Nomad Lounge","meta":{"latitude":28.356719,"type":"RESTAURANT","longitude":-81.591487,"singleRider":false},"fastPass":false},{"id":"WaltDisneyWorldAnimalKingdom_18665185","waitTime":null,"status":"Closed","active":false,"lastUpdate":"2021-01-31T22:00:34.642Z","name":"Na'vi River Journey","fastPass":false,"meta":{"longitude":-81.591641,"singleRider":false,"latitude":28.355257,"type":"ATTRACTION"}},{"id":"WaltDisneyWorldAnimalKingdom_18665186","waitTime":null,"status":"Closed","active":false,"lastUpdate":"2021-01-31T22:00:38.674Z","name":"Avatar Flight of Passage","meta":{"singleRider":false,"longitude":-81.592147,"type":"ATTRACTION","latitude":28.355554,"unsuitableForPregnantPeople":true},"fastPass":false},{"id":"WaltDisneyWorldAnimalKingdom_19330300","waitTime":null,"status":"Closed","active":false,"lastUpdate":"2021-01-31T22:12:40.317Z","meta":{"longitude":-81.588669,"singleRider":false,"type":"ATTRACTION","latitude":28.365188},"name":"The Animation Experience at Conservation Station","fastPass":false},{"id":"WaltDisneyWorldAnimalKingdom_26068","waitTime":null,"status":"Closed","active":false,"lastUpdate":"2021-01-31T22:00:38.111Z","meta":{"singleRider":false,"type":"ATTRACTION","longitude":-81.5873781396,"unsuitableForPregnantPeople":true,"latitude":28.3584769119},"name":"Expedition Everest - Legend of the Forbidden Mountain","fastPass":false},{"id":"WaltDisneyWorldAnimalKingdom_80010123","waitTime":null,"status":"Closed","active":false,"lastUpdate":"2021-01-31T22:00:39.245Z","fastPass":false,"name":"DINOSAUR","meta":{"unsuitableForPregnantPeople":true,"longitude":-81.588444,"singleRider":false,"type":"ATTRACTION","latitude":28.355307}},{"id":"WaltDisneyWorldAnimalKingdom_80010150","waitTime":null,"status":"Closed","active":false,"lastUpdate":"2021-01-31T22:00:35.382Z","name":"It's Tough to be a Bug!","meta":{"longitude":-81.590118,"singleRider":false,"type":"ATTRACTION","latitude":28.357488},"fastPass":false},{"id":"WaltDisneyWorldAnimalKingdom_80010154","waitTime":null,"status":"Refurbishment","active":false,"lastUpdate":"2021-01-04T05:02:16.994Z","meta":{"longitude":-81.5889412165,"unsuitableForPregnantPeople":true,"latitude":28.3587834288,"singleRider":false,"type":"ATTRACTION"},"fastPass":false,"name":"Kali River Rapids"},{"id":"WaltDisneyWorldAnimalKingdom_80010157","waitTime":null,"status":"Closed","active":false,"lastUpdate":"2021-01-31T22:00:33.242Z","name":"Kilimanjaro Safaris","meta":{"singleRider":false,"unsuitableForPregnantPeople":true,"latitude":28.359331,"type":"ATTRACTION","longitude":-81.59228},"fastPass":false},{"id":"WaltDisneyWorldAnimalKingdom_80010164","waitTime":null,"status":"Closed","active":false,"lastUpdate":"2021-01-31T22:00:39.806Z","meta":{"singleRider":false,"latitude":28.359379,"longitude":-81.589019,"type":"ATTRACTION"},"fastPass":false,"name":"Maharajah Jungle Trek"},{"id":"WaltDisneyWorldAnimalKingdom_80010175","waitTime":null,"status":"Closed","active":false,"lastUpdate":"2021-01-31T21:30:34.236Z","fastPass":false,"meta":{"latitude":28.359954,"type":"ATTRACTION","singleRider":false,"longitude":-81.592149},"name":"Gorilla Falls Exploration Trail"},{"id":"WaltDisneyWorldAnimalKingdom_80010203","waitTime":null,"status":"Closed","active":false,"lastUpdate":"2021-01-03T21:23:41.107Z","meta":{"type":"ATTRACTION","latitude":28.3566787564,"singleRider":false,"longitude":-81.5884791864},"name":"The Boneyard - Temporarily Unavailable","fastPass":false},{"id":"WaltDisneyWorldAnimalKingdom_80010228","waitTime":null,"status":"Closed","active":false,"lastUpdate":"2021-01-31T22:00:34.129Z","fastPass":false,"name":"TriceraTop Spin","meta":{"longitude":-81.588074,"singleRider":false,"latitude":28.356503,"type":"ATTRACTION"}},{"id":"WaltDisneyWorldAnimalKingdom_80010235","waitTime":null,"status":"Closed","active":false,"lastUpdate":"2021-01-31T21:30:35.382Z","fastPass":false,"name":"Wildlife Express Train","meta":{"singleRider":false,"type":"ATTRACTION","latitude":28.3598097347,"longitude":-81.5914175464}},{"id":"WaltDisneyWorldMagicKingdom_136550","waitTime":null,"status":"Closed","active":false,"lastUpdate":"2021-01-03T21:24:21.706Z","fastPass":false,"meta":{"singleRider":false,"latitude":28.4183977566,"type":"ATTRACTION","longitude":-81.5797358751},"name":"Monsters, Inc. Laugh Floor - Temporarily Unavailable"},{"id":"WaltDisneyWorldMagicKingdom_15743682","waitTime":null,"status":"Closed","active":false,"lastUpdate":"2020-09-15T11:33:17.406Z","meta":{"latitude":28.421282,"longitude":-81.578932,"singleRider":false},"fastPass":false,"name":"Meet Dashing Disney Pals as Circus Stars at Pete’s Silly Side Show - Temporarily Unavailable"},{"id":"WaltDisneyWorldMagicKingdom_15850196","waitTime":null,"status":"Closed","active":false,"lastUpdate":"2020-09-15T11:33:17.374Z","name":"Meet Mickey Mouse at Town Square Theater - Temporarily Unavailable","meta":{"singleRider":false,"longitude":-81.580746,"latitude":28.416727},"fastPass":false},{"id":"WaltDisneyWorldMagicKingdom_16124144","waitTime":null,"status":"Closed","active":false,"lastUpdate":"2021-02-01T02:00:33.730Z","fastPass":false,"name":"Walt Disney's Enchanted Tiki Room","meta":{"longitude":-81.583738382,"singleRider":false,"type":"ATTRACTION","latitude":28.4182264646}},{"id":"WaltDisneyWorldMagicKingdom_16414579","waitTime":null,"status":"Closed","active":false,"lastUpdate":"2021-01-24T23:00:36.558Z","meta":{"longitude":-81.58163,"singleRider":false,"type":"ATTRACTION","latitude":28.416944},"fastPass":false,"name":"Sorcerers of the Magic Kingdom"},{"id":"WaltDisneyWorldMagicKingdom_16491297","waitTime":null,"status":"Closed","active":false,"lastUpdate":"2021-02-01T02:00:24.935Z","name":"The Barnstormer","meta":{"unsuitableForPregnantPeople":true,"type":"ATTRACTION","singleRider":false,"longitude":-81.5783907473,"latitude":28.4207661576},"fastPass":false},{"id":"WaltDisneyWorldMagicKingdom_16491299","waitTime":null,"status":"Refurbishment","active":false,"lastUpdate":"2021-01-03T21:24:18.928Z","name":"Walt Disney World Railroad - Fantasyland - Temporarily Unavailable","meta":{"longitude":-81.578368,"singleRider":false,"type":"ATTRACTION","latitude":28.420934},"fastPass":false},{"id":"WaltDisneyWorldMagicKingdom_16660079","waitTime":null,"status":"Operating","active":true,"lastUpdate":"2021-02-01T00:55:05.745Z","name":"Be Our Guest Restaurant","meta":{"type":"RESTAURANT","singleRider":false,"latitude":28.4212491492,"longitude":-81.5807074858},"fastPass":false},{"id":"WaltDisneyWorldMagicKingdom_16767263","waitTime":null,"status":"Closed","active":false,"lastUpdate":"2021-02-01T02:00:38.891Z","name":"Under the Sea ~ Journey of The Little Mermaid","fastPass":false,"meta":{"longitude":-81.5799752427,"type":"ATTRACTION","latitude":28.4211203226,"singleRider":false}},{"id":"WaltDisneyWorldMagicKingdom_16767276","waitTime":null,"status":"Closed","active":false,"lastUpdate":"2021-01-03T21:24:20.764Z","meta":{"type":"ATTRACTION","longitude":-81.58093011,"singleRider":false,"latitude":28.42099058},"fastPass":false,"name":"Enchanted Tales with Belle - Temporarily Unavailable"},{"id":"WaltDisneyWorldMagicKingdom_16767284","waitTime":null,"status":"Closed","active":false,"lastUpdate":"2021-02-01T02:00:39.913Z","name":"Seven Dwarfs Mine Train","fastPass":false,"meta":{"singleRider":false,"unsuitableForPregnantPeople":true,"latitude":28.42037,"longitude":-81.58031,"type":"ATTRACTION"}},{"id":"WaltDisneyWorldMagicKingdom_16874126","waitTime":null,"status":"Closed","active":false,"lastUpdate":"2020-09-15T11:33:17.441Z","fastPass":false,"name":"Meet Ariel at Her Grotto - Temporarily Unavailable","meta":{"longitude":-81.579613144497,"singleRider":false,"latitude":28.420893275289}},{"id":"WaltDisneyWorldMagicKingdom_17272158","waitTime":null,"status":"Closed","active":false,"lastUpdate":"2021-01-03T21:24:21.210Z","fastPass":false,"meta":{"latitude":28.41837254,"singleRider":false,"type":"ATTRACTION","longitude":-81.58466913},"name":"A Pirate's Adventure ~ Treasures of the Seven Seas - Temporarily Unavailable"},{"id":"WaltDisneyWorldMagicKingdom_17505397","waitTime":null,"status":"Closed","active":false,"lastUpdate":"2020-09-15T11:33:17.486Z","name":"Meet Rapunzel and Tiana at Princess Fairytale Hall - Temporarily Unavailable","meta":{"singleRider":false,"longitude":-81.580917439677,"latitude":28.420045752669},"fastPass":false},{"id":"WaltDisneyWorldMagicKingdom_17752793","waitTime":null,"status":"Closed","active":false,"lastUpdate":"2020-09-15T11:33:17.444Z","meta":{"singleRider":false,"latitude":28.416727,"longitude":-81.580815},"name":"Meet Tinker Bell at Town Square Theater - Temporarily Unavailable","fastPass":false},{"id":"WaltDisneyWorldMagicKingdom_18185631","waitTime":null,"status":"Operating","active":true,"lastUpdate":"2021-01-31T23:02:37.634Z","name":"Jungle Navigation Co. LTD Skipper Canteen","fastPass":false,"meta":{"singleRider":false,"type":"RESTAURANT","latitude":28.418491,"longitude":-81.582592}},{"id":"WaltDisneyWorldMagicKingdom_18498503","waitTime":null,"status":"Closed","active":false,"lastUpdate":"2020-09-15T11:33:17.494Z","meta":{"latitude":28.420012,"longitude":-81.58094,"singleRider":false},"name":"Meet Cinderella and Elena at Princess Fairytale Hall - Temporarily Unavailable","fastPass":false},{"id":"WaltDisneyWorldMagicKingdom_2219610","waitTime":null,"status":"Refurbishment","active":false,"lastUpdate":"2021-01-03T21:23:08.615Z","meta":{"longitude":-81.585078,"latitude":28.41969,"type":"ATTRACTION","singleRider":false},"name":"Walt Disney World Railroad - Frontierland - Temporarily Unavailable","fastPass":false},{"id":"WaltDisneyWorldMagicKingdom_387133","waitTime":null,"status":"Closed","active":false,"lastUpdate":"2020-09-15T11:33:17.492Z","meta":{"singleRider":false,"latitude":28.421282,"longitude":-81.578932},"fastPass":false,"name":"Meet Daring Disney Pals as Circus Stars at Pete's Silly Side Show - Temporarily Unavailable"},{"id":"WaltDisneyWorldMagicKingdom_80010107","waitTime":null,"status":"Closed","active":false,"lastUpdate":"2021-02-01T02:00:44.510Z","meta":{"type":"ATTRACTION","singleRider":false,"latitude":28.4184926179,"longitude":-81.5789887902},"fastPass":false,"name":"Astro Orbiter"},{"id":"WaltDisneyWorldMagicKingdom_80010110","waitTime":null,"status":"Closed","active":false,"lastUpdate":"2021-02-01T02:00:38.205Z","fastPass":false,"name":"Big Thunder Mountain Railroad","meta":{"singleRider":false,"longitude":-81.5846422864,"type":"ATTRACTION","latitude":28.4199638504,"unsuitableForPregnantPeople":true}},{"id":"WaltDisneyWorldMagicKingdom_80010114","waitTime":null,"status":"Closed","active":false,"lastUpdate":"2021-02-01T02:00:45.000Z","name":"Buzz Lightyear's Space Ranger Spin","fastPass":false,"meta":{"longitude":-81.5794086456,"latitude":28.4182868839,"singleRider":false,"type":"ATTRACTION"}},{"id":"WaltDisneyWorldMagicKingdom_80010117","waitTime":null,"status":"Closed","active":false,"lastUpdate":"2021-02-01T02:00:39.434Z","fastPass":false,"name":"Prince Charming Regal Carrousel","meta":{"type":"ATTRACTION","longitude":-81.581255,"singleRider":false,"latitude":28.420169}},{"id":"WaltDisneyWorldMagicKingdom_80010129","waitTime":null,"status":"Closed","active":false,"lastUpdate":"2021-02-01T02:00:40.412Z","name":"Dumbo the Flying Elephant","meta":{"longitude":-81.5789473057,"type":"ATTRACTION","singleRider":false,"latitude":28.420509033},"fastPass":false},{"id":"WaltDisneyWorldMagicKingdom_80010149","waitTime":null,"status":"Closed","active":false,"lastUpdate":"2021-02-01T02:00:36.603Z","name":"\"it's a small world\"","fastPass":false,"meta":{"longitude":-81.5820392026,"latitude":28.4204816402,"singleRider":false,"type":"ATTRACTION"}},{"id":"WaltDisneyWorldMagicKingdom_80010153","waitTime":null,"status":"Closed","active":false,"lastUpdate":"2021-02-01T02:00:45.495Z","name":"Jungle Cruise","fastPass":false,"meta":{"type":"ATTRACTION","longitude":-81.5834393157,"latitude":28.41797818,"singleRider":false}},{"id":"WaltDisneyWorldMagicKingdom_80010160","waitTime":null,"status":"Refurbishment","active":false,"lastUpdate":"2021-01-03T21:23:48.006Z","meta":{"longitude":-81.5827982677,"singleRider":false,"latitude":28.4195563399,"type":"ATTRACTION"},"fastPass":false,"name":"Liberty Square Riverboat"},{"id":"WaltDisneyWorldMagicKingdom_80010162","waitTime":null,"status":"Closed","active":false,"lastUpdate":"2021-02-01T02:00:40.962Z","name":"Mad Tea Party","meta":{"longitude":-81.5798248916,"type":"ATTRACTION","singleRider":false,"latitude":28.4200230397},"fastPass":false},{"id":"WaltDisneyWorldMagicKingdom_80010165","waitTime":null,"status":"Closed","active":false,"lastUpdate":"2021-01-03T21:24:20.300Z","name":"Main Street Vehicles - Temporarily Unavailable","meta":{"singleRider":false,"type":"ATTRACTION","longitude":-81.5815081252,"latitude":28.4168698711},"fastPass":false},{"id":"WaltDisneyWorldMagicKingdom_80010170","waitTime":null,"status":"Closed","active":false,"lastUpdate":"2021-02-01T02:00:41.477Z","meta":{"singleRider":false,"type":"ATTRACTION","latitude":28.4200304909,"longitude":-81.5814839853},"name":"Mickey's PhilharMagic","fastPass":false},{"id":"WaltDisneyWorldMagicKingdom_80010176","waitTime":null,"status":"Closed","active":false,"lastUpdate":"2021-02-01T02:00:41.989Z","name":"Peter Pan's Flight","meta":{"type":"ATTRACTION","longitude":-81.5818916811,"singleRider":false,"latitude":28.4202640272},"fastPass":false},{"id":"WaltDisneyWorldMagicKingdom_80010177","waitTime":null,"status":"Closed","active":false,"lastUpdate":"2021-02-01T02:00:46.490Z","name":"Pirates of the Caribbean","meta":{"longitude":-81.5842252,"type":"ATTRACTION","latitude":28.41796992,"singleRider":false},"fastPass":false},{"id":"WaltDisneyWorldMagicKingdom_80010190","waitTime":null,"status":"Closed","active":false,"lastUpdate":"2021-02-01T02:00:24.279Z","meta":{"longitude":-81.5781962872,"latitude":28.4188341691,"unsuitableForPregnantPeople":true,"type":"ATTRACTION","singleRider":false},"fastPass":false,"name":"Space Mountain"},{"id":"WaltDisneyWorldMagicKingdom_80010192","waitTime":null,"status":"Closed","active":false,"lastUpdate":"2021-02-01T02:00:46.024Z","name":"Splash Mountain","meta":{"unsuitableForPregnantPeople":true,"latitude":28.419418,"longitude":-81.58498,"type":"ATTRACTION","singleRider":false},"fastPass":false},{"id":"WaltDisneyWorldMagicKingdom_80010196","waitTime":null,"status":"Closed","active":false,"lastUpdate":"2021-02-01T02:00:42.481Z","name":"Swiss Family Treehouse","fastPass":false,"meta":{"longitude":-81.5827982677,"latitude":28.4184325517,"singleRider":false,"type":"ATTRACTION"}},{"id":"WaltDisneyWorldMagicKingdom_80010208","waitTime":null,"status":"Closed","active":false,"lastUpdate":"2021-02-01T02:00:46.987Z","name":"Haunted Mansion","meta":{"singleRider":false,"type":"ATTRACTION","longitude":-81.58288,"latitude":28.4202},"fastPass":false},{"id":"WaltDisneyWorldMagicKingdom_80010210","waitTime":null,"status":"Closed","active":false,"lastUpdate":"2021-02-01T02:00:43.013Z","name":"The Magic Carpets of Aladdin","fastPass":false,"meta":{"type":"ATTRACTION","latitude":28.41843,"singleRider":false,"longitude":-81.583472}},{"id":"WaltDisneyWorldMagicKingdom_80010213","waitTime":null,"status":"Closed","active":false,"lastUpdate":"2021-02-01T02:00:43.503Z","fastPass":false,"name":"The Many Adventures of Winnie the Pooh","meta":{"type":"ATTRACTION","longitude":-81.580266,"latitude":28.420212,"singleRider":false}},{"id":"WaltDisneyWorldMagicKingdom_80010220","waitTime":null,"status":"Refurbishment","active":false,"lastUpdate":"2021-01-03T21:24:19.374Z","fastPass":false,"name":"Tom Sawyer Island","meta":{"latitude":28.419503,"longitude":-81.58428,"singleRider":false,"type":"ATTRACTION"}},{"id":"WaltDisneyWorldMagicKingdom_80010222","waitTime":null,"status":"Closed","active":false,"lastUpdate":"2021-02-01T02:00:44.002Z","name":"Tomorrowland Speedway","meta":{"type":"ATTRACTION","unsuitableForPregnantPeople":true,"latitude":28.419368,"longitude":-81.579302,"singleRider":false},"fastPass":false},{"id":"WaltDisneyWorldMagicKingdom_80010224","waitTime":null,"status":"Refurbishment","active":false,"lastUpdate":"2021-01-03T21:24:19.826Z","fastPass":false,"name":"Tomorrowland Transit Authority PeopleMover - Temporarily Unavailable","meta":{"type":"ATTRACTION","latitude":28.418155,"longitude":-81.579033,"singleRider":false}},{"id":"WaltDisneyWorldMagicKingdom_80010230","waitTime":null,"status":"Refurbishment","active":false,"lastUpdate":"2021-01-03T21:23:09.088Z","name":"Walt Disney World Railroad - Main Street, U.S.A. - Temporarily Unavailable","fastPass":false,"meta":{"latitude":28.416543,"singleRider":false,"longitude":-81.581204,"type":"ATTRACTION"}},{"id":"WaltDisneyWorldMagicKingdom_80010232","waitTime":null,"status":"Closed","active":false,"lastUpdate":"2021-02-01T01:00:41.172Z","fastPass":false,"name":"Walt Disney's Carousel of Progress","meta":{"latitude":28.4180310951,"type":"ATTRACTION","longitude":-81.5790083064,"singleRider":false}},{"id":"WaltDisneyWorldMagicKingdom_80069748","waitTime":null,"status":"Closed","active":false,"lastUpdate":"2021-02-01T02:00:37.548Z","name":"Country Bear Jamboree","fastPass":false,"meta":{"longitude":-81.5837222887,"latitude":28.4187861348,"singleRider":false,"type":"ATTRACTION"}},{"id":"WaltDisneyWorldMagicKingdom_80069754","waitTime":null,"status":"Refurbishment","active":false,"lastUpdate":"2021-01-21T05:00:35.597Z","fastPass":false,"meta":{"latitude":28.4194484171,"type":"ATTRACTION","longitude":-81.5823248578,"singleRider":false},"name":"The Hall of Presidents"},{"id":"WaltDisneyWorldMagicKingdom_90001815","waitTime":null,"status":"Refurbishment","active":false,"lastUpdate":"2021-01-11T05:03:18.974Z","meta":{"singleRider":false,"longitude":-81.5825378,"type":"RESTAURANT","latitude":28.4195299},"fastPass":false,"name":"Liberty Square Market - Temporarily Unavailable"},{"id":"WaltDisneyWorldMagicKingdom_90001819","waitTime":null,"status":"Operating","active":true,"lastUpdate":"2021-02-01T00:01:41.145Z","name":"Liberty Tree Tavern","meta":{"longitude":-81.5826159743,"latitude":28.4191196055,"singleRider":false,"type":"RESTAURANT"},"fastPass":false},{"id":"WaltDisneyWorldMagicKingdom_90002464","waitTime":null,"status":"Operating","active":true,"lastUpdate":"2021-01-28T22:02:13.916Z","fastPass":false,"meta":{"singleRider":false,"type":"RESTAURANT","longitude":-81.581101,"latitude":28.4195},"name":"Cinderella's Royal Table"},{"id":"WaltDisneyWorldMagicKingdom_90002660","waitTime":null,"status":"Operating","active":true,"lastUpdate":"2021-01-31T23:44:34.382Z","name":"The Crystal Palace","meta":{"longitude":-81.5818970259,"latitude":28.4181214892,"singleRider":false,"type":"RESTAURANT"},"fastPass":false},{"id":"WaltDisneyWorldMagicKingdom_90002670","waitTime":null,"status":"Operating","active":true,"lastUpdate":"2021-01-31T23:54:20.591Z","name":"The Plaza Restaurant","meta":{"latitude":28.4180247703,"longitude":-81.5809394969,"singleRider":false,"type":"RESTAURANT"},"fastPass":false},{"id":"WaltDisneyWorldMagicKingdom_90002678","waitTime":null,"status":"Operating","active":true,"lastUpdate":"2021-01-31T23:10:52.971Z","name":"Tony's Town Square Restaurant","fastPass":false,"meta":{"singleRider":false,"type":"RESTAURANT","latitude":28.4169323426,"longitude":-81.5807276023}},{"id":"WaltDisneyWorldEpcot_107785","waitTime":null,"status":"Closed","active":false,"lastUpdate":"2021-02-01T01:00:36.104Z","fastPass":false,"name":"The Seas with Nemo & Friends","meta":{"longitude":-81.550852,"latitude":28.374904,"singleRider":false,"type":"ATTRACTION"}},{"id":"WaltDisneyWorldEpcot_15525573","waitTime":null,"status":"Operating","active":true,"lastUpdate":"2021-01-31T22:38:23.845Z","fastPass":false,"name":"La Hacienda de San Angel","meta":{"latitude":28.371221,"longitude":-81.547532,"type":"RESTAURANT","singleRider":false}},{"id":"WaltDisneyWorldEpcot_17564219","waitTime":null,"status":"Closed","active":false,"lastUpdate":"2020-09-15T11:33:07.103Z","fastPass":false,"name":"Meet Anna and Elsa at Royal Sommerhus - Temporarily Unavailable","meta":{"longitude":-81.547134,"latitude":28.37097,"singleRider":false}},{"id":"WaltDisneyWorldEpcot_17720675","waitTime":null,"status":"Operating","active":true,"lastUpdate":"2021-02-01T00:55:26.164Z","meta":{"singleRider":false,"longitude":-81.551645,"type":"RESTAURANT","latitude":28.368468},"fastPass":false,"name":"Spice Road Table"},{"id":"WaltDisneyWorldEpcot_18269694","waitTime":null,"status":"Closed","active":false,"lastUpdate":"2021-02-01T01:00:36.716Z","name":"Disney and Pixar Short Film Festival","meta":{"type":"ATTRACTION","latitude":28.37263,"longitude":-81.55115,"singleRider":false},"fastPass":false},{"id":"WaltDisneyWorldEpcot_18375495","waitTime":null,"status":"Closed","active":false,"lastUpdate":"2021-02-01T01:00:42.092Z","fastPass":false,"meta":{"singleRider":false,"latitude":28.370745,"type":"ATTRACTION","longitude":-81.54653},"name":"Frozen Ever After"},{"id":"WaltDisneyWorldEpcot_19463785","waitTime":null,"status":"Closed","active":false,"lastUpdate":"2021-01-31T23:00:36.330Z","meta":{"type":"ATTRACTION","latitude":28.368864,"singleRider":false,"longitude":-81.552978},"name":"Beauty and the Beast Sing-Along","fastPass":false},{"id":"WaltDisneyWorldEpcot_19473173","waitTime":null,"status":"Closed","active":false,"lastUpdate":"2021-02-01T01:00:35.467Z","meta":{"type":"ATTRACTION","longitude":-81.552138,"latitude":28.374301,"singleRider":false},"fastPass":false,"name":"Awesome Planet"},{"id":"WaltDisneyWorldEpcot_20194","waitTime":null,"status":"Closed","active":false,"lastUpdate":"2021-02-01T01:00:37.442Z","name":"Soarin' Around the World","meta":{"latitude":28.373592,"longitude":-81.552248,"type":"ATTRACTION","singleRider":false},"fastPass":false},{"id":"WaltDisneyWorldEpcot_207395","waitTime":null,"status":"Closed","active":false,"lastUpdate":"2021-02-01T01:00:38.262Z","fastPass":false,"meta":{"singleRider":false,"type":"ATTRACTION","latitude":28.371649,"longitude":-81.547368},"name":"Gran Fiesta Tour Starring The Three Caballeros"},{"id":"WaltDisneyWorldEpcot_62992","waitTime":null,"status":"Closed","active":false,"lastUpdate":"2021-01-03T21:23:09.564Z","meta":{"type":"ATTRACTION","latitude":28.375255,"singleRider":false,"longitude":-81.551047},"name":"Turtle Talk With Crush - Temporarily Unavailable","fastPass":false},{"id":"WaltDisneyWorldEpcot_80010145","waitTime":null,"status":"Closed","active":false,"lastUpdate":"2021-02-01T00:45:36.884Z","fastPass":false,"name":"Impressions de France","meta":{"longitude":-81.552978,"latitude":28.368864,"singleRider":false,"type":"ATTRACTION"}},{"id":"WaltDisneyWorldEpcot_80010152","waitTime":null,"status":"Closed","active":false,"lastUpdate":"2021-02-01T01:00:38.761Z","meta":{"singleRider":false,"type":"ATTRACTION","longitude":-81.551401,"latitude":28.372994},"fastPass":false,"name":"Journey Into Imagination With Figment"},{"id":"WaltDisneyWorldEpcot_80010161","waitTime":null,"status":"Closed","active":false,"lastUpdate":"2021-02-01T01:00:34.922Z","name":"Living with the Land","meta":{"singleRider":false,"latitude":28.374245,"longitude":-81.552301,"type":"ATTRACTION"},"fastPass":false},{"id":"WaltDisneyWorldEpcot_80010173","waitTime":null,"status":"Closed","active":false,"lastUpdate":"2021-02-01T01:00:39.265Z","name":"Mission: SPACE","meta":{"latitude":28.373927,"type":"ATTRACTION","singleRider":false,"unsuitableForPregnantPeople":true,"longitude":-81.547156},"fastPass":false},{"id":"WaltDisneyWorldEpcot_80010174","waitTime":null,"status":"Closed","active":false,"lastUpdate":"2021-02-01T00:45:36.285Z","name":"Canada Far and Wide in Circle-Vision 360","fastPass":false,"meta":{"longitude":-81.55196,"singleRider":false,"type":"ATTRACTION","latitude":28.371694}},{"id":"WaltDisneyWorldEpcot_80010180","waitTime":null,"status":"Closed","active":false,"lastUpdate":"2021-02-01T01:00:39.748Z","name":"Reflections of China","fastPass":false,"meta":{"singleRider":false,"type":"ATTRACTION","longitude":-81.546381,"latitude":28.369791}},{"id":"WaltDisneyWorldEpcot_80010191","waitTime":null,"status":"Closed","active":false,"lastUpdate":"2021-02-01T01:00:40.218Z","name":"Spaceship Earth","fastPass":false,"meta":{"latitude":28.375583,"singleRider":false,"longitude":-81.549401,"type":"ATTRACTION"}},{"id":"WaltDisneyWorldEpcot_80010199","waitTime":null,"status":"Closed","active":false,"lastUpdate":"2021-02-01T01:00:40.676Z","meta":{"longitude":-81.547489,"type":"ATTRACTION","unsuitableForPregnantPeople":true,"singleRider":true,"latitude":28.373228},"name":"Test Track","fastPass":false},{"id":"WaltDisneyWorldEpcot_80010200","waitTime":null,"status":"Closed","active":false,"lastUpdate":"2021-02-01T01:00:41.650Z","fastPass":false,"meta":{"longitude":-81.549446,"type":"ATTRACTION","singleRider":false,"latitude":28.367517},"name":"The American Adventure"},{"id":"WaltDisneyWorldEpcot_90001292","waitTime":null,"status":"Operating","active":true,"lastUpdate":"2021-02-01T00:55:26.910Z","fastPass":false,"name":"Biergarten Restaurant","meta":{"type":"RESTAURANT","latitude":28.368153,"longitude":-81.546819,"singleRider":false}},{"id":"WaltDisneyWorldEpcot_90001416","waitTime":null,"status":"Operating","active":true,"lastUpdate":"2021-01-31T21:29:47.031Z","name":"Coral Reef Restaurant","fastPass":false,"meta":{"longitude":-81.550458,"type":"RESTAURANT","latitude":28.375096,"singleRider":false}},{"id":"WaltDisneyWorldEpcot_90001798","waitTime":null,"status":"Operating","active":true,"lastUpdate":"2021-02-01T00:05:27.333Z","fastPass":false,"name":"Le Cellier Steakhouse","meta":{"singleRider":false,"type":"RESTAURANT","longitude":-81.551512,"latitude":28.371657}},{"id":"WaltDisneyWorldEpcot_90002084","waitTime":null,"status":"Operating","active":true,"lastUpdate":"2021-02-01T00:55:33.533Z","meta":{"latitude":28.370508,"type":"RESTAURANT","singleRider":false,"longitude":-81.551684},"name":"Rose & Crown Dining Room","fastPass":false},{"id":"WaltDisneyWorldEpcot_90002100","waitTime":null,"status":"Operating","active":true,"lastUpdate":"2021-02-01T00:53:55.681Z","name":"San Angel Inn Restaurante    ","fastPass":false,"meta":{"type":"RESTAURANT","longitude":-81.547258,"singleRider":false,"latitude":28.371612}},{"id":"WaltDisneyWorldEpcot_90002237","waitTime":null,"status":"Operating","active":true,"lastUpdate":"2021-02-01T00:53:51.024Z","name":"Garden Grill Restaurant","meta":{"singleRider":false,"longitude":-81.552324,"type":"RESTAURANT","latitude":28.374039},"fastPass":false},{"id":"WaltDisneyWorldHollywoodStudios_136","waitTime":null,"status":"Closed","active":false,"lastUpdate":"2020-09-15T11:33:12.086Z","name":"Indiana Jones™ Epic Stunt Spectacular! - Temporarily Unavailable","fastPass":false,"meta":{"singleRider":false,"longitude":-81.5586114479,"latitude":28.3566700675}},{"id":"WaltDisneyWorldHollywoodStudios_17842841","waitTime":null,"status":"Closed","active":false,"lastUpdate":"2020-09-15T11:33:12.046Z","name":"For the First Time in Forever: A Frozen Sing-Along Celebration - Temporarily Unavailable","meta":{"longitude":-81.5596944094,"singleRider":false,"latitude":28.3568243464},"fastPass":false},{"id":"WaltDisneyWorldHollywoodStudios_18189394","waitTime":null,"status":"Closed","active":false,"lastUpdate":"2020-09-15T11:33:12.077Z","name":"Star Wars Launch Bay: Meet Chewbacca - Temporarily Unavailable","fastPass":false,"meta":{"latitude":28.35796,"longitude":-81.560938,"singleRider":false}},{"id":"WaltDisneyWorldHollywoodStudios_18189398","waitTime":null,"status":"Closed","active":false,"lastUpdate":"2020-09-15T11:33:12.069Z","fastPass":false,"name":"Star Wars Launch Bay: Encounter Darth Vader - Temporarily Unavailable","meta":{"longitude":-81.560938,"singleRider":false,"latitude":28.35796}},{"id":"WaltDisneyWorldHollywoodStudios_18360041","waitTime":null,"status":"Closed","active":false,"lastUpdate":"2021-01-03T21:23:31.878Z","fastPass":false,"meta":{"longitude":-81.561061,"type":"ATTRACTION","singleRider":false,"latitude":28.357821},"name":"Star Wars Launch Bay Theater - Temporarily Unavailable"},{"id":"WaltDisneyWorldHollywoodStudios_18368385","waitTime":null,"status":"Closed","active":false,"lastUpdate":"2020-09-15T11:33:12.104Z","fastPass":false,"name":"Celebrity Spotlight - Temporarily Unavailable","meta":{"longitude":-81.559158,"singleRider":false,"latitude":28.356072}},{"id":"WaltDisneyWorldHollywoodStudios_18368386","waitTime":null,"status":"Closed","active":false,"lastUpdate":"2020-09-15T11:33:12.095Z","name":"Mickey and Minnie Starring in Red Carpet Dreams - Temporarily Unavailable","meta":{"longitude":-81.559479,"latitude":28.356068,"singleRider":false},"fastPass":false},{"id":"WaltDisneyWorldHollywoodStudios_18669338","waitTime":null,"status":"Closed","active":false,"lastUpdate":"2020-09-15T11:33:12.121Z","fastPass":false,"name":"BB-8 Astromech on Duty - Temporarily Unavailable","meta":{"latitude":28.35796,"longitude":-81.560938,"singleRider":false}},{"id":"WaltDisneyWorldHollywoodStudios_18770880","waitTime":null,"status":"Closed","active":false,"lastUpdate":"2021-01-31T23:00:35.826Z","fastPass":false,"name":"Walt Disney Presents","meta":{"singleRider":false,"latitude":28.35686,"longitude":-81.560982,"type":"ATTRACTION"}},