[{"id":"WaltDisneyWorldMagicKingdom_136550","waitTime":null,"status":"Closed","active":false,"lastUpdate":"2021-01-03T21:24:21.706Z","meta":{"singleRider":false,"type":"ATTRACTION","longitude":-81.5797358751,"latitude":28.4183977566},"name":"Monsters, Inc. Laugh Floor - Temporarily Unavailable","fastPass":false},{"id":"WaltDisneyWorldMagicKingdom_15743682","waitTime":null,"status":"Closed","active":false,"lastUpdate":"2020-09-15T11:33:17.406Z","meta":{"singleRider":false,"latitude":28.421282,"longitude":-81.578932},"fastPass":false,"name":"Meet Dashing Disney Pals as Circus Stars at Pete’s Silly Side Show - Temporarily Unavailable"},{"id":"WaltDisneyWorldMagicKingdom_15850196","waitTime":null,"status":"Closed","active":false,"lastUpdate":"2020-09-15T11:33:17.374Z","fastPass":false,"meta":{"singleRider":false,"longitude":-81.580746,"latitude":28.416727},"name":"Meet Mickey Mouse at Town Square Theater - Temporarily Unavailable"},{"id":"WaltDisneyWorldMagicKingdom_16124144","waitTime":null,"status":"Closed","active":false,"lastUpdate":"2021-02-12T00:01:43.821Z","fastPass":false,"meta":{"latitude":28.4182264646,"longitude":-81.583738382,"singleRider":false,"type":"ATTRACTION"},"name":"Walt Disney's Enchanted Tiki Room"},{"id":"WaltDisneyWorldMagicKingdom_16414579","waitTime":null,"status":"Closed","active":false,"lastUpdate":"2021-01-24T23:00:36.558Z","name":"Sorcerers of the Magic Kingdom","fastPass":false,"meta":{"latitude":28.416944,"type":"ATTRACTION","longitude":-81.58163,"singleRider":false}},{"id":"WaltDisneyWorldMagicKingdom_16491297","waitTime":null,"status":"Closed","active":false,"lastUpdate":"2021-02-12T00:00:35.561Z","fastPass":false,"meta":{"longitude":-81.5783907473,"latitude":28.4207661576,"type":"ATTRACTION","unsuitableForPregnantPeople":true,"singleRider":false},"name":"The Barnstormer"},{"id":"WaltDisneyWorldMagicKingdom_16491299","waitTime":null,"status":"Refurbishment","active":false,"lastUpdate":"2021-01-03T21:24:18.928Z","name":"Walt Disney World Railroad - Fantasyland - Temporarily Unavailable","fastPass":false,"meta":{"longitude":-81.578368,"type":"ATTRACTION","latitude":28.420934,"singleRider":false}},{"id":"WaltDisneyWorldMagicKingdom_16660079","waitTime":null,"status":"Operating","active":true,"lastUpdate":"2021-02-12T00:55:43.425Z","meta":{"longitude":-81.5807074858,"singleRider":false,"type":"RESTAURANT","latitude":28.4212491492},"fastPass":false,"name":"Be Our Guest Restaurant"},{"id":"WaltDisneyWorldMagicKingdom_16767263","waitTime":null,"status":"Closed","active":false,"lastUpdate":"2021-02-12T00:00:36.258Z","name":"Under the Sea ~ Journey of The Little Mermaid","meta":{"singleRider":false,"type":"ATTRACTION","longitude":-81.5799752427,"latitude":28.4211203226},"fastPass":false},{"id":"WaltDisneyWorldMagicKingdom_16767276","waitTime":null,"status":"Closed","active":false,"lastUpdate":"2021-01-03T21:24:20.764Z","meta":{"longitude":-81.58093011,"singleRider":false,"latitude":28.42099058,"type":"ATTRACTION"},"name":"Enchanted Tales with Belle - Temporarily Unavailable","fastPass":false},{"id":"WaltDisneyWorldMagicKingdom_16767284","waitTime":null,"status":"Closed","active":false,"lastUpdate":"2021-02-12T00:00:49.185Z","name":"Seven Dwarfs Mine Train","meta":{"longitude":-81.58031,"type":"ATTRACTION","singleRider":false,"latitude":28.42037,"unsuitableForPregnantPeople":true},"fastPass":false},{"id":"WaltDisneyWorldMagicKingdom_16874126","waitTime":null,"status":"Closed","active":false,"lastUpdate":"2020-09-15T11:33:17.441Z","name":"Meet Ariel at Her Grotto - Temporarily Unavailable","meta":{"longitude":-81.579613144497,"singleRider":false,"latitude":28.420893275289},"fastPass":false},{"id":"WaltDisneyWorldMagicKingdom_17272158","waitTime":null,"status":"Closed","active":false,"lastUpdate":"2021-01-03T21:24:21.210Z","fastPass":false,"name":"A Pirate's Adventure ~ Treasures of the Seven Seas - Temporarily Unavailable","meta":{"latitude":28.41837254,"singleRider":false,"type":"ATTRACTION","longitude":-81.58466913}},{"id":"WaltDisneyWorldMagicKingdom_17505397","waitTime":null,"status":"Closed","active":false,"lastUpdate":"2020-09-15T11:33:17.486Z","fastPass":false,"name":"Meet Rapunzel and Tiana at Princess Fairytale Hall - Temporarily Unavailable","meta":{"singleRider":false,"longitude":-81.580917439677,"latitude":28.420045752669}},{"id":"WaltDisneyWorldMagicKingdom_17752793","waitTime":null,"status":"Closed","active":false,"lastUpdate":"2020-09-15T11:33:17.444Z","meta":{"latitude":28.416727,"longitude":-81.580815,"singleRider":false},"name":"Meet Tinker Bell at Town Square Theater - Temporarily Unavailable","fastPass":false},{"id":"WaltDisneyWorldMagicKingdom_18185631","waitTime":null,"status":"Operating","active":true,"lastUpdate":"2021-02-11T23:56:58.935Z","fastPass":false,"meta":{"longitude":-81.582592,"singleRider":false,"type":"RESTAURANT","latitude":28.418491},"name":"Jungle Navigation Co. LTD Skipper Canteen"},{"id":"WaltDisneyWorldMagicKingdom_18498503","waitTime":null,"status":"Closed","active":false,"lastUpdate":"2020-09-15T11:33:17.494Z","meta":{"singleRider":false,"longitude":-81.58094,"latitude":28.420012},"name":"Meet Cinderella and Elena at Princess Fairytale Hall - Temporarily Unavailable","fastPass":false},{"id":"WaltDisneyWorldMagicKingdom_2219610","waitTime":null,"status":"Refurbishment","active":false,"lastUpdate":"2021-01-03T21:23:08.615Z","name":"Walt Disney World Railroad - Frontierland - Temporarily Unavailable","fastPass":false,"meta":{"type":"ATTRACTION","latitude":28.41969,"longitude":-81.585078,"singleRider":false}},{"id":"WaltDisneyWorldMagicKingdom_387133","waitTime":null,"status":"Closed","active":false,"lastUpdate":"2020-09-15T11:33:17.492Z","fastPass":false,"name":"Meet Daring Disney Pals as Circus Stars at Pete's Silly Side Show - Temporarily Unavailable","meta":{"longitude":-81.578932,"singleRider":false,"latitude":28.421282}},{"id":"WaltDisneyWorldMagicKingdom_80010107","waitTime":null,"status":"Closed","active":false,"lastUpdate":"2021-02-12T00:01:44.520Z","meta":{"latitude":28.4184926179,"longitude":-81.5789887902,"singleRider":false,"type":"ATTRACTION"},"fastPass":false,"name":"Astro Orbiter"},{"id":"WaltDisneyWorldMagicKingdom_80010110","waitTime":null,"status":"Closed","active":false,"lastUpdate":"2021-02-12T00:00:37.759Z","fastPass":false,"meta":{"type":"ATTRACTION","longitude":-81.5846422864,"latitude":28.4199638504,"singleRider":false,"unsuitableForPregnantPeople":true},"name":"Big Thunder Mountain Railroad"},{"id":"WaltDisneyWorldMagicKingdom_80010114","waitTime":null,"status":"Closed","active":false,"lastUpdate":"2021-02-12T00:00:51.218Z","meta":{"longitude":-81.5794086456,"latitude":28.4182868839,"singleRider":false,"type":"ATTRACTION"},"fastPass":false,"name":"Buzz Lightyear's Space Ranger Spin"},{"id":"WaltDisneyWorldMagicKingdom_80010117","waitTime":null,"status":"Closed","active":false,"lastUpdate":"2021-02-12T00:01:45.154Z","meta":{"longitude":-81.581255,"singleRider":false,"type":"ATTRACTION","latitude":28.420169},"name":"Prince Charming Regal Carrousel","fastPass":false},{"id":"WaltDisneyWorldMagicKingdom_80010129","waitTime":null,"status":"Closed","active":false,"lastUpdate":"2021-02-12T00:00:39.275Z","name":"Dumbo the Flying Elephant","fastPass":false,"meta":{"singleRider":false,"latitude":28.420509033,"type":"ATTRACTION","longitude":-81.5789473057}},{"id":"WaltDisneyWorldMagicKingdom_80010149","waitTime":null,"status":"Closed","active":false,"lastUpdate":"2021-02-12T00:00:51.846Z","name":"\"it's a small world\"","fastPass":false,"meta":{"singleRider":false,"type":"ATTRACTION","longitude":-81.5820392026,"latitude":28.4204816402}},{"id":"WaltDisneyWorldMagicKingdom_80010153","waitTime":null,"status":"Closed","active":false,"lastUpdate":"2021-02-12T00:00:53.794Z","name":"Jungle Cruise","meta":{"longitude":-81.5834393157,"singleRider":false,"type":"ATTRACTION","latitude":28.41797818},"fastPass":false},{"id":"WaltDisneyWorldMagicKingdom_80010160","waitTime":null,"status":"Closed","active":false,"lastUpdate":"2021-02-12T00:01:48.557Z","fastPass":false,"name":"Liberty Square Riverboat","meta":{"longitude":-81.5827982677,"singleRider":false,"latitude":28.4195563399,"type":"ATTRACTION"}},{"id":"WaltDisneyWorldMagicKingdom_80010162","waitTime":null,"status":"Closed","active":false,"lastUpdate":"2021-02-12T00:00:39.909Z","name":"Mad Tea Party","fastPass":false,"meta":{"singleRider":false,"type":"ATTRACTION","longitude":-81.5798248916,"latitude":28.4200230397}},{"id":"WaltDisneyWorldMagicKingdom_80010165","waitTime":null,"status":"Closed","active":false,"lastUpdate":"2021-01-03T21:24:20.300Z","meta":{"latitude":28.4168698711,"singleRider":false,"longitude":-81.5815081252,"type":"ATTRACTION"},"fastPass":false,"name":"Main Street Vehicles - Temporarily Unavailable"},{"id":"WaltDisneyWorldMagicKingdom_80010170","waitTime":null,"status":"Closed","active":false,"lastUpdate":"2021-02-12T00:00:40.643Z","name":"Mickey's PhilharMagic","meta":{"latitude":28.4200304909,"singleRider":false,"longitude":-81.5814839853,"type":"ATTRACTION"},"fastPass":false},{"id":"WaltDisneyWorldMagicKingdom_80010176","waitTime":null,"status":"Closed","active":false,"lastUpdate":"2021-02-12T00:00:41.295Z","name":"Peter Pan's Flight","fastPass":false,"meta":{"latitude":28.4202640272,"singleRider":false,"longitude":-81.5818916811,"type":"ATTRACTION"}},{"id":"WaltDisneyWorldMagicKingdom_80010177","waitTime":null,"status":"Closed","active":false,"lastUpdate":"2021-02-12T00:00:41.916Z","name":"Pirates of the Caribbean","fastPass":false,"meta":{"type":"ATTRACTION","longitude":-81.5842252,"latitude":28.41796992,"singleRider":false}},{"id":"WaltDisneyWorldMagicKingdom_80010190","waitTime":null,"status":"Closed","active":false,"lastUpdate":"2021-02-12T00:00:43.181Z","fastPass":false,"meta":{"longitude":-81.5781962872,"singleRider":false,"type":"ATTRACTION","latitude":28.4188341691,"unsuitableForPregnantPeople":true},"name":"Space Mountain"},{"id":"WaltDisneyWorldMagicKingdom_80010192","waitTime":null,"status":"Closed","active":false,"lastUpdate":"2021-02-12T00:00:43.795Z","name":"Splash Mountain","meta":{"singleRider":false,"unsuitableForPregnantPeople":true,"type":"ATTRACTION","latitude":28.419418,"longitude":-81.58498},"fastPass":false},{"id":"WaltDisneyWorldMagicKingdom_80010196","waitTime":null,"status":"Closed","active":false,"lastUpdate":"2021-02-12T00:01:45.747Z","name":"Swiss Family Treehouse","fastPass":false,"meta":{"singleRider":false,"type":"ATTRACTION","longitude":-81.5827982677,"latitude":28.4184325517}},{"id":"WaltDisneyWorldMagicKingdom_80010208","waitTime":null,"status":"Closed","active":false,"lastUpdate":"2021-02-12T00:00:45.237Z","name":"Haunted Mansion","fastPass":false,"meta":{"latitude":28.4202,"longitude":-81.58288,"type":"ATTRACTION","singleRider":false}},{"id":"WaltDisneyWorldMagicKingdom_80010210","waitTime":null,"status":"Closed","active":false,"lastUpdate":"2021-02-12T00:00:33.978Z","fastPass":false,"name":"The Magic Carpets of Aladdin","meta":{"type":"ATTRACTION","latitude":28.41843,"singleRider":false,"longitude":-81.583472}},{"id":"WaltDisneyWorldMagicKingdom_80010213","waitTime":null,"status":"Closed","active":false,"lastUpdate":"2021-02-12T00:00:45.807Z","fastPass":false,"name":"The Many Adventures of Winnie the Pooh","meta":{"singleRider":false,"type":"ATTRACTION","longitude":-81.580266,"latitude":28.420212}},{"id":"WaltDisneyWorldMagicKingdom_80010220","waitTime":null,"status":"Closed","active":false,"lastUpdate":"2021-02-11T21:31:43.620Z","meta":{"longitude":-81.58428,"latitude":28.419503,"singleRider":false,"type":"ATTRACTION"},"name":"Tom Sawyer Island","fastPass":false},{"id":"WaltDisneyWorldMagicKingdom_80010222","waitTime":null,"status":"Closed","active":false,"lastUpdate":"2021-02-12T00:00:52.567Z","name":"Tomorrowland Speedway","fastPass":false,"meta":{"longitude":-81.579302,"unsuitableForPregnantPeople":true,"latitude":28.419368,"singleRider":false,"type":"ATTRACTION"}},{"id":"WaltDisneyWorldMagicKingdom_80010224","waitTime":null,"status":"Refurbishment","active":false,"lastUpdate":"2021-01-03T21:24:19.826Z","name":"Tomorrowland Transit Authority PeopleMover - Temporarily Unavailable","fastPass":false,"meta":{"type":"ATTRACTION","longitude":-81.579033,"latitude":28.418155,"singleRider":false}},{"id":"WaltDisneyWorldMagicKingdom_80010230","waitTime":null,"status":"Refurbishment","active":false,"lastUpdate":"2021-01-03T21:23:09.088Z","meta":{"singleRider":false,"longitude":-81.581204,"type":"ATTRACTION","latitude":28.416543},"fastPass":false,"name":"Walt Disney World Railroad - Main Street, U.S.A. - Temporarily Unavailable"},{"id":"WaltDisneyWorldMagicKingdom_80010232","waitTime":null,"status":"Closed","active":false,"lastUpdate":"2021-02-11T23:01:45.377Z","meta":{"type":"ATTRACTION","longitude":-81.5790083064,"singleRider":false,"latitude":28.4180310951},"name":"Walt Disney's Carousel of Progress","fastPass":false},{"id":"WaltDisneyWorldMagicKingdom_80069748","waitTime":null,"status":"Closed","active":false,"lastUpdate":"2021-02-12T00:01:49.253Z","fastPass":false,"name":"Country Bear Jamboree","meta":{"singleRider":false,"longitude":-81.5837222887,"latitude":28.4187861348,"type":"ATTRACTION"}},{"id":"WaltDisneyWorldMagicKingdom_80069754","waitTime":null,"status":"Refurbishment","active":false,"lastUpdate":"2021-01-21T05:00:35.597Z","name":"The Hall of Presidents","meta":{"type":"ATTRACTION","latitude":28.4194484171,"longitude":-81.5823248578,"singleRider":false},"fastPass":false},{"id":"WaltDisneyWorldMagicKingdom_90001815","waitTime":null,"status":"Closed","active":false,"lastUpdate":"2021-02-02T05:00:59.870Z","name":"Liberty Square Market - Temporarily Unavailable","meta":{"type":"RESTAURANT","latitude":28.4195299,"longitude":-81.5825378,"singleRider":false},"fastPass":false},{"id":"WaltDisneyWorldMagicKingdom_90001819","waitTime":null,"status":"Operating","active":true,"lastUpdate":"2021-02-11T23:55:29.505Z","name":"Liberty Tree Tavern","fastPass":false,"meta":{"latitude":28.4191196055,"longitude":-81.5826159743,"type":"RESTAURANT","singleRider":false}},{"id":"WaltDisneyWorldMagicKingdom_90002464","waitTime":null,"status":"Operating","active":true,"lastUpdate":"2021-02-09T17:26:28.220Z","fastPass":false,"name":"Cinderella's Royal Table","meta":{"latitude":28.4195,"singleRider":false,"type":"RESTAURANT","longitude":-81.581101}},{"id":"WaltDisneyWorldMagicKingdom_90002660","waitTime":null,"status":"Operating","active":true,"lastUpdate":"2021-02-11T23:55:21.832Z","name":"The Crystal Palace","meta":{"type":"RESTAURANT","singleRider":false,"longitude":-81.5818970259,"latitude":28.4181214892},"fastPass":false},{"id":"WaltDisneyWorldMagicKingdom_90002670","waitTime":null,"status":"Operating","active":true,"lastUpdate":"2021-02-11T23:53:18.591Z","name":"The Plaza Restaurant","fastPass":false,"meta":{"type":"RESTAURANT","latitude":28.4180247703,"longitude":-81.5809394969,"singleRider":false}},{"id":"WaltDisneyWorldMagicKingdom_90002678","waitTime":null,"status":"Operating","active":true,"lastUpdate":"2021-02-11T20:41:52.510Z","meta":{"singleRider":false,"latitude":28.4169323426,"longitude":-81.5807276023,"type":"RESTAURANT"},"name":"Tony's Town Square Restaurant","fastPass":false},{"id":"WaltDisneyWorldEpcot_107785","waitTime":5,"status":"Operating","active":true,"lastUpdate":"2021-02-11T17:09:28.509Z","meta":{"latitude":28.374904,"singleRider":false,"type":"ATTRACTION","longitude":-81.550852},"name":"The Seas with Nemo & Friends","fastPass":false},{"id":"WaltDisneyWorldEpcot_15525573","waitTime":null,"status":"Operating","active":true,"lastUpdate":"2021-02-11T21:33:37.432Z","fastPass":false,"name":"La Hacienda de San Angel","meta":{"longitude":-81.547532,"latitude":28.371221,"type":"RESTAURANT","singleRider":false}},{"id":"WaltDisneyWorldEpcot_17564219","waitTime":null,"status":"Closed","active":false,"lastUpdate":"2020-09-15T11:33:07.103Z","meta":{"latitude":28.37097,"longitude":-81.547134,"singleRider":false},"name":"Meet Anna and Elsa at Royal Sommerhus - Temporarily Unavailable","fastPass":false},{"id":"WaltDisneyWorldEpcot_17720675","waitTime":null,"status":"Operating","active":true,"lastUpdate":"2021-02-12T00:55:31.988Z","fastPass":false,"name":"Spice Road Table","meta":{"longitude":-81.551645,"latitude":28.368468,"singleRider":false,"type":"RESTAURANT"}},{"id":"WaltDisneyWorldEpcot_18269694","waitTime":null,"status":"Operating","active":true,"lastUpdate":"2021-02-11T16:01:43.906Z","fastPass":false,"name":"Disney and Pixar Short Film Festival","meta":{"singleRider":false,"type":"ATTRACTION","longitude":-81.55115,"latitude":28.37263}},{"id":"WaltDisneyWorldEpcot_18375495","waitTime":25,"status":"Operating","active":true,"lastUpdate":"2021-02-12T00:02:33.243Z","name":"Frozen Ever After","meta":{"singleRider":false,"longitude":-81.54653,"latitude":28.370745,"type":"ATTRACTION"},"fastPass":false},{"id":"WaltDisneyWorldEpcot_19463785","waitTime":null,"status":"Closed","active":false,"lastUpdate":"2021-02-11T23:01:48.631Z","name":"Beauty and the Beast Sing-Along","meta":{"singleRider":false,"type":"ATTRACTION","latitude":28.368864,"longitude":-81.552978},"fastPass":false},{"id":"WaltDisneyWorldEpcot_19473173","waitTime":null,"status":"Operating","active":true,"lastUpdate":"2021-02-11T16:01:45.377Z","fastPass":false,"name":"Awesome Planet","meta":{"longitude":-81.552138,"type":"ATTRACTION","latitude":28.374301,"singleRider":false}},{"id":"WaltDisneyWorldEpcot_20194","waitTime":20,"status":"Operating","active":true,"lastUpdate":"2021-02-11T21:28:33.357Z","meta":{"type":"ATTRACTION","singleRider":false,"longitude":-81.552248,"latitude":28.373592},"fastPass":false,"name":"Soarin' Around the World"},{"id":"WaltDisneyWorldEpcot_207395","waitTime":5,"status":"Operating","active":true,"lastUpdate":"2021-02-11T19:19:46.404Z","name":"Gran Fiesta Tour Starring The Three Caballeros","fastPass":false,"meta":{"longitude":-81.547368,"singleRider":false,"latitude":28.371649,"type":"ATTRACTION"}},{"id":"WaltDisneyWorldEpcot_62992","waitTime":null,"status":"Closed","active":false,"lastUpdate":"2021-01-03T21:23:09.564Z","fastPass":false,"meta":{"latitude":28.375255,"longitude":-81.551047,"singleRider":false,"type":"ATTRACTION"},"name":"Turtle Talk With Crush - Temporarily Unavailable"},{"id":"WaltDisneyWorldEpcot_80010145","waitTime":null,"status":"Closed","active":false,"lastUpdate":"2021-02-12T00:46:56.328Z","fastPass":false,"name":"Impressions de France","meta":{"longitude":-81.552978,"latitude":28.368864,"singleRider":false,"type":"ATTRACTION"}},{"id":"WaltDisneyWorldEpcot_80010152","waitTime":5,"status":"Operating","active":true,"lastUpdate":"2021-02-11T22:24:31.780Z","meta":{"singleRider":false,"type":"ATTRACTION","longitude":-81.551401,"latitude":28.372994},"name":"Journey Into Imagination With Figment","fastPass":false},{"id":"WaltDisneyWorldEpcot_80010161","waitTime":5,"status":"Operating","active":true,"lastUpdate":"2021-02-11T16:01:42.661Z","fastPass":false,"meta":{"latitude":28.374245,"longitude":-81.552301,"type":"ATTRACTION","singleRider":false},"name":"Living with the Land"},{"id":"WaltDisneyWorldEpcot_80010173","waitTime":25,"status":"Operating","active":true,"lastUpdate":"2021-02-12T00:35:31.898Z","name":"Mission: SPACE","fastPass":false,"meta":{"type":"ATTRACTION","longitude":-81.547156,"singleRider":false,"latitude":28.373927,"unsuitableForPregnantPeople":true}},{"id":"WaltDisneyWorldEpcot_80010174","waitTime":null,"status":"Closed","active":false,"lastUpdate":"2021-02-12T00:46:56.914Z","name":"Canada Far and Wide in Circle-Vision 360","fastPass":false,"meta":{"longitude":-81.55196,"latitude":28.371694,"type":"ATTRACTION","singleRider":false}},{"id":"WaltDisneyWorldEpcot_80010180","waitTime":null,"status":"Operating","active":true,"lastUpdate":"2021-02-11T18:52:42.892Z","name":"Reflections of China","meta":{"type":"ATTRACTION","latitude":28.369791,"longitude":-81.546381,"singleRider":false},"fastPass":false},{"id":"WaltDisneyWorldEpcot_80010191","waitTime":5,"status":"Operating","active":true,"lastUpdate":"2021-02-11T22:30:32.108Z","meta":{"latitude":28.375583,"type":"ATTRACTION","singleRider":false,"longitude":-81.549401},"name":"Spaceship Earth","fastPass":false},{"id":"WaltDisneyWorldEpcot_80010199","waitTime":45,"status":"Operating","active":true,"lastUpdate":"2021-02-11T23:09:32.850Z","meta":{"unsuitableForPregnantPeople":true,"longitude":-81.547489,"type":"ATTRACTION","latitude":28.373228,"singleRider":true},"name":"Test Track","fastPass":false},{"id":"WaltDisneyWorldEpcot_80010200","waitTime":null,"status":"Operating","active":true,"lastUpdate":"2021-02-11T16:01:47.765Z","name":"The American Adventure","meta":{"singleRider":false,"longitude":-81.549446,"latitude":28.367517,"type":"ATTRACTION"},"fastPass":false},{"id":"WaltDisneyWorldEpcot_90001292","waitTime":null,"status":"Operating","active":true,"lastUpdate":"2021-02-12T00:55:32.643Z","name":"Biergarten Restaurant","meta":{"type":"RESTAURANT","longitude":-81.546819,"latitude":28.368153,"singleRider":false},"fastPass":false},{"id":"WaltDisneyWorldEpcot_90001416","waitTime":null,"status":"Operating","active":true,"lastUpdate":"2021-02-12T00:33:03.622Z","name":"Coral Reef Restaurant","fastPass":false,"meta":{"type":"RESTAURANT","singleRider":false,"longitude":-81.550458,"latitude":28.375096}},{"id":"WaltDisneyWorldEpcot_90001798","waitTime":null,"status":"Operating","active":true,"lastUpdate":"2021-02-12T00:38:22.688Z","meta":{"longitude":-81.551512,"singleRider":false,"latitude":28.371657,"type":"RESTAURANT"},"fastPass":false,"name":"Le Cellier Steakhouse"},{"id":"WaltDisneyWorldEpcot_90002084","waitTime":null,"status":"Operating","active":true,"lastUpdate":"2021-02-11T23:39:35.177Z","meta":{"latitude":28.370508,"longitude":-81.551684,"type":"RESTAURANT","singleRider":false},"name":"Rose & Crown Dining Room","fastPass":false},{"id":"WaltDisneyWorldEpcot_90002100","waitTime":null,"status":"Operating","active":true,"lastUpdate":"2021-02-11T21:06:34.907Z","meta":{"latitude":28.371612,"longitude":-81.547258,"singleRider":false,"type":"RESTAURANT"},"fastPass":false,"name":"San Angel Inn Restaurante    "},{"id":"WaltDisneyWorldEpcot_90002237","waitTime":null,"status":"Operating","active":true,"lastUpdate":"2021-02-12T00:56:58.001Z","fastPass":false,"name":"Garden Grill Restaurant","meta":{"singleRider":false,"latitude":28.374039,"longitude":-81.552324,"type":"RESTAURANT"}},{"id":"WaltDisneyWorldHollywoodStudios_136","waitTime":null,"status":"Closed","active":false,"lastUpdate":"2020-09-15T11:33:12.086Z","fastPass":false,"name":"Indiana Jones™ Epic Stunt Spectacular! - Temporarily Unavailable","meta":{"longitude":-81.5586114479,"singleRider":false,"latitude":28.3566700675}},{"id":"WaltDisneyWorldHollywoodStudios_17842841","waitTime":null,"status":"Closed","active":false,"lastUpdate":"2020-09-15T11:33:12.046Z","meta":{"latitude":28.3568243464,"longitude":-81.5596944094,"singleRider":false},"name":"For the First Time in Forever: A Frozen Sing-Along Celebration - Temporarily Unavailable","fastPass":false},{"id":"WaltDisneyWorldHollywoodStudios_18189394","waitTime":null,"status":"Closed","active":false,"lastUpdate":"2020-09-15T11:33:12.077Z","meta":{"singleRider":false,"latitude":28.35796,"longitude":-81.560938},"name":"Star Wars Launch Bay: Meet Chewbacca - Temporarily Unavailable","fastPass":false},{"id":"WaltDisneyWorldHollywoodStudios_18189398","waitTime":null,"status":"Closed","active":false,"lastUpdate":"2020-09-15T11:33:12.069Z","fastPass":false,"meta":{"singleRider":false,"latitude":28.35796,"longitude":-81.560938},"name":"Star Wars Launch Bay: Encounter Darth Vader - Temporarily Unavailable"},{"id":"WaltDisneyWorldHollywoodStudios_18360041","waitTime":null,"status":"Closed","active":false,"lastUpdate":"2021-01-03T21:23:31.878Z","name":"Star Wars Launch Bay Theater - Temporarily Unavailable","fastPass":false,"meta":{"singleRider":false,"longitude":-81.561061,"type":"ATTRACTION","latitude":28.357821}},{"id":"WaltDisneyWorldHollywoodStudios_18368385","waitTime":null,"status":"Closed","active":false,"lastUpdate":"2020-09-15T11:33:12.104Z","meta":{"latitude":28.356072,"longitude":-81.559158,"singleRider":false},"fastPass":false,"name":"Celebrity Spotlight - Temporarily Unavailable"},{"id":"WaltDisneyWorldHollywoodStudios_18368386","waitTime":null,"status":"Closed","active":false,"lastUpdate":"2020-09-15T11:33:12.095Z","fastPass":false,"meta":{"longitude":-81.559479,"singleRider":false,"latitude":28.356068},"name":"Mickey and Minnie Starring in Red Carpet Dreams - Temporarily Unavailable"},{"id":"WaltDisneyWorldHollywoodStudios_18669338","waitTime":null,"status":"Closed","active":false,"lastUpdate":"2020-09-15T11:33:12.121Z","name":"BB-8 Astromech on Duty - Temporarily Unavailable","meta":{"longitude":-81.560938,"latitude":28.35796,"singleRider":false},"fastPass":false},{"id":"WaltDisneyWorldHollywoodStudios_18770880","waitTime":null,"status":"Closed","active":false,"lastUpdate":"2021-02-11T23:01:44.116Z","fastPass":false,"name":"Walt Disney Presents","meta":{"longitude":-81.560982,"latitude":28.35686,"singleRider":false,"type":"ATTRACTION"}},{"id":"WaltDisneyWorldHollywoodStudios_18904138","waitTime":null,"status":"Closed","active":false,"lastUpdate":"2021-02-12T00:00:49.791Z","name":"Slinky Dog Dash","fastPass":false,"meta":{"longitude":-81.562786,"latitude":28.356245,"unsuitableForPregnantPeople":true,"singleRider":false,"type":"ATTRACTION"}},{"id":"WaltDisneyWorldHollywoodStudios_18904172","waitTime":null,"status":"Closed","active":false,"lastUpdate":"2021-02-12T00:00:37.045Z","meta":{"latitude":28.355385,"singleRider":false,"type":"ATTRACTION","longitude":-81.562379},"name":"Alien Swirling Saucers","fastPass":false},{"id":"WaltDisneyWorldHollywoodStudios_19025682","waitTime":null,"status":"Operating","active":true,"lastUpdate":"2020-09-15T14:02:51.117Z","name":"Star Wars: Galaxy's Edge","fastPass":false,"meta":{"singleRider":false,"latitude":28.355234,"longitude":-81.559787}},{"id":"WaltDisneyWorldHollywoodStudios_19152250","waitTime":null,"status":"Closed","active":false,"lastUpdate":"2020-09-15T11:33:12.147Z","fastPass":false,"name":"Meet Sulley at Walt Disney Presents - Temporarily Unavailable","meta":{"longitude":-81.560984,"singleRider":false,"latitude":28.356865}},{"id":"WaltDisneyWorldHollywoodStudios_19259335","waitTime":null,"status":"Closed","active":false,"lastUpdate":"2021-02-12T00:00:50.462Z","name":"Mickey & Minnie's Runaway Railway","fastPass":false,"meta":{"longitude":-81.5605667783,"singleRider":false,"type":"ATTRACTION","latitude":28.3566783801}},{"id":"WaltDisneyWorldHollywoodStudios_19263735","waitTime":null,"status":"Closed","active":false,"lastUpdate":"2021-02-12T00:00:38.500Z","fastPass":false,"name":"Millennium Falcon: Smugglers Run","meta":{"latitude":28.353889,"longitude":-81.561689,"singleRider":true,"type":"ATTRACTION","unsuitableForPregnantPeople":true}},{"id":"WaltDisneyWorldHollywoodStudios_19263736","waitTime":null,"status":"Closed","active":false,"lastUpdate":"2021-02-12T00:01:32.762Z","fastPass":false,"meta":{"singleRider":false,"unsuitableForPregnantPeople":true,"longitude":-81.560457,"type":"ATTRACTION","latitude":28.354884},"name":"Star Wars: Rise of the Resistance"},{"id":"WaltDisneyWorldHollywoodStudios_19267226","waitTime":null,"status":"Closed","active":false,"lastUpdate":"2021-01-30T21:13:32.709Z","name":"Oga's Cantina at the Walt Disney World Resort","fastPass":false,"meta":{"singleRider":false,"latitude":28.354095,"type":"RESTAURANT","longitude":-81.562075}},{"id":"WaltDisneyWorldHollywoodStudios_19276204","waitTime":null,"status":"Closed","active":false,"lastUpdate":"2021-02-11T23:01:44.712Z","name":"Lightning McQueen's Racing Academy","fastPass":false,"meta":{"singleRider":false,"type":"ATTRACTION","longitude":-81.560707,"latitude":28.360035}},{"id":"WaltDisneyWorldHollywoodStudios_19497952","waitTime":null,"status":"Closed","active":false,"lastUpdate":"2021-02-11T23:01:48.095Z","fastPass":false,"name":"Vacation Fun - An Original Animated Short with Mickey & Minnie","meta":{"longitude":-81.559031,"type":"ATTRACTION","singleRider":false,"latitude":28.356316}},{"id":"WaltDisneyWorldHollywoodStudios_19582977","waitTime":null,"status":"Closed","active":false,"lastUpdate":"2020-09-15T11:33:12.211Z","name":"Disney Society Orchestra and Friends","meta":{"latitude":28.3589162565,"singleRider":false,"longitude":-81.5595985008},"fastPass":false},{"id":"WaltDisneyWorldHollywoodStudios_19583373","waitTime":null,"status":"Closed","active":false,"lastUpdate":"2020-09-15T11:33:12.219Z","fastPass":false,"name":"Disney Junior Play and Dance!","meta":{"longitude":-81.560567,"latitude":28.357613,"singleRider":false}},{"id":"WaltDisneyWorldHollywoodStudios_202731","waitTime":null,"status":"Closed","active":false,"lastUpdate":"2020-09-15T11:33:12.226Z","name":"Disney Junior Dance Party! - Temporarily Unavailable","fastPass":false,"meta":{"longitude":-81.560567,"singleRider":false,"latitude":28.357613}},{"id":"WaltDisneyWorldHollywoodStudios_209857","waitTime":null,"status":"Closed","active":false,"lastUpdate":"2021-02-12T00:00:34.835Z","fastPass":false,"name":"Toy Story Mania!","meta":{"latitude":28.356404,"singleRider":false,"longitude":-81.561894,"type":"ATTRACTION"}},{"id":"WaltDisneyWorldHollywoodStudios_80010151","waitTime":null,"status":"Closed","active":false,"lastUpdate":"2021-02-11T23:00:31.711Z","meta":{"longitude":-81.5594643904,"type":"ATTRACTION","latitude":28.3550644708,"singleRider":false},"fastPass":false,"name":"Muppet*Vision 3D"},{"id":"WaltDisneyWorldHollywoodStudios_80010182","waitTime":null,"status":"Closed","active":false,"lastUpdate":"2021-02-12T00:00:42.526Z","name":"Rock 'n' Roller Coaster Starring Aerosmith","fastPass":false,"meta":{"unsuitableForPregnantPeople":true,"singleRider":true,"type":"ATTRACTION","longitude":-81.56059,"latitude":28.359712}},{"id":"WaltDisneyWorldHollywoodStudios_80010193","waitTime":null,"status":"Closed","active":false,"lastUpdate":"2021-02-12T00:00:44.621Z","meta":{"type":"ATTRACTION","singleRider":false,"unsuitableForPregnantPeople":true,"latitude":28.355695,"longitude":-81.558891},"fastPass":false,"name":"Star Tours – The Adventures Continue"},{"id":"WaltDisneyWorldHollywoodStudios_80010218","waitTime":null,"status":"Closed","active":false,"lastUpdate":"2021-02-12T00:00:46.483Z","meta":{"longitude":-81.559772,"unsuitableForPregnantPeople":true,"singleRider":false,"type":"ATTRACTION","latitude":28.359553},"fastPass":false,"name":"The Twilight Zone Tower of Terror™"},{"id":"WaltDisneyWorldHollywoodStudios_80010848","waitTime":null,"status":"Closed","active":false,"lastUpdate":"2020-09-15T11:33:12.284Z","meta":{"longitude":-81.5595985008,"singleRider":false,"latitude":28.3589162565},"fastPass":false,"name":"Beauty and the Beast-Live on Stage - Temporarily Unavailable"},{"id":"WaltDisneyWorldHollywoodStudios_80010896","waitTime":null,"status":"Closed","active":false,"lastUpdate":"2020-09-15T11:33:12.290Z","meta":{"latitude":28.3574862147,"singleRider":false,"longitude":-81.5608484102},"name":"Voyage of The Little Mermaid - Temporarily Unavailable","fastPass":false},{"id":"WaltDisneyWorldHollywoodStudios_90001216","waitTime":null,"status":"Operating","active":true,"lastUpdate":"2021-02-10T23:52:48.918Z","name":"50's Prime Time Café","fastPass":false,"meta":{"longitude":-81.558881,"latitude":28.357444,"singleRider":false,"type":"RESTAURANT"}},{"id":"WaltDisneyWorldHollywoodStudios_90001744","waitTime":null,"status":"Closed","active":false,"lastUpdate":"2021-01-30T21:13:33.319Z","meta":{"longitude":-81.558975,"type":"RESTAURANT","singleRider":false,"latitude":28.357611},"fastPass":false,"name":"Hollywood & Vine"},{"id":"WaltDisneyWorldHollywoodStudios_90001865","waitTime":null,"status":"Operating","active":true,"lastUpdate":"2021-02-11T23:55:24.788Z","meta":{"singleRider":false,"type":"RESTAURANT","latitude":28.354532,"longitude":-81.559012},"fastPass":false,"name":"Mama Melrose's Ristorante Italiano"},{"id":"WaltDisneyWorldHollywoodStudios_90002114","waitTime":null,"status":"Operating","active":true,"lastUpdate":"2021-02-09T16:16:37.355Z","fastPass":false,"meta":{"longitude":-81.559495,"singleRider":false,"type":"RESTAURANT","latitude":28.3559},"name":"Sci-Fi Dine-In Theater Restaurant"},{"id":"WaltDisneyWorldHollywoodStudios_90002245","waitTime":null,"status":"Operating","active":true,"lastUpdate":"2021-02-11T22:37:04.356Z","name":"The Hollywood Brown Derby","meta":{"longitude":-81.560297,"type":"RESTAURANT","latitude":28.357648,"singleRider":false},"fastPass":false},{"id":"WaltDisneyWorldAnimalKingdom_17421326","waitTime":null,"status":"Closed","active":false,"lastUpdate":"2020-09-15T11:33:02.632Z","meta":{"longitude":-81.589796,"singleRider":false,"latitude":28.357972},"name":"Meet Favorite Disney Pals at Adventurers Outpost - Temporarily Unavailable","fastPass":false},{"id":"WaltDisneyWorldAnimalKingdom_18069632","waitTime":null,"status":"Operating","active":true,"lastUpdate":"2021-02-11T22:00:18.614Z","fastPass":false,"name":"Tiffins Restaurant","meta":{"singleRider":false,"longitude":-81.591487,"type":"RESTAURANT","latitude":28.356846}},{"id":"WaltDisneyWorldAnimalKingdom_18377778","waitTime":null,"status":"Operating","active":true,"lastUpdate":"2021-02-11T22:10:36.536Z","name":"Nomad Lounge","fastPass":false,"meta":{"type":"RESTAURANT","singleRider":false,"longitude":-81.591487,"latitude":28.356719}},{"id":"WaltDisneyWorldAnimalKingdom_18665185","waitTime":null,"status":"Closed","active":false,"lastUpdate":"2021-02-11T22:00:33.211Z","name":"Na'vi River Journey","meta":{"longitude":-81.591641,"type":"ATTRACTION","singleRider":false,"latitude":28.355257},"fastPass":false},{"id":"WaltDisneyWorldAnimalKingdom_18665186","waitTime":null,"status":"Closed","active":false,"lastUpdate":"2021-02-11T22:00:33.999Z","meta":{"unsuitableForPregnantPeople":true,"type":"ATTRACTION","longitude":-81.592147,"singleRider":false,"latitude":28.355554},"name":"Avatar Flight of Passage","fastPass":false},{"id":"WaltDisneyWorldAnimalKingdom_19330300","waitTime":null,"status":"Closed","active":false,"lastUpdate":"2021-02-11T22:10:43.381Z","fastPass":false,"meta":{"singleRider":false,"latitude":28.365188,"longitude":-81.588669,"type":"ATTRACTION"},"name":"The Animation Experience at Conservation Station"},{"id":"WaltDisneyWorldAnimalKingdom_26068","waitTime":null,"status":"Closed","active":false,"lastUpdate":"2021-02-11T22:00:37.194Z","meta":{"longitude":-81.5873781396,"type":"ATTRACTION","latitude":28.3584769119,"unsuitableForPregnantPeople":true,"singleRider":false},"fastPass":false,"name":"Expedition Everest - Legend of the Forbidden Mountain"},{"id":"WaltDisneyWorldAnimalKingdom_80010123","waitTime":null,"status":"Closed","active":false,"lastUpdate":"2021-02-11T22:00:36.131Z","fastPass":false,"name":"DINOSAUR","meta":{"latitude":28.355307,"type":"ATTRACTION","singleRider":false,"unsuitableForPregnantPeople":true,"longitude":-81.588444}},{"id":"WaltDisneyWorldAnimalKingdom_80010150","waitTime":null,"status":"Closed","active":false,"lastUpdate":"2021-02-11T22:00:36.663Z","name":"It's Tough to be a Bug!","meta":{"longitude":-81.590118,"latitude":28.357488,"singleRider":false,"type":"ATTRACTION"},"fastPass":false},{"id":"WaltDisneyWorldAnimalKingdom_80010154","waitTime":null,"status":"Refurbishment","active":false,"lastUpdate":"2021-01-04T05:02:16.994Z","name":"Kali River Rapids","meta":{"longitude":-81.5889412165,"unsuitableForPregnantPeople":true,"singleRider":false,"type":"ATTRACTION","latitude":28.3587834288},"fastPass":false},{"id":"WaltDisneyWorldAnimalKingdom_80010157","waitTime":null,"status":"Closed","active":false,"lastUpdate":"2021-02-11T22:00:34.597Z","name":"Kilimanjaro Safaris","meta":{"type":"ATTRACTION","singleRider":false,"unsuitableForPregnantPeople":true,"latitude":28.359331,"longitude":-81.59228},"fastPass":false},{"id":"WaltDisneyWorldAnimalKingdom_80010164","waitTime":null,"status":"Closed","active":false,"lastUpdate":"2021-02-11T22:01:43.817Z","fastPass":false,"meta":{"type":"ATTRACTION","latitude":28.359379,"longitude":-81.589019,"singleRider":false},"name":"Maharajah Jungle Trek"},{"id":"WaltDisneyWorldAnimalKingdom_80010175","waitTime":null,"status":"Closed","active":false,"lastUpdate":"2021-02-11T21:31:44.205Z","name":"Gorilla Falls Exploration Trail","meta":{"type":"ATTRACTION","singleRider":false,"latitude":28.359954,"longitude":-81.592149},"fastPass":false},{"id":"WaltDisneyWorldAnimalKingdom_80010203","waitTime":null,"status":"Closed","active":false,"lastUpdate":"2021-01-03T21:23:41.107Z","fastPass":false,"meta":{"singleRider":false,"longitude":-81.5884791864,"type":"ATTRACTION","latitude":28.3566787564},"name":"The Boneyard - Temporarily Unavailable"},{"id":"WaltDisneyWorldAnimalKingdom_80010228","waitTime":null,"status":"Closed","active":false,"lastUpdate":"2021-02-11T22:01:44.409Z","meta":{"latitude":28.356503,"singleRider":false,"longitude":-81.588074,"type":"ATTRACTION"},"name":"TriceraTop Spin","fastPass":false},{"id":"WaltDisneyWorldAnimalKingdom_80010235","waitTime":null,"status":"Closed","active":false,"lastUpdate":"2021-02-11T21:31:45.019Z","name":"Wildlife Express Train","meta":{"type":"ATTRACTION","longitude":-81.5914175464,"latitude":28.3598097347,"singleRider":false},"fastPass":false},{"id":"WaltDisneyWorldMagicKingdom_136550","waitTime":null,"status":"Closed","active":false,"lastUpdate":"2021-01-03T21:24:21.706Z","meta":{"singleRider":false,"type":"ATTRACTION","longitude":-81.5797358751,"latitude":28.4183977566},"name":"Monsters, Inc. Laugh Floor - Temporarily Unavailable","fastPass":false},{"id":"WaltDisneyWorldMagicKingdom_15743682","waitTime":null,"status":"Closed","active":false,"lastUpdate":"2020-09-15T11:33:17.406Z","meta":{"singleRider":false,"latitude":28.421282,"longitude":-81.578932},"fastPass":false,"name":"Meet Dashing Disney Pals as Circus Stars at Pete’s Silly Side Show - Temporarily Unavailable"},{"id":"WaltDisneyWorldMagicKingdom_15850196","waitTime":null,"status":"Closed","active":false,"lastUpdate":"2020-09-15T11:33:17.374Z","fastPass":false,"meta":{"singleRider":false,"longitude":-81.580746,"latitude":28.416727},"name":"Meet Mickey Mouse at Town Square Theater - Temporarily Unavailable"},{"id":"WaltDisneyWorldMagicKingdom_16124144","waitTime":null,"status":"Closed","active":false,"lastUpdate":"2021-02-12T00:01:43.821Z","fastPass":false,"meta":{"latitude":28.4182264646,"longitude":-81.583738382,"singleRider":false,"type":"ATTRACTION"},"name":"Walt Disney's Enchanted Tiki Room"},{"id":"WaltDisneyWorldMagicKingdom_16414579","waitTime":null,"status":"Closed","active":false,"lastUpdate":"2021-01-24T23:00:36.558Z","name":"Sorcerers of the Magic Kingdom","fastPass":false,"meta":{"latitude":28.416944,"type":"ATTRACTION","longitude":-81.58163,"singleRider":false}},{"id":"WaltDisneyWorldMagicKingdom_16491297","waitTime":null,"status":"Closed","active":false,"lastUpdate":"2021-02-12T00:00:35.561Z","fastPass":false,"meta":{"longitude":-81.5783907473,"latitude":28.4207661576,"type":"ATTRACTION","unsuitableForPregnantPeople":true,"singleRider":false},"name":"The Barnstormer"},{"id":"WaltDisneyWorldMagicKingdom_16491299","waitTime":null,"status":"Refurbishment","active":false,"lastUpdate":"2021-01-03T21:24:18.928Z","name":"Walt Disney World Railroad - Fantasyland - Temporarily Unavailable","fastPass":false,"meta":{"longitude":-81.578368,"type":"ATTRACTION","latitude":28.420934,"singleRider":false}},{"id":"WaltDisneyWorldMagicKingdom_16660079","waitTime":null,"status":"Operating","active":true,"lastUpdate":"2021-02-12T00:55:43.425Z","meta":{"longitude":-81.5807074858,"singleRider":false,"type":"RESTAURANT","latitude":28.4212491492},"fastPass":false,"name":"Be Our Guest Restaurant"},{"id":"WaltDisneyWorldMagicKingdom_16767263","waitTime":null,"status":"Closed","active":false,"lastUpdate":"2021-02-12T00:00:36.258Z","name":"Under the Sea ~ Journey of The Little Mermaid","meta":{"singleRider":false,"type":"ATTRACTION","longitude":-81.5799752427,"latitude":28.4211203226},"fastPass":false},{"id":"WaltDisneyWorldMagicKingdom_16767276","waitTime":null,"status":"Closed","active":false,"lastUpdate":"2021-01-03T21:24:20.764Z","meta":{"longitude":-81.58093011,"singleRider":false,"latitude":28.42099058,"type":"ATTRACTION"},"name":"Enchanted Tales with Belle - Temporarily Unavailable","fastPass":false},{"id":"WaltDisneyWorldMagicKingdom_16767284","waitTime":null,"status":"Closed","active":false,"lastUpdate":"2021-02-12T00:00:49.185Z","name":"Seven Dwarfs Mine Train","meta":{"longitude":-81.58031,"type":"ATTRACTION","singleRider":false,"latitude":28.42037,"unsuitableForPregnantPeople":true},"fastPass":false},{"id":"WaltDisneyWorldMagicKingdom_16874126","waitTime":null,"status":"Closed","active":false,"lastUpdate":"2020-09-15T11:33:17.441Z","name":"Meet Ariel at Her Grotto - Temporarily Unavailable","meta":{"longitude":-81.579613144497,"singleRider":false,"latitude":28.420893275289},"fastPass":false},{"id":"WaltDisneyWorldMagicKingdom_17272158","waitTime":null,"status":"Closed","active":false,"lastUpdate":"2021-01-03T21:24:21.210Z","fastPass":false,"name":"A Pirate's Adventure ~ Treasures of the Seven Seas - Temporarily Unavailable","meta":{"latitude":28.41837254,"singleRider":false,"type":"ATTRACTION","longitude":-81.58466913}},{"id":"WaltDisneyWorldMagicKingdom_17505397","waitTime":null,"status":"Closed","active":false,"lastUpdate":"2020-09-15T11:33:17.486Z","fastPass":false,"name":"Meet Rapunzel and Tiana at Princess Fairytale Hall - Temporarily Unavailable","meta":{"singleRider":false,"longitude":-81.580917439677,"latitude":28.420045752669}},{"id":"WaltDisneyWorldMagicKingdom_17752793","waitTime":null,"status":"Closed","active":false,"lastUpdate":"2020-09-15T11:33:17.444Z","meta":{"latitude":28.416727,"longitude":-81.580815,"singleRider":false},"name":"Meet Tinker Bell at Town Square Theater - Temporarily Unavailable","fastPass":false},{"id":"WaltDisneyWorldMagicKingdom_18185631","waitTime":null,"status":"Operating","active":true,"lastUpdate":"2021-02-11T23:56:58.935Z","fastPass":false,"meta":{"longitude":-81.582592,"singleRider":false,"type":"RESTAURANT","latitude":28.418491},"name":"Jungle Navigation Co. LTD Skipper Canteen"},{"id":"WaltDisneyWorldMagicKingdom_18498503","waitTime":null,"status":"Closed","active":false,"lastUpdate":"2020-09-15T11:33:17.494Z","meta":{"singleRider":false,"longitude":-81.58094,"latitude":28.420012},"name":"Meet Cinderella and Elena at Princess Fairytale Hall - Temporarily Unavailable","fastPass":false},{"id":"WaltDisneyWorldMagicKingdom_2219610","waitTime":null,"status":"Refurbishment","active":false,"lastUpdate":"2021-01-03T21:23:08.615Z","name":"Walt Disney World Railroad - Frontierland - Temporarily Unavailable","fastPass":false,"meta":{"type":"ATTRACTION","latitude":28.41969,"longitude":-81.585078,"singleRider":false}},{"id":"WaltDisneyWorldMagicKingdom_387133","waitTime":null,"status":"Closed","active":false,"lastUpdate":"2020-09-15T11:33:17.492Z","fastPass":false,"name":"Meet Daring Disney Pals as Circus Stars at Pete's Silly Side Show - Temporarily Unavailable","meta":{"longitude":-81.578932,"singleRider":false,"latitude":28.421282}},{"id":"WaltDisneyWorldMagicKingdom_80010107","waitTime":null,"status":"Closed","active":false,"lastUpdate":"2021-02-12T00:01:44.520Z","meta":{"latitude":28.4184926179,"longitude":-81.5789887902,"singleRider":false,"type":"ATTRACTION"},"fastPass":false,"name":"Astro Orbiter"},{"id":"WaltDisneyWorldMagicKingdom_80010110","waitTime":null,"status":"Closed","active":false,"lastUpdate":"2021-02-12T00:00:37.759Z","fastPass":false,"meta":{"type":"ATTRACTION","longitude":-81.5846422864,"latitude":28.4199638504,"singleRider":false,"unsuitableForPregnantPeople":true},"name":"Big Thunder Mountain Railroad"},{"id":"WaltDisneyWorldMagicKingdom_80010114","waitTime":null,"status":"Closed","active":false,"lastUpdate":"2021-02-12T00:00:51.218Z","meta":{"longitude":-81.5794086456,"latitude":28.4182868839,"singleRider":false,"type":"ATTRACTION"},"fastPass":false,"name":"Buzz Lightyear's Space Ranger Spin"},{"id":"WaltDisneyWorldMagicKingdom_80010117","waitTime":null,"status":"Closed","active":false,"lastUpdate":"2021-02-12T00:01:45.154Z","meta":{"longitude":-81.581255,"singleRider":false,"type":"ATTRACTION","latitude":28.420169},"name":"Prince Charming Regal Carrousel","fastPass":false},{"id":"WaltDisneyWorldMagicKingdom_80010129","waitTime":null,"status":"Closed","active":false,"lastUpdate":"2021-02-12T00:00:39.275Z","name":"Dumbo the Flying Elephant","fastPass":false,"meta":{"singleRider":false,"latitude":28.420509033,"type":"ATTRACTION","longitude":-81.5789473057}},{"id":"WaltDisneyWorldMagicKingdom_80010149","waitTime":null,"status":"Closed","active":false,"lastUpdate":"2021-02-12T00:00:51.846Z","name":"\"it's a small world\"","fastPass":false,"meta":{"singleRider":false,"type":"ATTRACTION","longitude":-81.5820392026,"latitude":28.4204816402}},{"id":"WaltDisneyWorldMagicKingdom_80010153","waitTime":null,"status":"Closed","active":false,"lastUpdate":"2021-02-12T00:00:53.794Z","name":"Jungle Cruise","meta":{"longitude":-81.5834393157,"singleRider":false,"type":"ATTRACTION","latitude":28.41797818},"fastPass":false},{"id":"WaltDisneyWorldMagicKingdom_80010160","waitTime":null,"status":"Closed","active":false,"lastUpdate":"2021-02-12T00:01:48.557Z","fastPass":false,"name":"Liberty Square Riverboat","meta":{"longitude":-81.5827982677,"singleRider":false,"latitude":28.4195563399,"type":"ATTRACTION"}},{"id":"WaltDisneyWorldMagicKingdom_80010162","waitTime":null,"status":"Closed","active":false,"lastUpdate":"2021-02-12T00:00:39.909Z","name":"Mad Tea Party","fastPass":false,"meta":{"singleRider":false,"type":"ATTRACTION","longitude":-81.5798248916,"latitude":28.4200230397}},{"id":"WaltDisneyWorldMagicKingdom_80010165","waitTime":null,"status":"Closed","active":false,"lastUpdate":"2021-01-03T21:24:20.300Z","meta":{"latitude":28.4168698711,"singleRider":false,"longitude":-81.5815081252,"type":"ATTRACTION"},"fastPass":false,"name":"Main Street Vehicles - Temporarily Unavailable"},{"id":"WaltDisneyWorldMagicKingdom_80010170","waitTime":null,"status":"Closed","active":false,"lastUpdate":"2021-02-12T00:00:40.643Z","name":"Mickey's PhilharMagic","meta":{"latitude":28.4200304909,"singleRider":false,"longitude":-81.5814839853,"type":"ATTRACTION"},"fastPass":false},{"id":"WaltDisneyWorldMagicKingdom_80010176","waitTime":null,"status":"Closed","active":false,"lastUpdate":"2021-02-12T00:00:41.295Z","name":"Peter Pan's Flight","fastPass":false,"meta":{"latitude":28.4202640272,"singleRider":false,"longitude":-81.5818916811,"type":"ATTRACTION"}},{"id":"WaltDisneyWorldMagicKingdom_80010177","waitTime":null,"status":"Closed","active":false,"lastUpdate":"2021-02-12T00:00:41.916Z","name":"Pirates of the Caribbean","fastPass":false,"meta":{"type":"ATTRACTION","longitude":-81.5842252,"latitude":28.41796992,"singleRider":false}},{"id":"WaltDisneyWorldMagicKingdom_80010190","waitTime":null,"status":"Closed","active":false,"lastUpdate":"2021-02-12T00:00:43.181Z","fastPass":false,"meta":{"longitude":-81.5781962872,"singleRider":false,"type":"ATTRACTION","latitude":28.4188341691,"unsuitableForPregnantPeople":true},"name":"Space Mountain"},{"id":"WaltDisneyWorldMagicKingdom_80010192","waitTime":null,"status":"Closed","active":false,"lastUpdate":"2021-02-12T00:00:43.795Z","name":"Splash Mountain","meta":{"singleRider":false,"unsuitableForPregnantPeople":true,"type":"ATTRACTION","latitude":28.419418,"longitude":-81.58498},"fastPass":false},{"id":"WaltDisneyWorldMagicKingdom_80010196","waitTime":null,"status":"Closed","active":false,"lastUpdate":"2021-02-12T00:01:45.747Z","name":"Swiss Family Treehouse","fastPass":false,"meta":{"singleRider":false,"type":"ATTRACTION","longitude":-81.5827982677,"latitude":28.4184325517}},{"id":"WaltDisneyWorldMagicKingdom_80010208","waitTime":null,"status":"Closed","active":false,"lastUpdate":"2021-02-12T00:00:45.237Z","name":"Haunted Mansion","fastPass":false,"meta":{"latitude":28.4202,"longitude":-81.58288,"type":"ATTRACTION","singleRider":false}},{"id":"WaltDisneyWorldMagicKingdom_80010210","waitTime":null,"status":"Closed","active":false,"lastUpdate":"2021-02-12T00:00:33.978Z","fastPass":false,"name":"The Magic Carpets of Aladdin","meta":{"type":"ATTRACTION","latitude":28.41843,"singleRider":false,"longitude":-81.583472}},{"id":"WaltDisneyWorldMagicKingdom_80010213","waitTime":null,"status":"Closed","active":false,"lastUpdate":"2021-02-12T00:00:45.807Z","fastPass":false,"name":"The Many Adventures of Winnie the Pooh","meta":{"singleRider":false,"type":"ATTRACTION","longitude":-81.580266,"latitude":28.420212}},{"id":"WaltDisneyWorldMagicKingdom_80010220","waitTime":null,"status":"Closed","active":false,"lastUpdate":"2021-02-11T21:31:43.620Z","meta":{"longitude":-81.58428,"latitude":28.419503,"singleRider":false,"type":"ATTRACTION"},"name":"Tom Sawyer Island","fastPass":false},{"id":"WaltDisneyWorldMagicKingdom_80010222","waitTime":null,"status":"Closed","active":false,"lastUpdate":"2021-02-12T00:00:52.567Z","name":"Tomorrowland Speedway","fastPass":false,"meta":{"longitude":-81.579302,"unsuitableForPregnantPeople":true,"latitude":28.419368,"singleRider":false,"type":"ATTRACTION"}},{"id":"WaltDisneyWorldMagicKingdom_80010224","waitTime":null,"status":"Refurbishment","active":false,"lastUpdate":"2021-01-03T21:24:19.826Z","name":"Tomorrowland Transit Authority PeopleMover - Temporarily Unavailable","fastPass":false,"meta":{"type":"ATTRACTION","longitude":-81.579033,"latitude":28.418155,"singleRider":false}},{"id":"WaltDisneyWorldMagicKingdom_80010230","waitTime":null,"status":"Refurbishment","active":false,"lastUpdate":"2021-01-03T21:23:09.088Z","meta":{"singleRider":false,"longitude":-81.581204,"type":"ATTRACTION","latitude":28.416543},"fastPass":false,"name":"Walt Disney World Railroad - Main Street, U.S.A. - Temporarily Unavailable"},{"id":"WaltDisneyWorldMagicKingdom_80010232","waitTime":null,"status":"Closed","active":false,"lastUpdate":"2021-02-11T23:01:45.377Z","meta":{"type":"ATTRACTION","longitude":-81.5790083064,"singleRider":false,"latitude":28.4180310951},"name":"Walt Disney's Carousel of Progress","fastPass":false},{"id":"WaltDisneyWorldMagicKingdom_80069748","waitTime":null,"status":"Closed","active":false,"lastUpdate":"2021-02-12T00:01:49.253Z","fastPass":false,"name":"Country Bear Jamboree","meta":{"singleRider":false,"longitude":-81.5837222887,"latitude":28.4187861348,"type":"ATTRACTION"}},{"id":"WaltDisneyWorldMagicKingdom_80069754","waitTime":null,"status":"Refurbishment","active":false,"lastUpdate":"2021-01-21T05:00:35.597Z","name":"The Hall of Presidents","meta":{"type":"ATTRACTION","latitude":28.4194484171,"longitude":-81.5823248578,"singleRider":false},"fastPass":false},{"id":"WaltDisneyWorldMagicKingdom_90001815","waitTime":null,"status":"Closed","active":false,"lastUpdate":"2021-02-02T05:00:59.870Z","name":"Liberty Square Market - Temporarily Unavailable","meta":{"type":"RESTAURANT","latitude":28.4195299,"longitude":-81.5825378,"singleRider":false},"fastPass":false},{"id":"WaltDisneyWorldMagicKingdom_90001819","waitTime":null,"status":"Operating","active":true,"lastUpdate":"2021-02-11T23:55:29.505Z","name":"Liberty Tree Tavern","fastPass":false,"meta":{"latitude":28.4191196055,"longitude":-81.5826159743,"type":"RESTAURANT","singleRider":false}},{"id":"WaltDisneyWorldMagicKingdom_90002464","waitTime":null,"status":"Operating","active":true,"lastUpdate":"2021-02-09T17:26:28.220Z","fastPass":false,"name":"Cinderella's Royal Table","meta":{"latitude":28.4195,"singleRider":false,"type":"RESTAURANT","longitude":-81.581101}},{"id":"WaltDisneyWorldMagicKingdom_90002660","waitTime":null,"status":"Operating","active":true,"lastUpdate":"2021-02-11T23:55:21.832Z","name":"The Crystal Palace","meta":{"type":"RESTAURANT","singleRider":false,"longitude":-81.5818970259,"latitude":28.4181214892},"fastPass":false},{"id":"WaltDisneyWorldMagicKingdom_90002670","waitTime":null,"status":"Operating","active":true,"lastUpdate":"2021-02-11T23:53:18.591Z","name":"The Plaza Restaurant","fastPass":false,"meta":{"type":"RESTAURANT","latitude":28.4180247703,"longitude":-81.5809394969,"singleRider":false}},{"id":"WaltDisneyWorldMagicKingdom_90002678","waitTime":null,"status":"Operating","active":true,"lastUpdate":"2021-02-11T20:41:52.510Z","meta":{"singleRider":false,"latitude":28.4169323426,"longitude":-81.5807276023,"type":"RESTAURANT"},"name":"Tony's Town Square Restaurant","fastPass":false},{"id":"WaltDisneyWorldEpcot_107785","waitTime":null,"status":"Closed","active":false,"lastUpdate":"2021-02-12T01:00:37.238Z","meta":{"latitude":28.374904,"singleRider":false,"type":"ATTRACTION","longitude":-81.550852},"name":"The Seas with Nemo & Friends","fastPass":false},{"id":"WaltDisneyWorldEpcot_15525573","waitTime":null,"status":"Operating","active":true,"lastUpdate":"2021-02-11T21:33:37.432Z","fastPass":false,"name":"La Hacienda de San Angel","meta":{"longitude":-81.547532,"latitude":28.371221,"type":"RESTAURANT","singleRider":false}},{"id":"WaltDisneyWorldEpcot_17564219","waitTime":null,"status":"Closed","active":false,"lastUpdate":"2020-09-15T11:33:07.103Z","meta":{"latitude":28.37097,"longitude":-81.547134,"singleRider":false},"name":"Meet Anna and Elsa at Royal Sommerhus - Temporarily Unavailable","fastPass":false},{"id":"WaltDisneyWorldEpcot_17720675","waitTime":null,"status":"Operating","active":true,"lastUpdate":"2021-02-12T00:55:31.988Z","fastPass":false,"name":"Spice Road Table","meta":{"longitude":-81.551645,"latitude":28.368468,"singleRider":false,"type":"RESTAURANT"}},{"id":"WaltDisneyWorldEpcot_18269694","waitTime":null,"status":"Closed","active":false,"lastUpdate":"2021-02-12T01:01:47.892Z","fastPass":false,"name":"Disney and Pixar Short Film Festival","meta":{"singleRider":false,"type":"ATTRACTION","longitude":-81.55115,"latitude":28.37263}},{"id":"WaltDisneyWorldEpcot_18375495","waitTime":null,"status":"Closed","active":false,"lastUpdate":"2021-02-12T01:00:31.653Z","name":"Frozen Ever After","meta":{"singleRider":false,"longitude":-81.54653,"latitude":28.370745,"type":"ATTRACTION"},"fastPass":false},{"id":"WaltDisneyWorldEpcot_19463785","waitTime":null,"status":"Closed","active":false,"lastUpdate":"2021-02-11T23:01:48.631Z","name":"Beauty and the Beast Sing-Along","meta":{"singleRider":false,"type":"ATTRACTION","latitude":28.368864,"longitude":-81.552978},"fastPass":false},{"id":"WaltDisneyWorldEpcot_19473173","waitTime":null,"status":"Closed","active":false,"lastUpdate":"2021-02-12T01:01:44.599Z","fastPass":false,"name":"Awesome Planet","meta":{"longitude":-81.552138,"type":"ATTRACTION","latitude":28.374301,"singleRider":false}},{"id":"WaltDisneyWorldEpcot_20194","waitTime":null,"status":"Closed","active":false,"lastUpdate":"2021-02-12T01:00:36.601Z","meta":{"type":"ATTRACTION","singleRider":false,"longitude":-81.552248,"latitude":28.373592},"fastPass":false,"name":"Soarin' Around the World"},{"id":"WaltDisneyWorldEpcot_207395","waitTime":null,"status":"Closed","active":false,"lastUpdate":"2021-02-12T01:01:43.945Z","name":"Gran Fiesta Tour Starring The Three Caballeros","fastPass":false,"meta":{"longitude":-81.547368,"singleRider":false,"latitude":28.371649,"type":"ATTRACTION"}},{"id":"WaltDisneyWorldEpcot_62992","waitTime":null,"status":"Closed","active":false,"lastUpdate":"2021-01-03T21:23:09.564Z","fastPass":false,"meta":{"latitude":28.375255,"longitude":-81.551047,"singleRider":false,"type":"ATTRACTION"},"name":"Turtle Talk With Crush - Temporarily Unavailable"},{"id":"WaltDisneyWorldEpcot_80010145","waitTime":null,"status":"Closed","active":false,"lastUpdate":"2021-02-12T00:46:56.328Z","fastPass":false,"name":"Impressions de France","meta":{"longitude":-81.552978,"latitude":28.368864,"singleRider":false,"type":"ATTRACTION"}},{"id":"WaltDisneyWorldEpcot_80010152","waitTime":null,"status":"Closed","active":false,"lastUpdate":"2021-02-12T01:00:33.029Z","meta":{"singleRider":false,"type":"ATTRACTION","longitude":-81.551401,"latitude":28.372994},"name":"Journey Into Imagination With Figment","fastPass":false},{"id":"WaltDisneyWorldEpcot_80010161","waitTime":null,"status":"Closed","active":false,"lastUpdate":"2021-02-12T01:00:37.783Z","fastPass":false,"meta":{"latitude":28.374245,"longitude":-81.552301,"type":"ATTRACTION","singleRider":false},"name":"Living with the Land"},{"id":"WaltDisneyWorldEpcot_80010173","waitTime":null,"status":"Closed","active":false,"lastUpdate":"2021-02-12T01:00:38.380Z","name":"Mission: SPACE","fastPass":false,"meta":{"type":"ATTRACTION","longitude":-81.547156,"singleRider":false,"latitude":28.373927,"unsuitableForPregnantPeople":true}},{"id":"WaltDisneyWorldEpcot_80010174","waitTime":null,"status":"Closed","active":false,"lastUpdate":"2021-02-12T00:46:56.914Z","name":"Canada Far and Wide in Circle-Vision 360","fastPass":false,"meta":{"longitude":-81.55196,"latitude":28.371694,"type":"ATTRACTION","singleRider":false}},{"id":"WaltDisneyWorldEpcot_80010180","waitTime":null,"status":"Closed","active":false,"lastUpdate":"2021-02-12T01:01:48.791Z","name":"Reflections of China","meta":{"type":"ATTRACTION","latitude":28.369791,"longitude":-81.546381,"singleRider":false},"fastPass":false},{"id":"WaltDisneyWorldEpcot_80010191","waitTime":null,"status":"Closed","active":false,"lastUpdate":"2021-02-12T01:00:32.279Z","meta":{"latitude":28.375583,"type":"ATTRACTION","singleRider":false,"longitude":-81.549401},"name":"Spaceship Earth","fastPass":false},{"id":"WaltDisneyWorldEpcot_80010199","waitTime":null,"status":"Closed","active":false,"lastUpdate":"2021-02-12T01:00:33.808Z","meta":{"unsuitableForPregnantPeople":true,"longitude":-81.547489,"type":"ATTRACTION","latitude":28.373228,"singleRider":true},"name":"Test Track","fastPass":false},{"id":"WaltDisneyWorldEpcot_80010200","waitTime":null,"status":"Closed","active":false,"lastUpdate":"2021-02-12T01:01:45.141Z","name":"The American Adventure","meta":{"singleRider":false,"longitude":-81.549446,"latitude":28.367517,"type":"ATTRACTION"},"fastPass":false},{"id":"WaltDisneyWorldEpcot_90001292","waitTime":null,"status":"Operating","active":true,"lastUpdate":"2021-02-12T00:55:32.643Z","name":"Biergarten Restaurant","meta":{"type":"RESTAURANT","longitude":-81.546819,"latitude":28.368153,"singleRider":false},"fastPass":false},{"id":"WaltDisneyWorldEpcot_90001416","waitTime":null,"status":"Operating","active":true,"lastUpdate":"2021-02-12T00:33:03.622Z","name":"Coral Reef Restaurant","fastPass":false,"meta":{"type":"RESTAURANT","singleRider":false,"longitude":-81.550458,"latitude":28.375096}},{"id":"WaltDisneyWorldEpcot_90001798","waitTime":null,"status":"Operating","active":true,"lastUpdate":"2021-02-12T00:38:22.688Z","meta":{"longitude":-81.551512,"singleRider":false,"latitude":28.371657,"type":"RESTAURANT"},"fastPass":false,"name":"Le Cellier Steakhouse"},{"id":"WaltDisneyWorldEpcot_90002084","waitTime":null,"status":"Operating","active":true,"lastUpdate":"2021-02-11T23:39:35.177Z","meta":{"latitude":28.370508,"longitude":-81.551684,"type":"RESTAURANT","singleRider":false},"name":"Rose & Crown Dining Room","fastPass":false},{"id":"WaltDisneyWorldEpcot_90002100","waitTime":null,"status":"Operating","active":true,"lastUpdate":"2021-02-11T21:06:34.907Z","meta":{"latitude":28.371612,"longitude":-81.547258,"singleRider":false,"type":"RESTAURANT"},"fastPass":false,"name":"San Angel Inn Restaurante    "},{"id":"WaltDisneyWorldEpcot_90002237","waitTime":null,"status":"Operating","active":true,"lastUpdate":"2021-02-12T00:56:58.001Z","fastPass":false,"name":"Garden Grill Restaurant","meta":{"singleRider":false,"latitude":28.374039,"longitude":-81.552324,"type":"RESTAURANT"}},{"id":"WaltDisneyWorldHollywoodStudios_136","waitTime":null,"status":"Closed","active":false,"lastUpdate":"2020-09-15T11:33:12.086Z","fastPass":false,"name":"Indiana Jones™ Epic Stunt Spectacular! - Temporarily Unavailable","meta":{"longitude":-81.5586114479,"singleRider":false,"latitude":28.3566700675}},{"id":"WaltDisneyWorldHollywoodStudios_17842841","waitTime":null,"status":"Closed","active":false,"lastUpdate":"2020-09-15T11:33:12.046Z","meta":{"latitude":28.3568243464,"longitude":-81.5596944094,"singleRider":false},"name":"For the First Time in Forever: A Frozen Sing-Along Celebration - Temporarily Unavailable","fastPass":false},{"id":"WaltDisneyWorldHollywoodStudios_18189394","waitTime":null,"status":"Closed","active":false,"lastUpdate":"2020-09-15T11:33:12.077Z","meta":{"singleRider":false,"latitude":28.35796,"longitude":-81.560938},"name":"Star Wars Launch Bay: Meet Chewbacca - Temporarily Unavailable","fastPass":false},{"id":"WaltDisneyWorldHollywoodStudios_18189398","waitTime":null,"status":"Closed","active":false,"lastUpdate":"2020-09-15T11:33:12.069Z","fastPass":false,"meta":{"singleRider":false,"latitude":28.35796,"longitude":-81.560938},"name":"Star Wars Launch Bay: Encounter Darth Vader - Temporarily Unavailable"},{"id":"WaltDisneyWorldHollywoodStudios_18360041","waitTime":null,"status":"Closed","active":false,"lastUpdate":"2021-01-03T21:23:31.878Z","name":"Star Wars Launch Bay Theater - Temporarily Unavailable","fastPass":false,"meta":{"singleRider":false,"longitude":-81.561061,"type":"ATTRACTION","latitude":28.357821}},{"id":"WaltDisneyWorldHollywoodStudios_18368385","waitTime":null,"status":"Closed","active":false,"lastUpdate":"2020-09-15T11:33:12.104Z","meta":{"latitude":28.356072,"longitude":-81.559158,"singleRider":false},"fastPass":false,"name":"Celebrity Spotlight - Temporarily Unavailable"},{"id":"WaltDisneyWorldHollywoodStudios_18368386","waitTime":null,"status":"Closed","active":false,"lastUpdate":"2020-09-15T11:33:12.095Z","fastPass":false,"meta":{"longitude":-81.559479,"singleRider":false,"latitude":28.356068},"name":"Mickey and Minnie Starring in Red Carpet Dreams - Temporarily Unavailable"},{"id":"WaltDisneyWorldHollywoodStudios_18669338","waitTime":null,"status":"Closed","active":false,"lastUpdate":"2020-09-15T11:33:12.121Z","name":"BB-8 Astromech on Duty - Temporarily Unavailable","meta":{"longitude":-81.560938,"latitude":28.35796,"singleRider":false},"fastPass":false},{"id":"WaltDisneyWorldHollywoodStudios_18770880","waitTime":null,"status":"Closed","active":false,"lastUpdate":"2021-02-11T23:01:44.116Z","fastPass":false,"name":"Walt Disney Presents","meta":{"longitude":-81.560982,"latitude":28.35686,"singleRider":false,"type":"ATTRACTION"}},{"id":"WaltDisneyWorldHollywoodStudios_18904138","waitTime":null,"status":"Closed","active":false,"lastUpdate":"2021-02-12T00:00:49.791Z","name":"Slinky Dog Dash","fastPass":false,"meta":{"longitude":-81.562786,"latitude":28.356245,"unsuitableForPregnantPeople":true,"singleRider":false,"type":"ATTRACTION"}},{"id":"WaltDisneyWorldHollywoodStudios_18904172","waitTime":null,"status":"Closed","active":false,"lastUpdate":"2021-02-12T00:00:37.045Z","meta":{"latitude":28.355385,"singleRider":false,"type":"ATTRACTION","longitude":-81.562379},"name":"Alien Swirling Saucers","fastPass":false},{"id":"WaltDisneyWorldHollywoodStudios_19025682","waitTime":null,"status":"Operating","active":true,"lastUpdate":"2020-09-15T14:02:51.117Z","name":"Star Wars: Galaxy's Edge","fastPass":false,"meta":{"singleRider":false,"latitude":28.355234,"longitude":-81.559787}},{"id":"WaltDisneyWorldHollywoodStudios_19152250","waitTime":null,"status":"Closed","active":false,"lastUpdate":"2020-09-15T11:33:12.147Z","fastPass":false,"name":"Meet Sulley at Walt Disney Presents - Temporarily Unavailable","meta":{"longitude":-81.560984,"singleRider":false,"latitude":28.356865}},{"id":"WaltDisneyWorldHollywoodStudios_19259335","waitTime":null,"status":"Closed","active":false,"lastUpdate":"2021-02-12T00:00:50.462Z","name":"Mickey & Minnie's Runaway Railway","fastPass":false,"meta":{"longitude":-81.5605667783,"singleRider":false,"type":"ATTRACTION","latitude":28.3566783801}},{"id":"WaltDisneyWorldHollywoodStudios_19263735","waitTime":null,"status":"Closed","active":false,"lastUpdate":"2021-02-12T00:00:38.500Z","fastPass":false,"name":"Millennium Falcon: Smugglers Run","meta":{"latitude":28.353889,"longitude":-81.561689,"singleRider":true,"type":"ATTRACTION","unsuitableForPregnantPeople":true}},{"id":"WaltDisneyWorldHollywoodStudios_19263736","waitTime":null,"status":"Closed","active":false,"lastUpdate":"2021-02-12T00:01:32.762Z","fastPass":false,"meta":{"singleRider":false,"unsuitableForPregnantPeople":true,"longitude":-81.560457,"type":"ATTRACTION","latitude":28.354884},"name":"Star Wars: Rise of the Resistance"},{"id":"WaltDisneyWorldHollywoodStudios_19267226","waitTime":null,"status":"Closed","active":false,"lastUpdate":"2021-01-30T21:13:32.709Z","name":"Oga's Cantina at the Walt Disney World Resort","fastPass":false,"meta":{"singleRider":false,"latitude":28.354095,"type":"RESTAURANT","longitude":-81.562075}},{"id":"WaltDisneyWorldHollywoodStudios_19276204","waitTime":null,"status":"Closed","active":false,"lastUpdate":"2021-02-11T23:01:44.712Z","name":"Lightning McQueen's Racing Academy","fastPass":false,"meta":{"singleRider":false,"type":"ATTRACTION","longitude":-81.560707,"latitude":28.360035}},{"id":"WaltDisneyWorldHollywoodStudios_19497952","waitTime":null,"status":"Closed","active":false,"lastUpdate":"2021-02-11T23:01:48.095Z","fastPass":false,"name":"Vacation Fun - An Original Animated Short with Mickey & Minnie","meta":{"longitude":-81.559031,"type":"ATTRACTION","singleRider":false,"latitude":28.356316}},{"id":"WaltDisneyWorldHollywoodStudios_19582977","waitTime":null,"status":"Closed","active":false,"lastUpdate":"2020-09-15T11:33:12.211Z","name":"Disney Society Orchestra and Friends","meta":{"latitude":28.3589162565,"singleRider":false,"longitude":-81.5595985008},"fastPass":false},{"id":"WaltDisneyWorldHollywoodStudios_19583373","waitTime":null,"status":"Closed","active":false,"lastUpdate":"2020-09-15T11:33:12.219Z","fastPass":false,"name":"Disney Junior Play and Dance!","meta":{"longitude":-81.560567,"latitude":28.357613,"singleRider":false}},{"id":"WaltDisneyWorldHollywoodStudios_202731","waitTime":null,"status":"Closed","active":false,"lastUpdate":"2020-09-15T11:33:12.226Z","name":"Disney Junior Dance Party! - Temporarily Unavailable","fastPass":false,"meta":{"longitude":-81.560567,"singleRider":false,"latitude":28.357613}},{"id":"WaltDisneyWorldHollywoodStudios_209857","waitTime":null,"status":"Closed","active":false,"lastUpdate":"2021-02-12T00:00:34.835Z","fastPass":false,"name":"Toy Story Mania!","meta":{"latitude":28.356404,"singleRider":false,"longitude":-81.561894,"type":"ATTRACTION"}},{"id":"WaltDisneyWorldHollywoodStudios_80010151","waitTime":null,"status":"Closed","active":false,"lastUpdate":"2021-02-11T23:00:31.711Z","meta":{"longitude":-81.5594643904,"type":"ATTRACTION","latitude":28.3550644708,"singleRider":false},"fastPass":false,"name":"Muppet*Vision 3D"},{"id":"WaltDisneyWorldHollywoodStudios_80010182","waitTime":null,"status":"Closed","active":false,"lastUpdate":"2021-02-12T00:00:42.526Z","name":"Rock 'n' Roller Coaster Starring Aerosmith","fastPass":false,"meta":{"unsuitableForPregnantPeople":true,"singleRider":true,"type":"ATTRACTION","longitude":-81.56059,"latitude":28.359712}},{"id":"WaltDisneyWorldHollywoodStudios_80010193","waitTime":null,"status":"Closed","active":false,"lastUpdate":"2021-02-12T00:00:44.621Z","meta":{"type":"ATTRACTION","singleRider":false,"unsuitableForPregnantPeople":true,"latitude":28.355695,"longitude":-81.558891},"fastPass":false,"name":"Star Tours – The Adventures Continue"},{"id":"WaltDisneyWorldHollywoodStudios_80010218","waitTime":null,"status":"Closed","active":false,"lastUpdate":"2021-02-12T00:00:46.483Z","meta":{"longitude":-81.559772,"unsuitableForPregnantPeople":true,"singleRider":false,"type":"ATTRACTION","latitude":28.359553},"fastPass":false,"name":"The Twilight Zone Tower of Terror™"},{"id":"WaltDisneyWorldHollywoodStudios_80010848","waitTime":null,"status":"Closed","active":false,"lastUpdate":"2020-09-15T11:33:12.284Z","meta":{"longitude":-81.5595985008,"singleRider":false,"latitude":28.3589162565},"fastPass":false,"name":"Beauty and the Beast-Live on Stage - Temporarily Unavailable"},{"id":"WaltDisneyWorldHollywoodStudios_80010896","waitTime":null,"status":"Closed","active":false,"lastUpdate":"2020-09-15T11:33:12.290Z","meta":{"latitude":28.3574862147,"singleRider":false,"longitude":-81.5608484102},"name":"Voyage of The Little Mermaid - Temporarily Unavailable","fastPass":false},{"id":"WaltDisneyWorldHollywoodStudios_90001216","waitTime":null,"status":"Operating","active":true,"lastUpdate":"2021-02-10T23:52:48.918Z","name":"50's Prime Time Café","fastPass":false,"meta":{"longitude":-81.558881,"latitude":28.357444,"singleRider":false,"type":"RESTAURANT"}},{"id":"WaltDisneyWorldHollywoodStudios_90001744","waitTime":null,"status":"Closed","active":false,"lastUpdate":"2021-01-30T21:13:33.319Z","meta":{"longitude":-81.558975,"type":"RESTAURANT","singleRider":false,"latitude":28.357611},"fastPass":false,"name":"Hollywood & Vine"},{"id":"WaltDisneyWorldHollywoodStudios_90001865","waitTime":null,"status":"Operating","active":true,"lastUpdate":"2021-02-11T23:55:24.788Z","meta":{"singleRider":false,"type":"RESTAURANT","latitude":28.354532,"longitude":-81.559012},"fastPass":false,"name":"Mama Melrose's Ristorante Italiano"},{"id":"WaltDisneyWorldHollywoodStudios_90002114","waitTime":null,"status":"Operating","active":true,"lastUpdate":"2021-02-09T16:16:37.355Z","fastPass":false,"meta":{"longitude":-81.559495,"singleRider":false,"type":"RESTAURANT","latitude":28.3559},"name":"Sci-Fi Dine-In Theater Restaurant"},{"id":"WaltDisneyWorldHollywoodStudios_90002245","waitTime":null,"status":"Operating","active":true,"lastUpdate":"2021-02-11T22:37:04.356Z","name":"The Hollywood Brown Derby","meta":{"longitude":-81.560297,"type":"RESTAURANT","latitude":28.357648,"singleRider":false},"fastPass":false},{"id":"WaltDisneyWorldAnimalKingdom_17421326","waitTime":null,"status":"Closed","active":false,"lastUpdate":"2020-09-15T11:33:02.632Z","meta":{"longitude":-81.589796,"singleRider":false,"latitude":28.357972},"name":"Meet Favorite Disney Pals at Adventurers Outpost - Temporarily Unavailable","fastPass":false},{"id":"WaltDisneyWorldAnimalKingdom_18069632","waitTime":null,"status":"Operating","active":true,"lastUpdate":"2021-02-11T22:00:18.614Z","fastPass":false,"name":"Tiffins Restaurant","meta":{"singleRider":false,"longitude":-81.591487,"type":"RESTAURANT","latitude":28.356846}},{"id":"WaltDisneyWorldAnimalKingdom_18377778","waitTime":null,"status":"Operating","active":true,"lastUpdate":"2021-02-11T22:10:36.536Z","name":"Nomad Lounge","fastPass":false,"meta":{"type":"RESTAURANT","singleRider":false,"longitude":-81.591487,"latitude":28.356719}},{"id":"WaltDisneyWorldAnimalKingdom_18665185","waitTime":null,"status":"Closed","active":false,"lastUpdate":"2021-02-11T22:00:33.211Z","name":"Na'vi River Journey","meta":{"longitude":-81.591641,"type":"ATTRACTION","singleRider":false,"latitude":28.355257},"fastPass":false},{"id":"WaltDisneyWorldAnimalKingdom_18665186","waitTime":null,"status":"Closed","active":false,"lastUpdate":"2021-02-11T22:00:33.999Z","meta":{"unsuitableForPregnantPeople":true,"type":"ATTRACTION","longitude":-81.592147,"singleRider":false,"latitude":28.355554},"name":"Avatar Flight of Passage","fastPass":false},{"id":"WaltDisneyWorldAnimalKingdom_19330300","waitTime":null,"status":"Closed","active":false,"lastUpdate":"2021-02-11T22:10:43.381Z","fastPass":false,"meta":{"singleRider":false,"latitude":28.365188,"longitude":-81.588669,"type":"ATTRACTION"},"name":"The Animation Experience at Conservation Station"},{"id":"WaltDisneyWorldAnimalKingdom_26068","waitTime":null,"status":"Closed","active":false,"lastUpdate":"2021-02-11T22:00:37.194Z","meta":{"longitude":-81.5873781396,"type":"ATTRACTION","latitude":28.3584769119,"unsuitableForPregnantPeople":true,"singleRider":false},"fastPass":false,"name":"Expedition Everest - Legend of the Forbidden Mountain"},{"id":"WaltDisneyWorldAnimalKingdom_80010123","waitTime":null,"status":"Closed","active":false,"lastUpdate":"2021-02-11T22:00:36.131Z","fastPass":false,"name":"DINOSAUR","meta":{"latitude":28.355307,"type":"ATTRACTION","singleRider":false,"unsuitableForPregnantPeople":true,"longitude":-81.588444}},{"id":"WaltDisneyWorldAnimalKingdom_80010150","waitTime":null,"status":"Closed","active":false,"lastUpdate":"2021-02-11T22:00:36.663Z","name":"It's Tough to be a Bug!","meta":{"longitude":-81.590118,"latitude":28.357488,"singleRider":false,"type":"ATTRACTION"},"fastPass":false},{"id":"WaltDisneyWorldAnimalKingdom_80010154","waitTime":null,"status":"Refurbishment","active":false,"lastUpdate":"2021-01-04T05:02:16.994Z","name":"Kali River Rapids","meta":{"longitude":-81.5889412165,"unsuitableForPregnantPeople":true,"singleRider":false,"type":"ATTRACTION","latitude":28.3587834288},"fastPass":false},{"id":"WaltDisneyWorldAnimalKingdom_80010157","waitTime":null,"status":"Closed","active":false,"lastUpdate":"2021-02-11T22:00:34.597Z","name":"Kilimanjaro Safaris","meta":{"type":"ATTRACTION","singleRider":false,"unsuitableForPregnantPeople":true,"latitude":28.359331,"longitude":-81.59228},"fastPass":false},{"id":"WaltDisneyWorldAnimalKingdom_80010164","waitTime":null,"status":"Closed","active":false,"lastUpdate":"2021-02-11T22:01:43.817Z","fastPass":false,"meta":{"type":"ATTRACTION","latitude":28.359379,"longitude":-81.589019,"singleRider":false},"name":"Maharajah Jungle Trek"},{"id":"WaltDisneyWorldAnimalKingdom_80010175","waitTime":null,"status":"Closed","active":false,"lastUpdate":"2021-02-11T21:31:44.205Z","name":"Gorilla Falls Exploration Trail","meta":{"type":"ATTRACTION","singleRider":false,"latitude":28.359954,"longitude":-81.592149},"fastPass":false},{"id":"WaltDisneyWorldAnimalKingdom_80010203","waitTime":null,"status":"Closed","active":false,"lastUpdate":"2021-01-03T21:23:41.107Z","fastPass":false,"meta":{"singleRider":false,"longitude":-81.5884791864,"type":"ATTRACTION","latitude":28.3566787564},"name":"The Boneyard - Temporarily Unavailable"},{"id":"WaltDisneyWorldAnimalKingdom_80010228","waitTime":null,"status":"Closed","active":false,"lastUpdate":"2021-02-11T22:01:44.409Z","meta":{"latitude":28.356503,"singleRider":false,"longitude":-81.588074,"type":"ATTRACTION"},"name":"TriceraTop Spin","fastPass":false},{"id":"WaltDisneyWorldAnimalKingdom_80010235","waitTime":null,"status":"Closed","active":false,"lastUpdate":"2021-02-11T21:31:45.019Z","name":"Wildlife Express Train","meta":{"type":"ATTRACTION","longitude":-81.5914175464,"latitude":28.3598097347,"singleRider":false},"fastPass":false},{"id":"WaltDisneyWorldMagicKingdom_136550","waitTime":null,"status":"Closed","active":false,"lastUpdate":"2021-01-03T21:24:21.706Z","meta":{"singleRider":false,"type":"ATTRACTION","longitude":-81.5797358751,"latitude":28.4183977566},"name":"Monsters, Inc. Laugh Floor - Temporarily Unavailable","fastPass":false},{"id":"WaltDisneyWorldMagicKingdom_15743682","waitTime":null,"status":"Closed","active":false,"lastUpdate":"2020-09-15T11:33:17.406Z","meta":{"singleRider":false,"latitude":28.421282,"longitude":-81.578932},"fastPass":false,"name":"Meet Dashing Disney Pals as Circus Stars at Pete’s Silly Side Show - Temporarily Unavailable"},{"id":"WaltDisneyWorldMagicKingdom_15850196","waitTime":null,"status":"Closed","active":false,"lastUpdate":"2020-09-15T11:33:17.374Z","fastPass":false,"meta":{"singleRider":false,"longitude":-81.580746,"latitude":28.416727},"name":"Meet Mickey Mouse at Town Square Theater - Temporarily Unavailable"},{"id":"WaltDisneyWorldMagicKingdom_16124144","waitTime":null,"status":"Closed","active":false,"lastUpdate":"2021-02-12T00:01:43.821Z","fastPass":false,"meta":{"latitude":28.4182264646,"longitude":-81.583738382,"singleRider":false,"type":"ATTRACTION"},"name":"Walt Disney's Enchanted Tiki Room"},{"id":"WaltDisneyWorldMagicKingdom_16414579","waitTime":null,"status":"Closed","active":false,"lastUpdate":"2021-01-24T23:00:36.558Z","name":"Sorcerers of the Magic Kingdom","fastPass":false,"meta":{"latitude":28.416944,"type":"ATTRACTION","longitude":-81.58163,"singleRider":false}},{"id":"WaltDisneyWorldMagicKingdom_16491297","waitTime":null,"status":"Closed","active":false,"lastUpdate":"2021-02-12T00:00:35.561Z","fastPass":false,"meta":{"longitude":-81.5783907473,"latitude":28.4207661576,"type":"ATTRACTION","unsuitableForPregnantPeople":true,"singleRider":false},"name":"The Barnstormer"},{"id":"WaltDisneyWorldMagicKingdom_16491299","waitTime":null,"status":"Refurbishment","active":false,"lastUpdate":"2021-01-03T21:24:18.928Z","name":"Walt Disney World Railroad - Fantasyland - Temporarily Unavailable","fastPass":false,"meta":{"longitude":-81.578368,"type":"ATTRACTION","latitude":28.420934,"singleRider":false}},{"id":"WaltDisneyWorldMagicKingdom_16660079","waitTime":null,"status":"Operating","active":true,"lastUpdate":"2021-02-12T00:55:43.425Z","meta":{"longitude":-81.5807074858,"singleRider":false,"type":"RESTAURANT","latitude":28.4212491492},"fastPass":false,"name":"Be Our Guest Restaurant"},{"id":"WaltDisneyWorldMagicKingdom_16767263","waitTime":null,"status":"Closed","active":false,"lastUpdate":"2021-02-12T00:00:36.258Z","name":"Under the Sea ~ Journey of The Little Mermaid","meta":{"singleRider":false,"type":"ATTRACTION","longitude":-81.5799752427,"latitude":28.4211203226},"fastPass":false},{"id":"WaltDisneyWorldMagicKingdom_16767276","waitTime":null,"status":"Closed","active":false,"lastUpdate":"2021-01-03T21:24:20.764Z","meta":{"longitude":-81.58093011,"singleRider":false,"latitude":28.42099058,"type":"ATTRACTION"},"name":"Enchanted Tales with Belle - Temporarily Unavailable","fastPass":false},{"id":"WaltDisneyWorldMagicKingdom_16767284","waitTime":null,"status":"Closed","active":false,"lastUpdate":"2021-02-12T00:00:49.185Z","name":"Seven Dwarfs Mine Train","meta":{"longitude":-81.58031,"type":"ATTRACTION","singleRider":false,"latitude":28.42037,"unsuitableForPregnantPeople":true},"fastPass":false},{"id":"WaltDisneyWorldMagicKingdom_16874126","waitTime":null,"status":"Closed","active":false,"lastUpdate":"2020-09-15T11:33:17.441Z","name":"Meet Ariel at Her Grotto - Temporarily Unavailable","meta":{"longitude":-81.579613144497,"singleRider":false,"latitude":28.420893275289},"fastPass":false},{"id":"WaltDisneyWorldMagicKingdom_17272158","waitTime":null,"status":"Closed","active":false,"lastUpdate":"2021-01-03T21:24:21.210Z","fastPass":false,"name":"A Pirate's Adventure ~ Treasures of the Seven Seas - Temporarily Unavailable","meta":{"latitude":28.41837254,"singleRider":false,"type":"ATTRACTION","longitude":-81.58466913}},{"id":"WaltDisneyWorldMagicKingdom_17505397","waitTime":null,"status":"Closed","active":false,"lastUpdate":"2020-09-15T11:33:17.486Z","fastPass":false,"name":"Meet Rapunzel and Tiana at Princess Fairytale Hall - Temporarily Unavailable","meta":{"singleRider":false,"longitude":-81.580917439677,"latitude":28.420045752669}},{"id":"WaltDisneyWorldMagicKingdom_17752793","waitTime":null,"status":"Closed","active":false,"lastUpdate":"2020-09-15T11:33:17.444Z","meta":{"latitude":28.416727,"longitude":-81.580815,"singleRider":false},"name":"Meet Tinker Bell at Town Square Theater - Temporarily Unavailable","fastPass":false},{"id":"WaltDisneyWorldMagicKingdom_18185631","waitTime":null,"status":"Operating","active":true,"lastUpdate":"2021-02-11T23:56:58.935Z","fastPass":false,"meta":{"longitude":-81.582592,"singleRider":false,"type":"RESTAURANT","latitude":28.418491},"name":"Jungle Navigation Co. LTD Skipper Canteen"},{"id":"WaltDisneyWorldMagicKingdom_18498503","waitTime":null,"status":"Closed","active":false,"lastUpdate":"2020-09-15T11:33:17.494Z","meta":{"singleRider":false,"longitude":-81.58094,"latitude":28.420012},"name":"Meet Cinderella and Elena at Princess Fairytale Hall - Temporarily Unavailable","fastPass":false},{"id":"WaltDisneyWorldMagicKingdom_2219610","waitTime":null,"status":"Refurbishment","active":false,"lastUpdate":"2021-01-03T21:23:08.615Z","name":"Walt Disney World Railroad - Frontierland - Temporarily Unavailable","fastPass":false,"meta":{"type":"ATTRACTION","latitude":28.41969,"longitude":-81.585078,"singleRider":false}},{"id":"WaltDisneyWorldMagicKingdom_387133","waitTime":null,"status":"Closed","active":false,"lastUpdate":"2020-09-15T11:33:17.492Z","fastPass":false,"name":"Meet Daring Disney Pals as Circus Stars at Pete's Silly Side Show - Temporarily Unavailable","meta":{"longitude":-81.578932,"singleRider":false,"latitude":28.421282}},{"id":"WaltDisneyWorldMagicKingdom_80010107","waitTime":null,"status":"Closed","active":false,"lastUpdate":"2021-02-12T00:01:44.520Z","meta":{"latitude":28.4184926179,"longitude":-81.5789887902,"singleRider":false,"type":"ATTRACTION"},"fastPass":false,"name":"Astro Orbiter"},{"id":"WaltDisneyWorldMagicKingdom_80010110","waitTime":null,"status":"Closed","active":false,"lastUpdate":"2021-02-12T00:00:37.759Z","fastPass":false,"meta":{"type":"ATTRACTION","longitude":-81.5846422864,"latitude":28.4199638504,"singleRider":false,"unsuitableForPregnantPeople":true},"name":"Big Thunder Mountain Railroad"},{"id":"WaltDisneyWorldMagicKingdom_80010114","waitTime":null,"status":"Closed","active":false,"lastUpdate":"2021-02-12T00:00:51.218Z","meta":{"longitude":-81.5794086456,"latitude":28.4182868839,"singleRider":false,"type":"ATTRACTION"},"fastPass":false,"name":"Buzz Lightyear's Space Ranger Spin"},{"id":"WaltDisneyWorldMagicKingdom_80010117","waitTime":null,"status":"Closed","active":false,"lastUpdate":"2021-02-12T00:01:45.154Z","meta":{"longitude":-81.581255,"singleRider":false,"type":"ATTRACTION","latitude":28.420169},"name":"Prince Charming Regal Carrousel","fastPass":false},{"id":"WaltDisneyWorldMagicKingdom_80010129","waitTime":null,"status":"Closed","active":false,"lastUpdate":"2021-02-12T00:00:39.275Z","name":"Dumbo the Flying Elephant","fastPass":false,"meta":{"singleRider":false,"latitude":28.420509033,"type":"ATTRACTION","longitude":-81.5789473057}},{"id":"WaltDisneyWorldMagicKingdom_80010149","waitTime":null,"status":"Closed","active":false,"lastUpdate":"2021-02-12T00:00:51.846Z","name":"\"it's a small world\"","fastPass":false,"meta":{"singleRider":false,"type":"ATTRACTION","longitude":-81.5820392026,"latitude":28.4204816402}},{"id":"WaltDisneyWorldMagicKingdom_80010153","waitTime":null,"status":"Closed","active":false,"lastUpdate":"2021-02-12T00:00:53.794Z","name":"Jungle Cruise","meta":{"longitude":-81.5834393157,"singleRider":false,"type":"ATTRACTION","latitude":28.41797818},"fastPass":false},{"id":"WaltDisneyWorldMagicKingdom_80010160","waitTime":null,"status":"Closed","active":false,"lastUpdate":"2021-02-12T00:01:48.557Z","fastPass":false,"name":"Liberty Square Riverboat","meta":{"longitude":-81.5827982677,"singleRider":false,"latitude":28.4195563399,"type":"ATTRACTION"}},{"id":"WaltDisneyWorldMagicKingdom_80010162","waitTime":null,"status":"Closed","active":false,"lastUpdate":"2021-02-12T00:00:39.909Z","name":"Mad Tea Party","fastPass":false,"meta":{"singleRider":false,"type":"ATTRACTION","longitude":-81.5798248916,"latitude":28.4200230397}},{"id":"WaltDisneyWorldMagicKingdom_80010165","waitTime":null,"status":"Closed","active":false,"lastUpdate":"2021-01-03T21:24:20.300Z","meta":{"latitude":28.4168698711,"singleRider":false,"longitude":-81.5815081252,"type":"ATTRACTION"},"fastPass":false,"name":"Main Street Vehicles - Temporarily Unavailable"},{"id":"WaltDisneyWorldMagicKingdom_80010170","waitTime":null,"status":"Closed","active":false,"lastUpdate":"2021-02-12T00:00:40.643Z","name":"Mickey's PhilharMagic","meta":{"latitude":28.4200304909,"singleRider":false,"longitude":-81.5814839853,"type":"ATTRACTION"},"fastPass":false},{"id":"WaltDisneyWorldMagicKingdom_80010176","waitTime":null,"status":"Closed","active":false,"lastUpdate":"2021-02-12T00:00:41.295Z","name":"Peter Pan's Flight","fastPass":false,"meta":{"latitude":28.4202640272,"singleRider":false,"longitude":-81.5818916811,"type":"ATTRACTION"}},{"id":"WaltDisneyWorldMagicKingdom_80010177","waitTime":null,"status":"Closed","active":false,"lastUpdate":"2021-02-12T00:00:41.916Z","name":"Pirates of the Caribbean","fastPass":false,"meta":{"type":"ATTRACTION","longitude":-81.5842252,"latitude":28.41796992,"singleRider":false}},{"id":"WaltDisneyWorldMagicKingdom_80010190","waitTime":null,"status":"Closed","active":false,"lastUpdate":"2021-02-12T00:00:43.181Z","fastPass":false,"meta":{"longitude":-81.5781962872,"singleRider":false,"type":"ATTRACTION","latitude":28.4188341691,"unsuitableForPregnantPeople":true},"name":"Space Mountain"},{"id":"WaltDisneyWorldMagicKingdom_80010192","waitTime":null,"status":"Closed","active":false,"lastUpdate":"2021-02-12T00:00:43.795Z","name":"Splash Mountain","meta":{"singleRider":false,"unsuitableForPregnantPeople":true,"type":"ATTRACTION","latitude":28.419418,"longitude":-81.58498},"fastPass":false},{"id":"WaltDisneyWorldMagicKingdom_80010196","waitTime":null,"status":"Closed","active":false,"lastUpdate":"2021-02-12T00:01:45.747Z","name":"Swiss Family Treehouse","fastPass":false,"meta":{"singleRider":false,"type":"ATTRACTION","longitude":-81.5827982677,"latitude":28.4184325517}},{"id":"WaltDisneyWorldMagicKingdom_80010208","waitTime":null,"status":"Closed","active":false,"lastUpdate":"2021-02-12T00:00:45.237Z","name":"Haunted Mansion","fastPass":false,"meta":{"latitude":28.4202,"longitude":-81.58288,"type":"ATTRACTION","singleRider":false}},{"id":"WaltDisneyWorldMagicKingdom_80010210","waitTime":null,"status":"Closed","active":false,"lastUpdate":"2021-02-12T00:00:33.978Z","fastPass":false,"name":"The Magic Carpets of Aladdin","meta":{"type":"ATTRACTION","latitude":28.41843,"singleRider":false,"longitude":-81.583472}},{"id":"WaltDisneyWorldMagicKingdom_80010213","waitTime":null,"status":"Closed","active":false,"lastUpdate":"2021-02-12T00:00:45.807Z","fastPass":false,"name":"The Many Adventures of Winnie the Pooh","meta":{"singleRider":false,"type":"ATTRACTION","longitude":-81.580266,"latitude":28.420212}},{"id":"WaltDisneyWorldMagicKingdom_80010220","waitTime":null,"status":"Closed","active":false,"lastUpdate":"2021-02-11T21:31:43.620Z","meta":{"longitude":-81.58428,"latitude":28.419503,"singleRider":false,"type":"ATTRACTION"},"name":"Tom Sawyer Island","fastPass":false},{"id":"WaltDisneyWorldMagicKingdom_80010222","waitTime":null,"status":"Closed","active":false,"lastUpdate":"2021-02-12T00:00:52.567Z","name":"Tomorrowland Speedway","fastPass":false,"meta":{"longitude":-81.579302,"unsuitableForPregnantPeople":true,"latitude":28.419368,"singleRider":false,"type":"ATTRACTION"}},{"id":"WaltDisneyWorldMagicKingdom_80010224","waitTime":null,"status":"Refurbishment","active":false,"lastUpdate":"2021-01-03T21:24:19.826Z","name":"Tomorrowland Transit Authority PeopleMover - Temporarily Unavailable","fastPass":false,"meta":{"type":"ATTRACTION","longitude":-81.579033,"latitude":28.418155,"singleRider":false}},{"id":"WaltDisneyWorldMagicKingdom_80010230","waitTime":null,"status":"Refurbishment","active":false,"lastUpdate":"2021-01-03T21:23:09.088Z","meta":{"singleRider":false,"longitude":-81.581204,"type":"ATTRACTION","latitude":28.416543},"fastPass":false,"name":"Walt Disney World Railroad - Main Street, U.S.A. - Temporarily Unavailable"},{"id":"WaltDisneyWorldMagicKingdom_80010232","waitTime":null,"status":"Closed","active":false,"lastUpdate":"2021-02-11T23:01:45.377Z","meta":{"type":"ATTRACTION","longitude":-81.5790083064,"singleRider":false,"latitude":28.4180310951},"name":"Walt Disney's Carousel of Progress","fastPass":false},{"id":"WaltDisneyWorldMagicKingdom_80069748","waitTime":null,"status":"Closed","active":false,"lastUpdate":"2021-02-12T00:01:49.253Z","fastPass":false,"name":"Country Bear Jamboree","meta":{"singleRider":false,"longitude":-81.5837222887,"latitude":28.4187861348,"type":"ATTRACTION"}},{"id":"WaltDisneyWorldMagicKingdom_80069754","waitTime":null,"status":"Refurbishment","active":false,"lastUpdate":"2021-01-21T05:00:35.597Z","name":"The Hall of Presidents","meta":{"type":"ATTRACTION","latitude":28.4194484171,"longitude":-81.5823248578,"singleRider":false},"fastPass":false},{"id":"WaltDisneyWorldMagicKingdom_90001815","waitTime":null,"status":"Closed","active":false,"lastUpdate":"2021-02-02T05:00:59.870Z","name":"Liberty Square Market - Temporarily Unavailable","meta":{"type":"RESTAURANT","latitude":28.4195299,"longitude":-81.5825378,"singleRider":false},"fastPass":false},{"id":"WaltDisneyWorldMagicKingdom_90001819","waitTime":null,"status":"Operating","active":true,"lastUpdate":"2021-02-11T23:55:29.505Z","name":"Liberty Tree Tavern","fastPass":false,"meta":{"latitude":28.4191196055,"longitude":-81.5826159743,"type":"RESTAURANT","singleRider":false}},{"id":"WaltDisneyWorldMagicKingdom_90002464","waitTime":null,"status":"Operating","active":true,"lastUpdate":"2021-02-09T17:26:28.220Z","fastPass":false,"name":"Cinderella's Royal Table","meta":{"latitude":28.4195,"singleRider":false,"type":"RESTAURANT","longitude":-81.581101}},{"id":"WaltDisneyWorldMagicKingdom_90002660","waitTime":null,"status":"Operating","active":true,"lastUpdate":"2021-02-11T23:55:21.832Z","name":"The Crystal Palace","meta":{"type":"RESTAURANT","singleRider":false,"longitude":-81.5818970259,"latitude":28.4181214892},"fastPass":false},{"id":"WaltDisneyWorldMagicKingdom_90002670","waitTime":null,"status":"Operating","active":true,"lastUpdate":"2021-02-11T23:53:18.591Z","name":"The Plaza Restaurant","fastPass":false,"meta":{"type":"RESTAURANT","latitude":28.4180247703,"longitude":-81.5809394969,"singleRider":false}},{"id":"WaltDisneyWorldMagicKingdom_90002678","waitTime":null,"status":"Operating","active":true,"lastUpdate":"2021-02-11T20:41:52.510Z","meta":{"singleRider":false,"latitude":28.4169323426,"longitude":-81.5807276023,"type":"RESTAURANT"},"name":"Tony's Town Square Restaurant","fastPass":false},{"id":"WaltDisneyWorldEpcot_107785","waitTime":null,"status":"Closed","active":false,"lastUpdate":"2021-02-12T01:00:37.238Z","fastPass":false,"meta":{"singleRider":false,"latitude":28.374904,"longitude":-81.550852,"type":"ATTRACTION"},"name":"The Seas with Nemo & Friends"},{"id":"WaltDisneyWorldEpcot_15525573","waitTime":null,"status":"Operating","active":true,"lastUpdate":"2021-02-11T21:33:37.432Z","name":"La Hacienda de San Angel","meta":{"longitude":-81.547532,"singleRider":false,"latitude":28.371221,"type":"RESTAURANT"},"fastPass":false},{"id":"WaltDisneyWorldEpcot_17564219","waitTime":null,"status":"Closed","active":false,"lastUpdate":"2020-09-15T11:33:07.103Z","fastPass":false,"name":"Meet Anna and Elsa at Royal Sommerhus - Temporarily Unavailable","meta":{"singleRider":false,"latitude":28.37097,"longitude":-81.547134}},{"id":"WaltDisneyWorldEpcot_17720675","waitTime":null,"status":"Operating","active":true,"lastUpdate":"2021-02-12T00:55:31.988Z","meta":{"type":"RESTAURANT","singleRider":false,"latitude":28.368468,"longitude":-81.551645},"fastPass":false,"name":"Spice Road Table"},{"id":"WaltDisneyWorldEpcot_18269694","waitTime":null,"status":"Closed","active":false,"lastUpdate":"2021-02-12T01:01:47.892Z","fastPass":false,"meta":{"type":"ATTRACTION","singleRider":false,"latitude":28.37263,"longitude":-81.55115},"name":"Disney and Pixar Short Film Festival"},{"id":"WaltDisneyWorldEpcot_18375495","waitTime":null,"status":"Closed","active":false,"lastUpdate":"2021-02-12T01:00:31.653Z","fastPass":false,"meta":{"longitude":-81.54653,"latitude":28.370745,"singleRider":false,"type":"ATTRACTION"},"name":"Frozen Ever After"},{"id":"WaltDisneyWorldEpcot_19463785","waitTime":null,"status":"Closed","active":false,"lastUpdate":"2021-02-11T23:01:48.631Z","name":"Beauty and the Beast Sing-Along","fastPass":false,"meta":{"type":"ATTRACTION","latitude":28.368864,"singleRider":false,"longitude":-81.552978}},{"id":"WaltDisneyWorldEpcot_19473173","waitTime":null,"status":"Closed","active":false,"lastUpdate":"2021-02-12T01:01:44.599Z","meta":{"longitude":-81.552138,"singleRider":false,"latitude":28.374301,"type":"ATTRACTION"},"fastPass":false,"name":"Awesome Planet"},{"id":"WaltDisneyWorldEpcot_20194","waitTime":null,"status":"Closed","active":false,"lastUpdate":"2021-02-12T01:00:36.601Z","fastPass":false,"name":"Soarin' Around the World","meta":{"latitude":28.373592,"longitude":-81.552248,"type":"ATTRACTION","singleRider":false}},{"id":"WaltDisneyWorldEpcot_207395","waitTime":null,"status":"Closed","active":false,"lastUpdate":"2021-02-12T01:01:43.945Z","name":"Gran Fiesta Tour Starring The Three Caballeros","fastPass":false,"meta":{"longitude":-81.547368,"latitude":28.371649,"singleRider":false,"type":"ATTRACTION"}},{"id":"WaltDisneyWorldEpcot_62992","waitTime":null,"status":"Closed","active":false,"lastUpdate":"2021-01-03T21:23:09.564Z","name":"Turtle Talk With Crush - Temporarily Unavailable","fastPass":false,"meta":{"latitude":28.375255,"longitude":-81.551047,"singleRider":false,"type":"ATTRACTION"}},{"id":"WaltDisneyWorldEpcot_80010145","waitTime":null,"status":"Closed","active":false,"lastUpdate":"2021-02-12T00:46:56.328Z","name":"Impressions de France","fastPass":false,"meta":{"singleRider":false,"type":"ATTRACTION","latitude":28.368864,"longitude":-81.552978}},{"id":"WaltDisneyWorldEpcot_80010152","waitTime":null,"status":"Closed","active":false,"lastUpdate":"2021-02-12T01:00:33.029Z","meta":{"latitude":28.372994,"singleRider":false,"longitude":-81.551401,"type":"ATTRACTION"},"name":"Journey Into Imagination With Figment","fastPass":false},{"id":"WaltDisneyWorldEpcot_80010161","waitTime":null,"status":"Closed","active":false,"lastUpdate":"2021-02-12T01:00:37.783Z","name":"Living with the Land","fastPass":false,"meta":{"longitude":-81.552301,"singleRider":false,"type":"ATTRACTION","latitude":28.374245}},{"id":"WaltDisneyWorldEpcot_80010173","waitTime":null,"status":"Closed","active":false,"lastUpdate":"2021-02-12T01:00:38.380Z","name":"Mission: SPACE","fastPass":false,"meta":{"latitude":28.373927,"unsuitableForPregnantPeople":true,"longitude":-81.547156,"singleRider":false,"type":"ATTRACTION"}},{"id":"WaltDisneyWorldEpcot_80010174","waitTime":null,"status":"Closed","active":false,"lastUpdate":"2021-02-12T00:46:56.914Z","name":"Canada Far and Wide in Circle-Vision 360","meta":{"singleRider":false,"type":"ATTRACTION","longitude":-81.55196,"latitude":28.371694},"fastPass":false},{"id":"WaltDisneyWorldEpcot_80010180","waitTime":null,"status":"Closed","active":false,"lastUpdate":"2021-02-12T01:01:48.791Z","name":"Reflections of China","meta":{"longitude":-81.546381,"latitude":28.369791,"type":"ATTRACTION","singleRider":false},"fastPass":false},{"id":"WaltDisneyWorldEpcot_80010191","waitTime":null,"status":"Closed","active":false,"lastUpdate":"2021-02-12T01:00:32.279Z","fastPass":false,"name":"Spaceship Earth","meta":{"longitude":-81.549401,"latitude":28.375583,"singleRider":false,"type":"ATTRACTION"}},{"id":"WaltDisneyWorldEpcot_80010199","waitTime":null,"status":"Closed","active":false,"lastUpdate":"2021-02-12T01:00:33.808Z","fastPass":false,"name":"Test Track","meta":{"singleRider":true,"longitude":-81.547489,"unsuitableForPregnantPeople":true,"type":"ATTRACTION","latitude":28.373228}},{"id":"WaltDisneyWorldEpcot_80010200","waitTime":null,"status":"Closed","active":false,"lastUpdate":"2021-02-12T01:01:45.141Z","fastPass":false,"meta":{"type":"ATTRACTION","latitude":28.367517,"singleRider":false,"longitude":-81.549446},"name":"The American Adventure"},{"id":"WaltDisneyWorldEpcot_90001292","waitTime":null,"status":"Operating","active":true,"lastUpdate":"2021-02-12T00:55:32.643Z","name":"Biergarten Restaurant","fastPass":false,"meta":{"longitude":-81.546819,"singleRider":false,"type":"RESTAURANT","latitude":28.368153}},{"id":"WaltDisneyWorldEpcot_90001416","waitTime":null,"status":"Operating","active":true,"lastUpdate":"2021-02-12T00:33:03.622Z","fastPass":false,"meta":{"type":"RESTAURANT","latitude":28.375096,"longitude":-81.550458,"singleRider":false},"name":"Coral Reef Restaurant"},{"id":"WaltDisneyWorldEpcot_90001798","waitTime":null,"status":"Operating","active":true,"lastUpdate":"2021-02-12T00:38:22.688Z","meta":{"type":"RESTAURANT","longitude":-81.551512,"singleRider":false,"latitude":28.371657},"fastPass":false,"name":"Le Cellier Steakhouse"},{"id":"WaltDisneyWorldEpcot_90002084","waitTime":null,"status":"Operating","active":true,"lastUpdate":"2021-02-11T23:39:35.177Z","meta":{"longitude":-81.551684,"type":"RESTAURANT","latitude":28.370508,"singleRider":false},"name":"Rose & Crown Dining Room","fastPass":false},{"id":"WaltDisneyWorldEpcot_90002100","waitTime":null,"status":"Operating","active":true,"lastUpdate":"2021-02-11T21:06:34.907Z","name":"San Angel Inn Restaurante    ","fastPass":false,"meta":{"singleRider":false,"latitude":28.371612,"longitude":-81.547258,"type":"RESTAURANT"}},{"id":"WaltDisneyWorldEpcot_90002237","waitTime":null,"status":"Operating","active":true,"lastUpdate":"2021-02-12T00:56:58.001Z","fastPass":false,"name":"Garden Grill Restaurant","meta":{"latitude":28.374039,"longitude":-81.552324,"type":"RESTAURANT","singleRider":false}},{"id":"WaltDisneyWorldHollywoodStudios_136","waitTime":null,"status":"Closed","active":false,"lastUpdate":"2020-09-15T11:33:12.086Z","meta":{"singleRider":false,"latitude":28.3566700675,"longitude":-81.5586114479},"fastPass":false,"name":"Indiana Jones™ Epic Stunt Spectacular! - Temporarily Unavailable"},{"id":"WaltDisneyWorldHollywoodStudios_17842841","waitTime":null,"status":"Closed","active":false,"lastUpdate":"2020-09-15T11:33:12.046Z","fastPass":false,"meta":{"singleRider":false,"latitude":28.3568243464,"longitude":-81.5596944094},"name":"For the First Time in Forever: A Frozen Sing-Along Celebration - Temporarily Unavailable"},{"id":"WaltDisneyWorldHollywoodStudios_18189394","waitTime":null,"status":"Closed","active":false,"lastUpdate":"2020-09-15T11:33:12.077Z","fastPass":false,"meta":{"longitude":-81.560938,"singleRider":false,"latitude":28.35796},"name":"Star Wars Launch Bay: Meet Chewbacca - Temporarily Unavailable"},{"id":"WaltDisneyWorldHollywoodStudios_18189398","waitTime":null,"status":"Closed","active":false,"lastUpdate":"2020-09-15T11:33:12.069Z","fastPass":false,"meta":{"singleRider":false,"latitude":28.35796,"longitude":-81.560938},"name":"Star Wars Launch Bay: Encounter Darth Vader - Temporarily Unavailable"},{"id":"WaltDisneyWorldHollywoodStudios_18360041","waitTime":null,"status":"Closed","active":false,"lastUpdate":"2021-01-03T21:23:31.878Z","fastPass":false,"meta":{"longitude":-81.561061,"singleRider":false,"type":"ATTRACTION","latitude":28.357821},"name":"Star Wars Launch Bay Theater - Temporarily Unavailable"},{"id":"WaltDisneyWorldHollywoodStudios_18368385","waitTime":null,"status":"Closed","active":false,"lastUpdate":"2020-09-15T11:33:12.104Z","meta":{"longitude":-81.559158,"latitude":28.356072,"singleRider":false},"name":"Celebrity Spotlight - Temporarily Unavailable","fastPass":false},{"id":"WaltDisneyWorldHollywoodStudios_18368386","waitTime":null,"status":"Closed","active":false,"lastUpdate":"2020-09-15T11:33:12.095Z","meta":{"longitude":-81.559479,"latitude":28.356068,"singleRider":false},"name":"Mickey and Minnie Starring in Red Carpet Dreams - Temporarily Unavailable","fastPass":false},{"id":"WaltDisneyWorldHollywoodStudios_18669338","waitTime":null,"status":"Closed","active":false,"lastUpdate":"2020-09-15T11:33:12.121Z","fastPass":false,"meta":{"singleRider":false,"latitude":28.35796,"longitude":-81.560938},"name":"BB-8 Astromech on Duty - Temporarily Unavailable"},{"id":"WaltDisneyWorldHollywoodStudios_18770880","waitTime":null,"status":"Closed","active":false,"lastUpdate":"2021-02-11T23:01:44.116Z","name":"Walt Disney Presents","fastPass":false,"meta":{"type":"ATTRACTION","latitude":28.35686,"longitude":-81.560982,"singleRider":false}},