[{"id":"WaltDisneyWorldMagicKingdom_136550","waitTime":null,"status":"Closed","active":false,"lastUpdate":"2021-01-03T21:24:21.706Z","name":"Monsters, Inc. Laugh Floor - Temporarily Unavailable","meta":{"longitude":-81.5797358751,"singleRider":false,"type":"ATTRACTION","latitude":28.4183977566},"fastPass":false},{"id":"WaltDisneyWorldMagicKingdom_15743682","waitTime":null,"status":"Closed","active":false,"lastUpdate":"2020-09-15T11:33:17.406Z","fastPass":false,"name":"Meet Dashing Disney Pals as Circus Stars at Pete’s Silly Side Show - Temporarily Unavailable","meta":{"longitude":-81.578932,"latitude":28.421282,"singleRider":false}},{"id":"WaltDisneyWorldMagicKingdom_15850196","waitTime":null,"status":"Closed","active":false,"lastUpdate":"2020-09-15T11:33:17.374Z","meta":{"longitude":-81.580746,"singleRider":false,"latitude":28.416727},"name":"Meet Mickey Mouse at Town Square Theater - Temporarily Unavailable","fastPass":false},{"id":"WaltDisneyWorldMagicKingdom_16124144","waitTime":null,"status":"Operating","active":true,"lastUpdate":"2021-02-07T14:01:42.597Z","fastPass":false,"meta":{"singleRider":false,"type":"ATTRACTION","longitude":-81.583738382,"latitude":28.4182264646},"name":"Walt Disney's Enchanted Tiki Room"},{"id":"WaltDisneyWorldMagicKingdom_16414579","waitTime":null,"status":"Closed","active":false,"lastUpdate":"2021-01-24T23:00:36.558Z","name":"Sorcerers of the Magic Kingdom","fastPass":false,"meta":{"latitude":28.416944,"longitude":-81.58163,"singleRider":false,"type":"ATTRACTION"}},{"id":"WaltDisneyWorldMagicKingdom_16491297","waitTime":10,"status":"Operating","active":true,"lastUpdate":"2021-02-08T00:33:23.083Z","meta":{"singleRider":false,"type":"ATTRACTION","longitude":-81.5783907473,"latitude":28.4207661576,"unsuitableForPregnantPeople":true},"fastPass":false,"name":"The Barnstormer"},{"id":"WaltDisneyWorldMagicKingdom_16491299","waitTime":null,"status":"Refurbishment","active":false,"lastUpdate":"2021-01-03T21:24:18.928Z","meta":{"longitude":-81.578368,"singleRider":false,"type":"ATTRACTION","latitude":28.420934},"name":"Walt Disney World Railroad - Fantasyland - Temporarily Unavailable","fastPass":false},{"id":"WaltDisneyWorldMagicKingdom_16660079","waitTime":25,"status":"Operating","active":true,"lastUpdate":"2021-02-08T00:33:06.105Z","name":"Be Our Guest Restaurant","fastPass":false,"meta":{"type":"RESTAURANT","latitude":28.4212491492,"longitude":-81.5807074858,"singleRider":false}},{"id":"WaltDisneyWorldMagicKingdom_16767263","waitTime":5,"status":"Operating","active":true,"lastUpdate":"2021-02-08T00:32:22.950Z","fastPass":false,"meta":{"longitude":-81.5799752427,"singleRider":false,"latitude":28.4211203226,"type":"ATTRACTION"},"name":"Under the Sea ~ Journey of The Little Mermaid"},{"id":"WaltDisneyWorldMagicKingdom_16767276","waitTime":null,"status":"Closed","active":false,"lastUpdate":"2021-01-03T21:24:20.764Z","name":"Enchanted Tales with Belle - Temporarily Unavailable","meta":{"latitude":28.42099058,"singleRider":false,"longitude":-81.58093011,"type":"ATTRACTION"},"fastPass":false},{"id":"WaltDisneyWorldMagicKingdom_16767284","waitTime":35,"status":"Operating","active":true,"lastUpdate":"2021-02-07T23:24:22.053Z","meta":{"latitude":28.42037,"longitude":-81.58031,"unsuitableForPregnantPeople":true,"singleRider":false,"type":"ATTRACTION"},"name":"Seven Dwarfs Mine Train","fastPass":false},{"id":"WaltDisneyWorldMagicKingdom_16874126","waitTime":null,"status":"Closed","active":false,"lastUpdate":"2020-09-15T11:33:17.441Z","meta":{"latitude":28.420893275289,"longitude":-81.579613144497,"singleRider":false},"name":"Meet Ariel at Her Grotto - Temporarily Unavailable","fastPass":false},{"id":"WaltDisneyWorldMagicKingdom_17272158","waitTime":null,"status":"Closed","active":false,"lastUpdate":"2021-01-03T21:24:21.210Z","name":"A Pirate's Adventure ~ Treasures of the Seven Seas - Temporarily Unavailable","meta":{"type":"ATTRACTION","latitude":28.41837254,"longitude":-81.58466913,"singleRider":false},"fastPass":false},{"id":"WaltDisneyWorldMagicKingdom_17505397","waitTime":null,"status":"Closed","active":false,"lastUpdate":"2020-09-15T11:33:17.486Z","meta":{"longitude":-81.580917439677,"latitude":28.420045752669,"singleRider":false},"name":"Meet Rapunzel and Tiana at Princess Fairytale Hall - Temporarily Unavailable","fastPass":false},{"id":"WaltDisneyWorldMagicKingdom_17752793","waitTime":null,"status":"Closed","active":false,"lastUpdate":"2020-09-15T11:33:17.444Z","fastPass":false,"meta":{"longitude":-81.580815,"singleRider":false,"latitude":28.416727},"name":"Meet Tinker Bell at Town Square Theater - Temporarily Unavailable"},{"id":"WaltDisneyWorldMagicKingdom_18185631","waitTime":null,"status":"Operating","active":true,"lastUpdate":"2021-02-07T23:51:36.555Z","fastPass":false,"name":"Jungle Navigation Co. LTD Skipper Canteen","meta":{"longitude":-81.582592,"type":"RESTAURANT","latitude":28.418491,"singleRider":false}},{"id":"WaltDisneyWorldMagicKingdom_18498503","waitTime":null,"status":"Closed","active":false,"lastUpdate":"2020-09-15T11:33:17.494Z","fastPass":false,"meta":{"latitude":28.420012,"singleRider":false,"longitude":-81.58094},"name":"Meet Cinderella and Elena at Princess Fairytale Hall - Temporarily Unavailable"},{"id":"WaltDisneyWorldMagicKingdom_2219610","waitTime":null,"status":"Refurbishment","active":false,"lastUpdate":"2021-01-03T21:23:08.615Z","meta":{"singleRider":false,"longitude":-81.585078,"type":"ATTRACTION","latitude":28.41969},"fastPass":false,"name":"Walt Disney World Railroad - Frontierland - Temporarily Unavailable"},{"id":"WaltDisneyWorldMagicKingdom_387133","waitTime":null,"status":"Closed","active":false,"lastUpdate":"2020-09-15T11:33:17.492Z","fastPass":false,"name":"Meet Daring Disney Pals as Circus Stars at Pete's Silly Side Show - Temporarily Unavailable","meta":{"singleRider":false,"longitude":-81.578932,"latitude":28.421282}},{"id":"WaltDisneyWorldMagicKingdom_80010107","waitTime":20,"status":"Operating","active":true,"lastUpdate":"2021-02-08T00:28:21.822Z","name":"Astro Orbiter","fastPass":false,"meta":{"longitude":-81.5789887902,"latitude":28.4184926179,"type":"ATTRACTION","singleRider":false}},{"id":"WaltDisneyWorldMagicKingdom_80010110","waitTime":35,"status":"Operating","active":true,"lastUpdate":"2021-02-07T23:52:17.315Z","fastPass":false,"meta":{"unsuitableForPregnantPeople":true,"type":"ATTRACTION","longitude":-81.5846422864,"singleRider":false,"latitude":28.4199638504},"name":"Big Thunder Mountain Railroad"},{"id":"WaltDisneyWorldMagicKingdom_80010114","waitTime":10,"status":"Operating","active":true,"lastUpdate":"2021-02-07T22:12:23.304Z","name":"Buzz Lightyear's Space Ranger Spin","fastPass":false,"meta":{"singleRider":false,"longitude":-81.5794086456,"type":"ATTRACTION","latitude":28.4182868839}},{"id":"WaltDisneyWorldMagicKingdom_80010117","waitTime":20,"status":"Operating","active":true,"lastUpdate":"2021-02-08T00:13:18.917Z","meta":{"type":"ATTRACTION","longitude":-81.581255,"latitude":28.420169,"singleRider":false},"name":"Prince Charming Regal Carrousel","fastPass":false},{"id":"WaltDisneyWorldMagicKingdom_80010129","waitTime":15,"status":"Operating","active":true,"lastUpdate":"2021-02-07T23:40:20.197Z","meta":{"type":"ATTRACTION","longitude":-81.5789473057,"latitude":28.420509033,"singleRider":false},"fastPass":false,"name":"Dumbo the Flying Elephant"},{"id":"WaltDisneyWorldMagicKingdom_80010149","waitTime":10,"status":"Operating","active":true,"lastUpdate":"2021-02-08T00:23:23.893Z","meta":{"singleRider":false,"longitude":-81.5820392026,"latitude":28.4204816402,"type":"ATTRACTION"},"fastPass":false,"name":"\"it's a small world\""},{"id":"WaltDisneyWorldMagicKingdom_80010153","waitTime":20,"status":"Operating","active":true,"lastUpdate":"2021-02-07T23:50:23.316Z","meta":{"longitude":-81.5834393157,"singleRider":false,"latitude":28.41797818,"type":"ATTRACTION"},"fastPass":false,"name":"Jungle Cruise"},{"id":"WaltDisneyWorldMagicKingdom_80010160","waitTime":null,"status":"Closed","active":false,"lastUpdate":"2021-02-08T00:01:24.627Z","name":"Liberty Square Riverboat","fastPass":false,"meta":{"latitude":28.4195563399,"longitude":-81.5827982677,"singleRider":false,"type":"ATTRACTION"}},{"id":"WaltDisneyWorldMagicKingdom_80010162","waitTime":5,"status":"Operating","active":true,"lastUpdate":"2021-02-07T21:27:22.419Z","fastPass":false,"name":"Mad Tea Party","meta":{"singleRider":false,"type":"ATTRACTION","longitude":-81.5798248916,"latitude":28.4200230397}},{"id":"WaltDisneyWorldMagicKingdom_80010165","waitTime":null,"status":"Closed","active":false,"lastUpdate":"2021-01-03T21:24:20.300Z","name":"Main Street Vehicles - Temporarily Unavailable","meta":{"longitude":-81.5815081252,"singleRider":false,"type":"ATTRACTION","latitude":28.4168698711},"fastPass":false},{"id":"WaltDisneyWorldMagicKingdom_80010170","waitTime":10,"status":"Operating","active":true,"lastUpdate":"2021-02-07T22:49:19.220Z","fastPass":false,"name":"Mickey's PhilharMagic","meta":{"singleRider":false,"longitude":-81.5814839853,"type":"ATTRACTION","latitude":28.4200304909}},{"id":"WaltDisneyWorldMagicKingdom_80010176","waitTime":5,"status":"Operating","active":true,"lastUpdate":"2021-02-08T00:24:26.441Z","fastPass":false,"meta":{"longitude":-81.5818916811,"singleRider":false,"type":"ATTRACTION","latitude":28.4202640272},"name":"Peter Pan's Flight"},{"id":"WaltDisneyWorldMagicKingdom_80010177","waitTime":5,"status":"Operating","active":true,"lastUpdate":"2021-02-08T00:28:19.162Z","meta":{"latitude":28.41796992,"longitude":-81.5842252,"type":"ATTRACTION","singleRider":false},"name":"Pirates of the Caribbean","fastPass":false},{"id":"WaltDisneyWorldMagicKingdom_80010190","waitTime":10,"status":"Operating","active":true,"lastUpdate":"2021-02-07T23:11:24.703Z","fastPass":false,"meta":{"longitude":-81.5781962872,"latitude":28.4188341691,"type":"ATTRACTION","singleRider":false,"unsuitableForPregnantPeople":true},"name":"Space Mountain"},{"id":"WaltDisneyWorldMagicKingdom_80010192","waitTime":null,"status":"Down","active":false,"lastUpdate":"2021-02-07T23:43:18.456Z","name":"Splash Mountain","fastPass":false,"meta":{"type":"ATTRACTION","latitude":28.419418,"longitude":-81.58498,"singleRider":false,"unsuitableForPregnantPeople":true}},{"id":"WaltDisneyWorldMagicKingdom_80010196","waitTime":null,"status":"Operating","active":true,"lastUpdate":"2021-02-07T14:01:41.619Z","name":"Swiss Family Treehouse","fastPass":false,"meta":{"latitude":28.4184325517,"longitude":-81.5827982677,"singleRider":false,"type":"ATTRACTION"}},{"id":"WaltDisneyWorldMagicKingdom_80010208","waitTime":5,"status":"Operating","active":true,"lastUpdate":"2021-02-07T21:13:18.801Z","name":"Haunted Mansion","fastPass":false,"meta":{"latitude":28.4202,"longitude":-81.58288,"type":"ATTRACTION","singleRider":false}},{"id":"WaltDisneyWorldMagicKingdom_80010210","waitTime":10,"status":"Operating","active":true,"lastUpdate":"2021-02-07T19:54:21.899Z","fastPass":false,"name":"The Magic Carpets of Aladdin","meta":{"latitude":28.41843,"singleRider":false,"type":"ATTRACTION","longitude":-81.583472}},{"id":"WaltDisneyWorldMagicKingdom_80010213","waitTime":5,"status":"Operating","active":true,"lastUpdate":"2021-02-07T23:50:23.869Z","name":"The Many Adventures of Winnie the Pooh","meta":{"singleRider":false,"type":"ATTRACTION","latitude":28.420212,"longitude":-81.580266},"fastPass":false},{"id":"WaltDisneyWorldMagicKingdom_80010220","waitTime":null,"status":"Closed","active":false,"lastUpdate":"2021-02-07T21:31:20.838Z","meta":{"longitude":-81.58428,"type":"ATTRACTION","latitude":28.419503,"singleRider":false},"name":"Tom Sawyer Island","fastPass":false},{"id":"WaltDisneyWorldMagicKingdom_80010222","waitTime":null,"status":"Operating","active":true,"lastUpdate":"2021-02-08T00:29:23.901Z","meta":{"longitude":-81.579302,"unsuitableForPregnantPeople":true,"singleRider":false,"latitude":28.419368,"type":"ATTRACTION"},"name":"Tomorrowland Speedway","fastPass":false},{"id":"WaltDisneyWorldMagicKingdom_80010224","waitTime":null,"status":"Refurbishment","active":false,"lastUpdate":"2021-01-03T21:24:19.826Z","name":"Tomorrowland Transit Authority PeopleMover - Temporarily Unavailable","fastPass":false,"meta":{"singleRider":false,"type":"ATTRACTION","longitude":-81.579033,"latitude":28.418155}},{"id":"WaltDisneyWorldMagicKingdom_80010230","waitTime":null,"status":"Refurbishment","active":false,"lastUpdate":"2021-01-03T21:23:09.088Z","meta":{"singleRider":false,"type":"ATTRACTION","latitude":28.416543,"longitude":-81.581204},"name":"Walt Disney World Railroad - Main Street, U.S.A. - Temporarily Unavailable","fastPass":false},{"id":"WaltDisneyWorldMagicKingdom_80010232","waitTime":null,"status":"Closed","active":false,"lastUpdate":"2021-02-08T00:01:24.084Z","fastPass":false,"meta":{"type":"ATTRACTION","latitude":28.4180310951,"longitude":-81.5790083064,"singleRider":false},"name":"Walt Disney's Carousel of Progress"},{"id":"WaltDisneyWorldMagicKingdom_80069748","waitTime":null,"status":"Operating","active":true,"lastUpdate":"2021-02-07T16:01:17.233Z","meta":{"type":"ATTRACTION","longitude":-81.5837222887,"singleRider":false,"latitude":28.4187861348},"name":"Country Bear Jamboree","fastPass":false},{"id":"WaltDisneyWorldMagicKingdom_80069754","waitTime":null,"status":"Refurbishment","active":false,"lastUpdate":"2021-01-21T05:00:35.597Z","fastPass":false,"meta":{"singleRider":false,"type":"ATTRACTION","latitude":28.4194484171,"longitude":-81.5823248578},"name":"The Hall of Presidents"},{"id":"WaltDisneyWorldMagicKingdom_90001815","waitTime":null,"status":"Closed","active":false,"lastUpdate":"2021-02-02T05:00:59.870Z","name":"Liberty Square Market - Temporarily Unavailable","meta":{"latitude":28.4195299,"longitude":-81.5825378,"type":"RESTAURANT","singleRider":false},"fastPass":false},{"id":"WaltDisneyWorldMagicKingdom_90001819","waitTime":null,"status":"Operating","active":true,"lastUpdate":"2021-02-07T23:33:34.927Z","meta":{"singleRider":false,"longitude":-81.5826159743,"latitude":28.4191196055,"type":"RESTAURANT"},"fastPass":false,"name":"Liberty Tree Tavern"},{"id":"WaltDisneyWorldMagicKingdom_90002464","waitTime":null,"status":"Operating","active":true,"lastUpdate":"2021-02-06T17:02:04.468Z","name":"Cinderella's Royal Table","meta":{"singleRider":false,"type":"RESTAURANT","longitude":-81.581101,"latitude":28.4195},"fastPass":false},{"id":"WaltDisneyWorldMagicKingdom_90002660","waitTime":null,"status":"Operating","active":true,"lastUpdate":"2021-02-07T23:55:49.088Z","name":"The Crystal Palace","fastPass":false,"meta":{"type":"RESTAURANT","singleRider":false,"longitude":-81.5818970259,"latitude":28.4181214892}},{"id":"WaltDisneyWorldMagicKingdom_90002670","waitTime":null,"status":"Operating","active":true,"lastUpdate":"2021-02-07T23:41:43.584Z","name":"The Plaza Restaurant","meta":{"type":"RESTAURANT","longitude":-81.5809394969,"singleRider":false,"latitude":28.4180247703},"fastPass":false},{"id":"WaltDisneyWorldMagicKingdom_90002678","waitTime":null,"status":"Operating","active":true,"lastUpdate":"2021-02-07T23:57:01.258Z","name":"Tony's Town Square Restaurant","fastPass":false,"meta":{"longitude":-81.5807276023,"type":"RESTAURANT","singleRider":false,"latitude":28.4169323426}},{"id":"WaltDisneyWorldEpcot_107785","waitTime":10,"status":"Operating","active":true,"lastUpdate":"2021-02-07T16:54:22.474Z","name":"The Seas with Nemo & Friends","meta":{"longitude":-81.550852,"type":"ATTRACTION","singleRider":false,"latitude":28.374904},"fastPass":false},{"id":"WaltDisneyWorldEpcot_15525573","waitTime":null,"status":"Operating","active":true,"lastUpdate":"2021-02-07T23:11:39.289Z","name":"La Hacienda de San Angel","meta":{"type":"RESTAURANT","longitude":-81.547532,"singleRider":false,"latitude":28.371221},"fastPass":false},{"id":"WaltDisneyWorldEpcot_17564219","waitTime":null,"status":"Closed","active":false,"lastUpdate":"2020-09-15T11:33:07.103Z","meta":{"latitude":28.37097,"longitude":-81.547134,"singleRider":false},"fastPass":false,"name":"Meet Anna and Elsa at Royal Sommerhus - Temporarily Unavailable"},{"id":"WaltDisneyWorldEpcot_17720675","waitTime":5,"status":"Operating","active":true,"lastUpdate":"2021-02-08T00:16:46.411Z","meta":{"singleRider":false,"type":"RESTAURANT","longitude":-81.551645,"latitude":28.368468},"name":"Spice Road Table","fastPass":false},{"id":"WaltDisneyWorldEpcot_18269694","waitTime":null,"status":"Operating","active":true,"lastUpdate":"2021-02-07T16:01:17.825Z","fastPass":false,"name":"Disney and Pixar Short Film Festival","meta":{"latitude":28.37263,"singleRider":false,"longitude":-81.55115,"type":"ATTRACTION"}},{"id":"WaltDisneyWorldEpcot_18375495","waitTime":25,"status":"Operating","active":true,"lastUpdate":"2021-02-07T22:37:20.135Z","name":"Frozen Ever After","meta":{"type":"ATTRACTION","latitude":28.370745,"longitude":-81.54653,"singleRider":false},"fastPass":false},{"id":"WaltDisneyWorldEpcot_19463785","waitTime":null,"status":"Closed","active":false,"lastUpdate":"2021-02-07T23:01:18.931Z","meta":{"latitude":28.368864,"type":"ATTRACTION","longitude":-81.552978,"singleRider":false},"name":"Beauty and the Beast Sing-Along","fastPass":false},{"id":"WaltDisneyWorldEpcot_19473173","waitTime":null,"status":"Operating","active":true,"lastUpdate":"2021-02-07T16:01:19.187Z","meta":{"longitude":-81.552138,"singleRider":false,"type":"ATTRACTION","latitude":28.374301},"name":"Awesome Planet","fastPass":false},{"id":"WaltDisneyWorldEpcot_20194","waitTime":30,"status":"Operating","active":true,"lastUpdate":"2021-02-08T00:26:22.499Z","meta":{"longitude":-81.552248,"latitude":28.373592,"singleRider":false,"type":"ATTRACTION"},"name":"Soarin' Around the World","fastPass":false},{"id":"WaltDisneyWorldEpcot_207395","waitTime":5,"status":"Operating","active":true,"lastUpdate":"2021-02-07T16:25:22.423Z","name":"Gran Fiesta Tour Starring The Three Caballeros","fastPass":false,"meta":{"longitude":-81.547368,"type":"ATTRACTION","latitude":28.371649,"singleRider":false}},{"id":"WaltDisneyWorldEpcot_62992","waitTime":null,"status":"Closed","active":false,"lastUpdate":"2021-01-03T21:23:09.564Z","fastPass":false,"name":"Turtle Talk With Crush - Temporarily Unavailable","meta":{"longitude":-81.551047,"singleRider":false,"type":"ATTRACTION","latitude":28.375255}},{"id":"WaltDisneyWorldEpcot_80010145","waitTime":null,"status":"Operating","active":true,"lastUpdate":"2021-02-07T23:31:19.622Z","name":"Impressions de France","meta":{"singleRider":false,"type":"ATTRACTION","latitude":28.368864,"longitude":-81.552978},"fastPass":false},{"id":"WaltDisneyWorldEpcot_80010152","waitTime":10,"status":"Operating","active":true,"lastUpdate":"2021-02-07T21:16:20.751Z","name":"Journey Into Imagination With Figment","meta":{"longitude":-81.551401,"singleRider":false,"type":"ATTRACTION","latitude":28.372994},"fastPass":false},{"id":"WaltDisneyWorldEpcot_80010161","waitTime":10,"status":"Operating","active":true,"lastUpdate":"2021-02-07T17:18:17.812Z","meta":{"singleRider":false,"latitude":28.374245,"longitude":-81.552301,"type":"ATTRACTION"},"fastPass":false,"name":"Living with the Land"},{"id":"WaltDisneyWorldEpcot_80010173","waitTime":20,"status":"Operating","active":true,"lastUpdate":"2021-02-07T19:09:22.934Z","fastPass":false,"name":"Mission: SPACE","meta":{"singleRider":false,"latitude":28.373927,"longitude":-81.547156,"type":"ATTRACTION","unsuitableForPregnantPeople":true}},{"id":"WaltDisneyWorldEpcot_80010174","waitTime":null,"status":"Operating","active":true,"lastUpdate":"2021-02-07T16:01:16.397Z","fastPass":false,"name":"Canada Far and Wide in Circle-Vision 360","meta":{"latitude":28.371694,"longitude":-81.55196,"singleRider":false,"type":"ATTRACTION"}},{"id":"WaltDisneyWorldEpcot_80010180","waitTime":null,"status":"Operating","active":true,"lastUpdate":"2021-02-07T16:01:25.297Z","meta":{"type":"ATTRACTION","latitude":28.369791,"singleRider":false,"longitude":-81.546381},"name":"Reflections of China","fastPass":false},{"id":"WaltDisneyWorldEpcot_80010191","waitTime":5,"status":"Operating","active":true,"lastUpdate":"2021-02-07T22:48:22.800Z","fastPass":false,"name":"Spaceship Earth","meta":{"latitude":28.375583,"type":"ATTRACTION","longitude":-81.549401,"singleRider":false}},{"id":"WaltDisneyWorldEpcot_80010199","waitTime":40,"status":"Operating","active":true,"lastUpdate":"2021-02-07T22:20:20.179Z","fastPass":false,"name":"Test Track","meta":{"longitude":-81.547489,"latitude":28.373228,"type":"ATTRACTION","singleRider":true,"unsuitableForPregnantPeople":true}},{"id":"WaltDisneyWorldEpcot_80010200","waitTime":null,"status":"Operating","active":true,"lastUpdate":"2021-02-07T16:01:22.141Z","fastPass":false,"name":"The American Adventure","meta":{"singleRider":false,"longitude":-81.549446,"latitude":28.367517,"type":"ATTRACTION"}},{"id":"WaltDisneyWorldEpcot_90001292","waitTime":5,"status":"Operating","active":true,"lastUpdate":"2021-02-08T00:31:14.567Z","fastPass":false,"meta":{"singleRider":false,"type":"RESTAURANT","longitude":-81.546819,"latitude":28.368153},"name":"Biergarten Restaurant"},{"id":"WaltDisneyWorldEpcot_90001416","waitTime":null,"status":"Operating","active":true,"lastUpdate":"2021-02-08T00:06:58.115Z","meta":{"type":"RESTAURANT","longitude":-81.550458,"singleRider":false,"latitude":28.375096},"fastPass":false,"name":"Coral Reef Restaurant"},{"id":"WaltDisneyWorldEpcot_90001798","waitTime":null,"status":"Operating","active":true,"lastUpdate":"2021-02-07T17:11:48.722Z","meta":{"longitude":-81.551512,"singleRider":false,"latitude":28.371657,"type":"RESTAURANT"},"fastPass":false,"name":"Le Cellier Steakhouse"},{"id":"WaltDisneyWorldEpcot_90002084","waitTime":null,"status":"Operating","active":true,"lastUpdate":"2021-02-07T22:34:20.991Z","name":"Rose & Crown Dining Room","meta":{"longitude":-81.551684,"type":"RESTAURANT","singleRider":false,"latitude":28.370508},"fastPass":false},{"id":"WaltDisneyWorldEpcot_90002100","waitTime":null,"status":"Operating","active":true,"lastUpdate":"2021-02-07T19:53:42.870Z","fastPass":false,"name":"San Angel Inn Restaurante    ","meta":{"longitude":-81.547258,"singleRider":false,"type":"RESTAURANT","latitude":28.371612}},{"id":"WaltDisneyWorldEpcot_90002237","waitTime":20,"status":"Operating","active":true,"lastUpdate":"2021-02-08T00:30:17.077Z","fastPass":false,"meta":{"longitude":-81.552324,"singleRider":false,"type":"RESTAURANT","latitude":28.374039},"name":"Garden Grill Restaurant"},{"id":"WaltDisneyWorldHollywoodStudios_136","waitTime":null,"status":"Closed","active":false,"lastUpdate":"2020-09-15T11:33:12.086Z","fastPass":false,"meta":{"longitude":-81.5586114479,"singleRider":false,"latitude":28.3566700675},"name":"Indiana Jones™ Epic Stunt Spectacular! - Temporarily Unavailable"},{"id":"WaltDisneyWorldHollywoodStudios_17842841","waitTime":null,"status":"Closed","active":false,"lastUpdate":"2020-09-15T11:33:12.046Z","fastPass":false,"meta":{"latitude":28.3568243464,"singleRider":false,"longitude":-81.5596944094},"name":"For the First Time in Forever: A Frozen Sing-Along Celebration - Temporarily Unavailable"},{"id":"WaltDisneyWorldHollywoodStudios_18189394","waitTime":null,"status":"Closed","active":false,"lastUpdate":"2020-09-15T11:33:12.077Z","meta":{"longitude":-81.560938,"latitude":28.35796,"singleRider":false},"name":"Star Wars Launch Bay: Meet Chewbacca - Temporarily Unavailable","fastPass":false},{"id":"WaltDisneyWorldHollywoodStudios_18189398","waitTime":null,"status":"Closed","active":false,"lastUpdate":"2020-09-15T11:33:12.069Z","meta":{"singleRider":false,"latitude":28.35796,"longitude":-81.560938},"fastPass":false,"name":"Star Wars Launch Bay: Encounter Darth Vader - Temporarily Unavailable"},{"id":"WaltDisneyWorldHollywoodStudios_18360041","waitTime":null,"status":"Closed","active":false,"lastUpdate":"2021-01-03T21:23:31.878Z","fastPass":false,"meta":{"longitude":-81.561061,"type":"ATTRACTION","singleRider":false,"latitude":28.357821},"name":"Star Wars Launch Bay Theater - Temporarily Unavailable"},{"id":"WaltDisneyWorldHollywoodStudios_18368385","waitTime":null,"status":"Closed","active":false,"lastUpdate":"2020-09-15T11:33:12.104Z","name":"Celebrity Spotlight - Temporarily Unavailable","fastPass":false,"meta":{"latitude":28.356072,"singleRider":false,"longitude":-81.559158}},{"id":"WaltDisneyWorldHollywoodStudios_18368386","waitTime":null,"status":"Closed","active":false,"lastUpdate":"2020-09-15T11:33:12.095Z","name":"Mickey and Minnie Starring in Red Carpet Dreams - Temporarily Unavailable","meta":{"longitude":-81.559479,"singleRider":false,"latitude":28.356068},"fastPass":false},{"id":"WaltDisneyWorldHollywoodStudios_18669338","waitTime":null,"status":"Closed","active":false,"lastUpdate":"2020-09-15T11:33:12.121Z","fastPass":false,"meta":{"latitude":28.35796,"longitude":-81.560938,"singleRider":false},"name":"BB-8 Astromech on Duty - Temporarily Unavailable"},{"id":"WaltDisneyWorldHollywoodStudios_18770880","waitTime":null,"status":"Closed","active":false,"lastUpdate":"2021-02-07T23:01:22.365Z","fastPass":false,"name":"Walt Disney Presents","meta":{"singleRider":false,"longitude":-81.560982,"type":"ATTRACTION","latitude":28.35686}},{"id":"WaltDisneyWorldHollywoodStudios_18904138","waitTime":null,"status":"Closed","active":false,"lastUpdate":"2021-02-08T00:01:21.418Z","name":"Slinky Dog Dash","meta":{"unsuitableForPregnantPeople":true,"longitude":-81.562786,"latitude":28.356245,"singleRider":false,"type":"ATTRACTION"},"fastPass":false},{"id":"WaltDisneyWorldHollywoodStudios_18904172","waitTime":null,"status":"Closed","active":false,"lastUpdate":"2021-02-08T00:01:22.035Z","meta":{"type":"ATTRACTION","latitude":28.355385,"singleRider":false,"longitude":-81.562379},"fastPass":false,"name":"Alien Swirling Saucers"},{"id":"WaltDisneyWorldHollywoodStudios_19025682","waitTime":null,"status":"Operating","active":true,"lastUpdate":"2020-09-15T14:02:51.117Z","fastPass":false,"name":"Star Wars: Galaxy's Edge","meta":{"latitude":28.355234,"singleRider":false,"longitude":-81.559787}},{"id":"WaltDisneyWorldHollywoodStudios_19152250","waitTime":null,"status":"Closed","active":false,"lastUpdate":"2020-09-15T11:33:12.147Z","meta":{"singleRider":false,"longitude":-81.560984,"latitude":28.356865},"fastPass":false,"name":"Meet Sulley at Walt Disney Presents - Temporarily Unavailable"},{"id":"WaltDisneyWorldHollywoodStudios_19259335","waitTime":null,"status":"Closed","active":false,"lastUpdate":"2021-02-08T00:01:19.408Z","meta":{"type":"ATTRACTION","longitude":-81.5605667783,"singleRider":false,"latitude":28.3566783801},"fastPass":false,"name":"Mickey & Minnie's Runaway Railway"},{"id":"WaltDisneyWorldHollywoodStudios_19263735","waitTime":null,"status":"Closed","active":false,"lastUpdate":"2021-02-08T00:01:22.550Z","name":"Millennium Falcon: Smugglers Run","fastPass":false,"meta":{"latitude":28.353889,"unsuitableForPregnantPeople":true,"longitude":-81.561689,"type":"ATTRACTION","singleRider":true}},{"id":"WaltDisneyWorldHollywoodStudios_19263736","waitTime":null,"status":"Closed","active":false,"lastUpdate":"2021-02-08T00:00:22.661Z","fastPass":false,"meta":{"singleRider":false,"unsuitableForPregnantPeople":true,"longitude":-81.560457,"type":"ATTRACTION","latitude":28.354884},"name":"Star Wars: Rise of the Resistance"},{"id":"WaltDisneyWorldHollywoodStudios_19267226","waitTime":null,"status":"Closed","active":false,"lastUpdate":"2021-01-30T21:13:32.709Z","fastPass":false,"meta":{"longitude":-81.562075,"latitude":28.354095,"singleRider":false,"type":"RESTAURANT"},"name":"Oga's Cantina at the Walt Disney World Resort"},{"id":"WaltDisneyWorldHollywoodStudios_19276204","waitTime":null,"status":"Closed","active":false,"lastUpdate":"2021-02-07T23:01:24.031Z","name":"Lightning McQueen's Racing Academy","meta":{"latitude":28.360035,"singleRider":false,"longitude":-81.560707,"type":"ATTRACTION"},"fastPass":false},{"id":"WaltDisneyWorldHollywoodStudios_19497952","waitTime":null,"status":"Closed","active":false,"lastUpdate":"2021-02-07T23:01:23.233Z","name":"Vacation Fun - An Original Animated Short with Mickey & Minnie","meta":{"type":"ATTRACTION","latitude":28.356316,"singleRider":false,"longitude":-81.559031},"fastPass":false},{"id":"WaltDisneyWorldHollywoodStudios_19582977","waitTime":null,"status":"Closed","active":false,"lastUpdate":"2020-09-15T11:33:12.211Z","name":"Disney Society Orchestra and Friends","fastPass":false,"meta":{"singleRider":false,"longitude":-81.5595985008,"latitude":28.3589162565}},{"id":"WaltDisneyWorldHollywoodStudios_19583373","waitTime":null,"status":"Closed","active":false,"lastUpdate":"2020-09-15T11:33:12.219Z","name":"Disney Junior Play and Dance!","fastPass":false,"meta":{"longitude":-81.560567,"latitude":28.357613,"singleRider":false}},{"id":"WaltDisneyWorldHollywoodStudios_202731","waitTime":null,"status":"Closed","active":false,"lastUpdate":"2020-09-15T11:33:12.226Z","name":"Disney Junior Dance Party! - Temporarily Unavailable","meta":{"latitude":28.357613,"longitude":-81.560567,"singleRider":false},"fastPass":false},{"id":"WaltDisneyWorldHollywoodStudios_209857","waitTime":null,"status":"Closed","active":false,"lastUpdate":"2021-02-08T00:01:23.576Z","meta":{"singleRider":false,"type":"ATTRACTION","latitude":28.356404,"longitude":-81.561894},"name":"Toy Story Mania!","fastPass":false},{"id":"WaltDisneyWorldHollywoodStudios_80010151","waitTime":null,"status":"Closed","active":false,"lastUpdate":"2021-02-07T23:01:19.460Z","fastPass":false,"name":"Muppet*Vision 3D","meta":{"singleRider":false,"latitude":28.3550644708,"longitude":-81.5594643904,"type":"ATTRACTION"}},{"id":"WaltDisneyWorldHollywoodStudios_80010182","waitTime":null,"status":"Closed","active":false,"lastUpdate":"2021-02-08T00:01:20.005Z","meta":{"type":"ATTRACTION","singleRider":true,"longitude":-81.56059,"unsuitableForPregnantPeople":true,"latitude":28.359712},"fastPass":false,"name":"Rock 'n' Roller Coaster Starring Aerosmith"},{"id":"WaltDisneyWorldHollywoodStudios_80010193","waitTime":null,"status":"Closed","active":false,"lastUpdate":"2021-02-08T00:01:20.620Z","fastPass":false,"meta":{"latitude":28.355695,"type":"ATTRACTION","singleRider":false,"unsuitableForPregnantPeople":true,"longitude":-81.558891},"name":"Star Tours – The Adventures Continue"},{"id":"WaltDisneyWorldHollywoodStudios_80010218","waitTime":null,"status":"Closed","active":false,"lastUpdate":"2021-02-08T00:01:23.064Z","meta":{"longitude":-81.559772,"unsuitableForPregnantPeople":true,"singleRider":false,"latitude":28.359553,"type":"ATTRACTION"},"name":"The Twilight Zone Tower of Terror™","fastPass":false},{"id":"WaltDisneyWorldHollywoodStudios_80010848","waitTime":null,"status":"Closed","active":false,"lastUpdate":"2020-09-15T11:33:12.284Z","fastPass":false,"name":"Beauty and the Beast-Live on Stage - Temporarily Unavailable","meta":{"longitude":-81.5595985008,"latitude":28.3589162565,"singleRider":false}},{"id":"WaltDisneyWorldHollywoodStudios_80010896","waitTime":null,"status":"Closed","active":false,"lastUpdate":"2020-09-15T11:33:12.290Z","fastPass":false,"name":"Voyage of The Little Mermaid - Temporarily Unavailable","meta":{"longitude":-81.5608484102,"latitude":28.3574862147,"singleRider":false}},{"id":"WaltDisneyWorldHollywoodStudios_90001216","waitTime":null,"status":"Operating","active":true,"lastUpdate":"2021-02-03T22:32:50.327Z","name":"50's Prime Time Café","meta":{"latitude":28.357444,"longitude":-81.558881,"type":"RESTAURANT","singleRider":false},"fastPass":false},{"id":"WaltDisneyWorldHollywoodStudios_90001744","waitTime":null,"status":"Closed","active":false,"lastUpdate":"2021-01-30T21:13:33.319Z","fastPass":false,"name":"Hollywood & Vine","meta":{"longitude":-81.558975,"singleRider":false,"type":"RESTAURANT","latitude":28.357611}},{"id":"WaltDisneyWorldHollywoodStudios_90001865","waitTime":null,"status":"Operating","active":true,"lastUpdate":"2021-02-07T23:58:15.903Z","name":"Mama Melrose's Ristorante Italiano","meta":{"type":"RESTAURANT","latitude":28.354532,"longitude":-81.559012,"singleRider":false},"fastPass":false},{"id":"WaltDisneyWorldHollywoodStudios_90002114","waitTime":null,"status":"Operating","active":true,"lastUpdate":"2021-02-05T23:36:26.406Z","fastPass":false,"meta":{"singleRider":false,"longitude":-81.559495,"latitude":28.3559,"type":"RESTAURANT"},"name":"Sci-Fi Dine-In Theater Restaurant"},{"id":"WaltDisneyWorldHollywoodStudios_90002245","waitTime":null,"status":"Operating","active":true,"lastUpdate":"2021-02-07T23:56:12.055Z","fastPass":false,"name":"The Hollywood Brown Derby","meta":{"singleRider":false,"type":"RESTAURANT","latitude":28.357648,"longitude":-81.560297}},{"id":"WaltDisneyWorldAnimalKingdom_17421326","waitTime":null,"status":"Closed","active":false,"lastUpdate":"2020-09-15T11:33:02.632Z","name":"Meet Favorite Disney Pals at Adventurers Outpost - Temporarily Unavailable","fastPass":false,"meta":{"longitude":-81.589796,"singleRider":false,"latitude":28.357972}},{"id":"WaltDisneyWorldAnimalKingdom_18069632","waitTime":null,"status":"Operating","active":true,"lastUpdate":"2021-02-07T22:09:29.246Z","name":"Tiffins Restaurant","meta":{"longitude":-81.591487,"singleRider":false,"type":"RESTAURANT","latitude":28.356846},"fastPass":false},{"id":"WaltDisneyWorldAnimalKingdom_18377778","waitTime":null,"status":"Operating","active":true,"lastUpdate":"2021-02-07T21:55:04.407Z","meta":{"longitude":-81.591487,"singleRider":false,"type":"RESTAURANT","latitude":28.356719},"fastPass":false,"name":"Nomad Lounge"},{"id":"WaltDisneyWorldAnimalKingdom_18665185","waitTime":null,"status":"Closed","active":false,"lastUpdate":"2021-02-07T22:01:22.138Z","meta":{"longitude":-81.591641,"type":"ATTRACTION","latitude":28.355257,"singleRider":false},"fastPass":false,"name":"Na'vi River Journey"},{"id":"WaltDisneyWorldAnimalKingdom_18665186","waitTime":null,"status":"Closed","active":false,"lastUpdate":"2021-02-07T22:01:22.671Z","name":"Avatar Flight of Passage","meta":{"singleRider":false,"longitude":-81.592147,"latitude":28.355554,"unsuitableForPregnantPeople":true,"type":"ATTRACTION"},"fastPass":false},{"id":"WaltDisneyWorldAnimalKingdom_19330300","waitTime":null,"status":"Closed","active":false,"lastUpdate":"2021-02-07T22:10:20.899Z","fastPass":false,"name":"The Animation Experience at Conservation Station","meta":{"type":"ATTRACTION","latitude":28.365188,"singleRider":false,"longitude":-81.588669}},{"id":"WaltDisneyWorldAnimalKingdom_26068","waitTime":null,"status":"Closed","active":false,"lastUpdate":"2021-02-07T22:01:23.275Z","name":"Expedition Everest - Legend of the Forbidden Mountain","fastPass":false,"meta":{"latitude":28.3584769119,"unsuitableForPregnantPeople":true,"type":"ATTRACTION","singleRider":false,"longitude":-81.5873781396}},{"id":"WaltDisneyWorldAnimalKingdom_80010123","waitTime":null,"status":"Closed","active":false,"lastUpdate":"2021-02-07T22:01:17.720Z","fastPass":false,"name":"DINOSAUR","meta":{"latitude":28.355307,"singleRider":false,"unsuitableForPregnantPeople":true,"type":"ATTRACTION","longitude":-81.588444}},{"id":"WaltDisneyWorldAnimalKingdom_80010150","waitTime":null,"status":"Closed","active":false,"lastUpdate":"2021-02-07T22:01:23.846Z","name":"It's Tough to be a Bug!","fastPass":false,"meta":{"longitude":-81.590118,"latitude":28.357488,"type":"ATTRACTION","singleRider":false}},{"id":"WaltDisneyWorldAnimalKingdom_80010154","waitTime":null,"status":"Refurbishment","active":false,"lastUpdate":"2021-01-04T05:02:16.994Z","name":"Kali River Rapids","fastPass":false,"meta":{"type":"ATTRACTION","singleRider":false,"longitude":-81.5889412165,"latitude":28.3587834288,"unsuitableForPregnantPeople":true}},{"id":"WaltDisneyWorldAnimalKingdom_80010157","waitTime":null,"status":"Closed","active":false,"lastUpdate":"2021-02-07T22:01:18.437Z","fastPass":false,"name":"Kilimanjaro Safaris","meta":{"unsuitableForPregnantPeople":true,"longitude":-81.59228,"type":"ATTRACTION","latitude":28.359331,"singleRider":false}},{"id":"WaltDisneyWorldAnimalKingdom_80010164","waitTime":null,"status":"Closed","active":false,"lastUpdate":"2021-02-07T22:01:21.614Z","meta":{"latitude":28.359379,"type":"ATTRACTION","longitude":-81.589019,"singleRider":false},"fastPass":false,"name":"Maharajah Jungle Trek"},{"id":"WaltDisneyWorldAnimalKingdom_80010175","waitTime":null,"status":"Closed","active":false,"lastUpdate":"2021-02-07T21:31:21.924Z","name":"Gorilla Falls Exploration Trail","meta":{"singleRider":false,"type":"ATTRACTION","latitude":28.359954,"longitude":-81.592149},"fastPass":false},{"id":"WaltDisneyWorldAnimalKingdom_80010203","waitTime":null,"status":"Closed","active":false,"lastUpdate":"2021-01-03T21:23:41.107Z","fastPass":false,"meta":{"longitude":-81.5884791864,"singleRider":false,"type":"ATTRACTION","latitude":28.3566787564},"name":"The Boneyard - Temporarily Unavailable"},{"id":"WaltDisneyWorldAnimalKingdom_80010228","waitTime":null,"status":"Closed","active":false,"lastUpdate":"2021-02-07T22:01:24.410Z","name":"TriceraTop Spin","fastPass":false,"meta":{"singleRider":false,"type":"ATTRACTION","latitude":28.356503,"longitude":-81.588074}},{"id":"WaltDisneyWorldAnimalKingdom_80010235","waitTime":null,"status":"Closed","active":false,"lastUpdate":"2021-02-07T21:31:21.387Z","name":"Wildlife Express Train","meta":{"latitude":28.3598097347,"type":"ATTRACTION","longitude":-81.5914175464,"singleRider":false},"fastPass":false},{"id":"WaltDisneyWorldMagicKingdom_136550","waitTime":null,"status":"Closed","active":false,"lastUpdate":"2021-01-03T21:24:21.706Z","name":"Monsters, Inc. Laugh Floor - Temporarily Unavailable","meta":{"longitude":-81.5797358751,"singleRider":false,"type":"ATTRACTION","latitude":28.4183977566},"fastPass":false},{"id":"WaltDisneyWorldMagicKingdom_15743682","waitTime":null,"status":"Closed","active":false,"lastUpdate":"2020-09-15T11:33:17.406Z","fastPass":false,"name":"Meet Dashing Disney Pals as Circus Stars at Pete’s Silly Side Show - Temporarily Unavailable","meta":{"longitude":-81.578932,"latitude":28.421282,"singleRider":false}},{"id":"WaltDisneyWorldMagicKingdom_15850196","waitTime":null,"status":"Closed","active":false,"lastUpdate":"2020-09-15T11:33:17.374Z","meta":{"longitude":-81.580746,"singleRider":false,"latitude":28.416727},"name":"Meet Mickey Mouse at Town Square Theater - Temporarily Unavailable","fastPass":false},{"id":"WaltDisneyWorldMagicKingdom_16124144","waitTime":null,"status":"Closed","active":false,"lastUpdate":"2021-02-08T01:01:21.103Z","fastPass":false,"meta":{"singleRider":false,"type":"ATTRACTION","longitude":-81.583738382,"latitude":28.4182264646},"name":"Walt Disney's Enchanted Tiki Room"},{"id":"WaltDisneyWorldMagicKingdom_16414579","waitTime":null,"status":"Closed","active":false,"lastUpdate":"2021-01-24T23:00:36.558Z","name":"Sorcerers of the Magic Kingdom","fastPass":false,"meta":{"latitude":28.416944,"longitude":-81.58163,"singleRider":false,"type":"ATTRACTION"}},{"id":"WaltDisneyWorldMagicKingdom_16491297","waitTime":null,"status":"Closed","active":false,"lastUpdate":"2021-02-08T01:01:26.326Z","meta":{"singleRider":false,"type":"ATTRACTION","longitude":-81.5783907473,"latitude":28.4207661576,"unsuitableForPregnantPeople":true},"fastPass":false,"name":"The Barnstormer"},{"id":"WaltDisneyWorldMagicKingdom_16491299","waitTime":null,"status":"Refurbishment","active":false,"lastUpdate":"2021-01-03T21:24:18.928Z","meta":{"longitude":-81.578368,"singleRider":false,"type":"ATTRACTION","latitude":28.420934},"name":"Walt Disney World Railroad - Fantasyland - Temporarily Unavailable","fastPass":false},{"id":"WaltDisneyWorldMagicKingdom_16660079","waitTime":null,"status":"Operating","active":true,"lastUpdate":"2021-02-08T00:55:45.656Z","name":"Be Our Guest Restaurant","fastPass":false,"meta":{"type":"RESTAURANT","latitude":28.4212491492,"longitude":-81.5807074858,"singleRider":false}},{"id":"WaltDisneyWorldMagicKingdom_16767263","waitTime":null,"status":"Closed","active":false,"lastUpdate":"2021-02-08T01:01:21.647Z","fastPass":false,"meta":{"longitude":-81.5799752427,"singleRider":false,"latitude":28.4211203226,"type":"ATTRACTION"},"name":"Under the Sea ~ Journey of The Little Mermaid"},{"id":"WaltDisneyWorldMagicKingdom_16767276","waitTime":null,"status":"Closed","active":false,"lastUpdate":"2021-01-03T21:24:20.764Z","name":"Enchanted Tales with Belle - Temporarily Unavailable","meta":{"latitude":28.42099058,"singleRider":false,"longitude":-81.58093011,"type":"ATTRACTION"},"fastPass":false},{"id":"WaltDisneyWorldMagicKingdom_16767284","waitTime":null,"status":"Closed","active":false,"lastUpdate":"2021-02-08T01:01:26.813Z","meta":{"latitude":28.42037,"longitude":-81.58031,"unsuitableForPregnantPeople":true,"singleRider":false,"type":"ATTRACTION"},"name":"Seven Dwarfs Mine Train","fastPass":false},{"id":"WaltDisneyWorldMagicKingdom_16874126","waitTime":null,"status":"Closed","active":false,"lastUpdate":"2020-09-15T11:33:17.441Z","meta":{"latitude":28.420893275289,"longitude":-81.579613144497,"singleRider":false},"name":"Meet Ariel at Her Grotto - Temporarily Unavailable","fastPass":false},{"id":"WaltDisneyWorldMagicKingdom_17272158","waitTime":null,"status":"Closed","active":false,"lastUpdate":"2021-01-03T21:24:21.210Z","name":"A Pirate's Adventure ~ Treasures of the Seven Seas - Temporarily Unavailable","meta":{"type":"ATTRACTION","latitude":28.41837254,"longitude":-81.58466913,"singleRider":false},"fastPass":false},{"id":"WaltDisneyWorldMagicKingdom_17505397","waitTime":null,"status":"Closed","active":false,"lastUpdate":"2020-09-15T11:33:17.486Z","meta":{"longitude":-81.580917439677,"latitude":28.420045752669,"singleRider":false},"name":"Meet Rapunzel and Tiana at Princess Fairytale Hall - Temporarily Unavailable","fastPass":false},{"id":"WaltDisneyWorldMagicKingdom_17752793","waitTime":null,"status":"Closed","active":false,"lastUpdate":"2020-09-15T11:33:17.444Z","fastPass":false,"meta":{"longitude":-81.580815,"singleRider":false,"latitude":28.416727},"name":"Meet Tinker Bell at Town Square Theater - Temporarily Unavailable"},{"id":"WaltDisneyWorldMagicKingdom_18185631","waitTime":null,"status":"Operating","active":true,"lastUpdate":"2021-02-07T23:51:36.555Z","fastPass":false,"name":"Jungle Navigation Co. LTD Skipper Canteen","meta":{"longitude":-81.582592,"type":"RESTAURANT","latitude":28.418491,"singleRider":false}},{"id":"WaltDisneyWorldMagicKingdom_18498503","waitTime":null,"status":"Closed","active":false,"lastUpdate":"2020-09-15T11:33:17.494Z","fastPass":false,"meta":{"latitude":28.420012,"singleRider":false,"longitude":-81.58094},"name":"Meet Cinderella and Elena at Princess Fairytale Hall - Temporarily Unavailable"},{"id":"WaltDisneyWorldMagicKingdom_2219610","waitTime":null,"status":"Refurbishment","active":false,"lastUpdate":"2021-01-03T21:23:08.615Z","meta":{"singleRider":false,"longitude":-81.585078,"type":"ATTRACTION","latitude":28.41969},"fastPass":false,"name":"Walt Disney World Railroad - Frontierland - Temporarily Unavailable"},{"id":"WaltDisneyWorldMagicKingdom_387133","waitTime":null,"status":"Closed","active":false,"lastUpdate":"2020-09-15T11:33:17.492Z","fastPass":false,"name":"Meet Daring Disney Pals as Circus Stars at Pete's Silly Side Show - Temporarily Unavailable","meta":{"singleRider":false,"longitude":-81.578932,"latitude":28.421282}},{"id":"WaltDisneyWorldMagicKingdom_80010107","waitTime":null,"status":"Closed","active":false,"lastUpdate":"2021-02-08T01:01:28.767Z","name":"Astro Orbiter","fastPass":false,"meta":{"longitude":-81.5789887902,"latitude":28.4184926179,"type":"ATTRACTION","singleRider":false}},{"id":"WaltDisneyWorldMagicKingdom_80010110","waitTime":null,"status":"Closed","active":false,"lastUpdate":"2021-02-08T01:01:22.176Z","fastPass":false,"meta":{"unsuitableForPregnantPeople":true,"type":"ATTRACTION","longitude":-81.5846422864,"singleRider":false,"latitude":28.4199638504},"name":"Big Thunder Mountain Railroad"},{"id":"WaltDisneyWorldMagicKingdom_80010114","waitTime":null,"status":"Closed","active":false,"lastUpdate":"2021-02-08T01:01:27.283Z","name":"Buzz Lightyear's Space Ranger Spin","fastPass":false,"meta":{"singleRider":false,"longitude":-81.5794086456,"type":"ATTRACTION","latitude":28.4182868839}},{"id":"WaltDisneyWorldMagicKingdom_80010117","waitTime":null,"status":"Closed","active":false,"lastUpdate":"2021-02-08T01:01:29.703Z","meta":{"type":"ATTRACTION","longitude":-81.581255,"latitude":28.420169,"singleRider":false},"name":"Prince Charming Regal Carrousel","fastPass":false},{"id":"WaltDisneyWorldMagicKingdom_80010129","waitTime":null,"status":"Closed","active":false,"lastUpdate":"2021-02-08T01:01:29.226Z","meta":{"type":"ATTRACTION","longitude":-81.5789473057,"latitude":28.420509033,"singleRider":false},"fastPass":false,"name":"Dumbo the Flying Elephant"},{"id":"WaltDisneyWorldMagicKingdom_80010149","waitTime":null,"status":"Closed","active":false,"lastUpdate":"2021-02-08T01:01:30.164Z","meta":{"singleRider":false,"longitude":-81.5820392026,"latitude":28.4204816402,"type":"ATTRACTION"},"fastPass":false,"name":"\"it's a small world\""},{"id":"WaltDisneyWorldMagicKingdom_80010153","waitTime":null,"status":"Closed","active":false,"lastUpdate":"2021-02-08T01:01:30.722Z","meta":{"longitude":-81.5834393157,"singleRider":false,"latitude":28.41797818,"type":"ATTRACTION"},"fastPass":false,"name":"Jungle Cruise"},{"id":"WaltDisneyWorldMagicKingdom_80010160","waitTime":null,"status":"Closed","active":false,"lastUpdate":"2021-02-08T00:01:24.627Z","name":"Liberty Square Riverboat","fastPass":false,"meta":{"latitude":28.4195563399,"longitude":-81.5827982677,"singleRider":false,"type":"ATTRACTION"}},{"id":"WaltDisneyWorldMagicKingdom_80010162","waitTime":null,"status":"Closed","active":false,"lastUpdate":"2021-02-08T01:01:31.652Z","fastPass":false,"name":"Mad Tea Party","meta":{"singleRider":false,"type":"ATTRACTION","longitude":-81.5798248916,"latitude":28.4200230397}},{"id":"WaltDisneyWorldMagicKingdom_80010165","waitTime":null,"status":"Closed","active":false,"lastUpdate":"2021-01-03T21:24:20.300Z","name":"Main Street Vehicles - Temporarily Unavailable","meta":{"longitude":-81.5815081252,"singleRider":false,"type":"ATTRACTION","latitude":28.4168698711},"fastPass":false},{"id":"WaltDisneyWorldMagicKingdom_80010170","waitTime":null,"status":"Closed","active":false,"lastUpdate":"2021-02-08T01:01:20.465Z","fastPass":false,"name":"Mickey's PhilharMagic","meta":{"singleRider":false,"longitude":-81.5814839853,"type":"ATTRACTION","latitude":28.4200304909}},{"id":"WaltDisneyWorldMagicKingdom_80010176","waitTime":null,"status":"Closed","active":false,"lastUpdate":"2021-02-08T01:01:31.188Z","fastPass":false,"meta":{"longitude":-81.5818916811,"singleRider":false,"type":"ATTRACTION","latitude":28.4202640272},"name":"Peter Pan's Flight"},{"id":"WaltDisneyWorldMagicKingdom_80010177","waitTime":null,"status":"Closed","active":false,"lastUpdate":"2021-02-08T01:01:22.692Z","meta":{"latitude":28.41796992,"longitude":-81.5842252,"type":"ATTRACTION","singleRider":false},"name":"Pirates of the Caribbean","fastPass":false},{"id":"WaltDisneyWorldMagicKingdom_80010190","waitTime":null,"status":"Closed","active":false,"lastUpdate":"2021-02-08T01:01:27.763Z","fastPass":false,"meta":{"longitude":-81.5781962872,"latitude":28.4188341691,"type":"ATTRACTION","singleRider":false,"unsuitableForPregnantPeople":true},"name":"Space Mountain"},{"id":"WaltDisneyWorldMagicKingdom_80010192","waitTime":null,"status":"Closed","active":false,"lastUpdate":"2021-02-08T01:01:23.236Z","name":"Splash Mountain","fastPass":false,"meta":{"type":"ATTRACTION","latitude":28.419418,"longitude":-81.58498,"singleRider":false,"unsuitableForPregnantPeople":true}},{"id":"WaltDisneyWorldMagicKingdom_80010196","waitTime":null,"status":"Closed","active":false,"lastUpdate":"2021-02-08T01:01:32.152Z","name":"Swiss Family Treehouse","fastPass":false,"meta":{"latitude":28.4184325517,"longitude":-81.5827982677,"singleRider":false,"type":"ATTRACTION"}},{"id":"WaltDisneyWorldMagicKingdom_80010208","waitTime":null,"status":"Closed","active":false,"lastUpdate":"2021-02-08T01:01:19.803Z","name":"Haunted Mansion","fastPass":false,"meta":{"latitude":28.4202,"longitude":-81.58288,"type":"ATTRACTION","singleRider":false}},{"id":"WaltDisneyWorldMagicKingdom_80010210","waitTime":null,"status":"Closed","active":false,"lastUpdate":"2021-02-08T01:01:28.274Z","fastPass":false,"name":"The Magic Carpets of Aladdin","meta":{"latitude":28.41843,"singleRider":false,"type":"ATTRACTION","longitude":-81.583472}},{"id":"WaltDisneyWorldMagicKingdom_80010213","waitTime":null,"status":"Closed","active":false,"lastUpdate":"2021-02-08T01:01:23.765Z","name":"The Many Adventures of Winnie the Pooh","meta":{"singleRider":false,"type":"ATTRACTION","latitude":28.420212,"longitude":-81.580266},"fastPass":false},{"id":"WaltDisneyWorldMagicKingdom_80010220","waitTime":null,"status":"Closed","active":false,"lastUpdate":"2021-02-07T21:31:20.838Z","meta":{"longitude":-81.58428,"type":"ATTRACTION","latitude":28.419503,"singleRider":false},"name":"Tom Sawyer Island","fastPass":false},{"id":"WaltDisneyWorldMagicKingdom_80010222","waitTime":null,"status":"Closed","active":false,"lastUpdate":"2021-02-08T01:01:32.653Z","meta":{"longitude":-81.579302,"unsuitableForPregnantPeople":true,"singleRider":false,"latitude":28.419368,"type":"ATTRACTION"},"name":"Tomorrowland Speedway","fastPass":false},{"id":"WaltDisneyWorldMagicKingdom_80010224","waitTime":null,"status":"Refurbishment","active":false,"lastUpdate":"2021-01-03T21:24:19.826Z","name":"Tomorrowland Transit Authority PeopleMover - Temporarily Unavailable","fastPass":false,"meta":{"singleRider":false,"type":"ATTRACTION","longitude":-81.579033,"latitude":28.418155}},{"id":"WaltDisneyWorldMagicKingdom_80010230","waitTime":null,"status":"Refurbishment","active":false,"lastUpdate":"2021-01-03T21:23:09.088Z","meta":{"singleRider":false,"type":"ATTRACTION","latitude":28.416543,"longitude":-81.581204},"name":"Walt Disney World Railroad - Main Street, U.S.A. - Temporarily Unavailable","fastPass":false},{"id":"WaltDisneyWorldMagicKingdom_80010232","waitTime":null,"status":"Closed","active":false,"lastUpdate":"2021-02-08T00:01:24.084Z","fastPass":false,"meta":{"type":"ATTRACTION","latitude":28.4180310951,"longitude":-81.5790083064,"singleRider":false},"name":"Walt Disney's Carousel of Progress"},{"id":"WaltDisneyWorldMagicKingdom_80069748","waitTime":null,"status":"Closed","active":false,"lastUpdate":"2021-02-08T01:01:33.127Z","meta":{"type":"ATTRACTION","longitude":-81.5837222887,"singleRider":false,"latitude":28.4187861348},"name":"Country Bear Jamboree","fastPass":false},{"id":"WaltDisneyWorldMagicKingdom_80069754","waitTime":null,"status":"Refurbishment","active":false,"lastUpdate":"2021-01-21T05:00:35.597Z","fastPass":false,"meta":{"singleRider":false,"type":"ATTRACTION","latitude":28.4194484171,"longitude":-81.5823248578},"name":"The Hall of Presidents"},{"id":"WaltDisneyWorldMagicKingdom_90001815","waitTime":null,"status":"Closed","active":false,"lastUpdate":"2021-02-02T05:00:59.870Z","name":"Liberty Square Market - Temporarily Unavailable","meta":{"latitude":28.4195299,"longitude":-81.5825378,"type":"RESTAURANT","singleRider":false},"fastPass":false},{"id":"WaltDisneyWorldMagicKingdom_90001819","waitTime":null,"status":"Operating","active":true,"lastUpdate":"2021-02-08T00:56:12.688Z","meta":{"singleRider":false,"longitude":-81.5826159743,"latitude":28.4191196055,"type":"RESTAURANT"},"fastPass":false,"name":"Liberty Tree Tavern"},{"id":"WaltDisneyWorldMagicKingdom_90002464","waitTime":null,"status":"Operating","active":true,"lastUpdate":"2021-02-06T17:02:04.468Z","name":"Cinderella's Royal Table","meta":{"singleRider":false,"type":"RESTAURANT","longitude":-81.581101,"latitude":28.4195},"fastPass":false},{"id":"WaltDisneyWorldMagicKingdom_90002660","waitTime":null,"status":"Operating","active":true,"lastUpdate":"2021-02-07T23:55:49.088Z","name":"The Crystal Palace","fastPass":false,"meta":{"type":"RESTAURANT","singleRider":false,"longitude":-81.5818970259,"latitude":28.4181214892}},{"id":"WaltDisneyWorldMagicKingdom_90002670","waitTime":null,"status":"Operating","active":true,"lastUpdate":"2021-02-07T23:41:43.584Z","name":"The Plaza Restaurant","meta":{"type":"RESTAURANT","longitude":-81.5809394969,"singleRider":false,"latitude":28.4180247703},"fastPass":false},{"id":"WaltDisneyWorldMagicKingdom_90002678","waitTime":null,"status":"Operating","active":true,"lastUpdate":"2021-02-07T23:57:01.258Z","name":"Tony's Town Square Restaurant","fastPass":false,"meta":{"longitude":-81.5807276023,"type":"RESTAURANT","singleRider":false,"latitude":28.4169323426}},{"id":"WaltDisneyWorldEpcot_107785","waitTime":5,"status":"Operating","active":true,"lastUpdate":"2021-02-08T01:00:23.685Z","name":"The Seas with Nemo & Friends","meta":{"longitude":-81.550852,"type":"ATTRACTION","singleRider":false,"latitude":28.374904},"fastPass":false},{"id":"WaltDisneyWorldEpcot_15525573","waitTime":null,"status":"Operating","active":true,"lastUpdate":"2021-02-07T23:11:39.289Z","name":"La Hacienda de San Angel","meta":{"type":"RESTAURANT","longitude":-81.547532,"singleRider":false,"latitude":28.371221},"fastPass":false},{"id":"WaltDisneyWorldEpcot_17564219","waitTime":null,"status":"Closed","active":false,"lastUpdate":"2020-09-15T11:33:07.103Z","meta":{"latitude":28.37097,"longitude":-81.547134,"singleRider":false},"fastPass":false,"name":"Meet Anna and Elsa at Royal Sommerhus - Temporarily Unavailable"},{"id":"WaltDisneyWorldEpcot_17720675","waitTime":5,"status":"Operating","active":true,"lastUpdate":"2021-02-08T00:16:46.411Z","meta":{"singleRider":false,"type":"RESTAURANT","longitude":-81.551645,"latitude":28.368468},"name":"Spice Road Table","fastPass":false},{"id":"WaltDisneyWorldEpcot_18269694","waitTime":null,"status":"Operating","active":true,"lastUpdate":"2021-02-07T16:01:17.825Z","fastPass":false,"name":"Disney and Pixar Short Film Festival","meta":{"latitude":28.37263,"singleRider":false,"longitude":-81.55115,"type":"ATTRACTION"}},{"id":"WaltDisneyWorldEpcot_18375495","waitTime":15,"status":"Operating","active":true,"lastUpdate":"2021-02-08T01:10:19.936Z","name":"Frozen Ever After","meta":{"type":"ATTRACTION","latitude":28.370745,"longitude":-81.54653,"singleRider":false},"fastPass":false},{"id":"WaltDisneyWorldEpcot_19463785","waitTime":null,"status":"Closed","active":false,"lastUpdate":"2021-02-07T23:01:18.931Z","meta":{"latitude":28.368864,"type":"ATTRACTION","longitude":-81.552978,"singleRider":false},"name":"Beauty and the Beast Sing-Along","fastPass":false},{"id":"WaltDisneyWorldEpcot_19473173","waitTime":null,"status":"Operating","active":true,"lastUpdate":"2021-02-07T16:01:19.187Z","meta":{"longitude":-81.552138,"singleRider":false,"type":"ATTRACTION","latitude":28.374301},"name":"Awesome Planet","fastPass":false},{"id":"WaltDisneyWorldEpcot_20194","waitTime":45,"status":"Operating","active":true,"lastUpdate":"2021-02-08T01:18:25.491Z","meta":{"longitude":-81.552248,"latitude":28.373592,"singleRider":false,"type":"ATTRACTION"},"name":"Soarin' Around the World","fastPass":false},{"id":"WaltDisneyWorldEpcot_207395","waitTime":5,"status":"Operating","active":true,"lastUpdate":"2021-02-07T16:25:22.423Z","name":"Gran Fiesta Tour Starring The Three Caballeros","fastPass":false,"meta":{"longitude":-81.547368,"type":"ATTRACTION","latitude":28.371649,"singleRider":false}},{"id":"WaltDisneyWorldEpcot_62992","waitTime":null,"status":"Closed","active":false,"lastUpdate":"2021-01-03T21:23:09.564Z","fastPass":false,"name":"Turtle Talk With Crush - Temporarily Unavailable","meta":{"longitude":-81.551047,"singleRider":false,"type":"ATTRACTION","latitude":28.375255}},{"id":"WaltDisneyWorldEpcot_80010145","waitTime":null,"status":"Operating","active":true,"lastUpdate":"2021-02-07T23:31:19.622Z","name":"Impressions de France","meta":{"singleRider":false,"type":"ATTRACTION","latitude":28.368864,"longitude":-81.552978},"fastPass":false},{"id":"WaltDisneyWorldEpcot_80010152","waitTime":5,"status":"Operating","active":true,"lastUpdate":"2021-02-08T01:00:23.112Z","name":"Journey Into Imagination With Figment","meta":{"longitude":-81.551401,"singleRider":false,"type":"ATTRACTION","latitude":28.372994},"fastPass":false},{"id":"WaltDisneyWorldEpcot_80010161","waitTime":5,"status":"Operating","active":true,"lastUpdate":"2021-02-08T01:00:24.437Z","meta":{"singleRider":false,"latitude":28.374245,"longitude":-81.552301,"type":"ATTRACTION"},"fastPass":false,"name":"Living with the Land"},{"id":"WaltDisneyWorldEpcot_80010173","waitTime":20,"status":"Operating","active":true,"lastUpdate":"2021-02-07T19:09:22.934Z","fastPass":false,"name":"Mission: SPACE","meta":{"singleRider":false,"latitude":28.373927,"longitude":-81.547156,"type":"ATTRACTION","unsuitableForPregnantPeople":true}},{"id":"WaltDisneyWorldEpcot_80010174","waitTime":null,"status":"Operating","active":true,"lastUpdate":"2021-02-07T16:01:16.397Z","fastPass":false,"name":"Canada Far and Wide in Circle-Vision 360","meta":{"latitude":28.371694,"longitude":-81.55196,"singleRider":false,"type":"ATTRACTION"}},{"id":"WaltDisneyWorldEpcot_80010180","waitTime":null,"status":"Operating","active":true,"lastUpdate":"2021-02-07T16:01:25.297Z","meta":{"type":"ATTRACTION","latitude":28.369791,"singleRider":false,"longitude":-81.546381},"name":"Reflections of China","fastPass":false},{"id":"WaltDisneyWorldEpcot_80010191","waitTime":5,"status":"Operating","active":true,"lastUpdate":"2021-02-07T22:48:22.800Z","fastPass":false,"name":"Spaceship Earth","meta":{"latitude":28.375583,"type":"ATTRACTION","longitude":-81.549401,"singleRider":false}},{"id":"WaltDisneyWorldEpcot_80010199","waitTime":40,"status":"Operating","active":true,"lastUpdate":"2021-02-07T22:20:20.179Z","fastPass":false,"name":"Test Track","meta":{"longitude":-81.547489,"latitude":28.373228,"type":"ATTRACTION","singleRider":true,"unsuitableForPregnantPeople":true}},{"id":"WaltDisneyWorldEpcot_80010200","waitTime":null,"status":"Operating","active":true,"lastUpdate":"2021-02-07T16:01:22.141Z","fastPass":false,"name":"The American Adventure","meta":{"singleRider":false,"longitude":-81.549446,"latitude":28.367517,"type":"ATTRACTION"}},{"id":"WaltDisneyWorldEpcot_90001292","waitTime":null,"status":"Operating","active":true,"lastUpdate":"2021-02-08T00:56:13.344Z","fastPass":false,"meta":{"singleRider":false,"type":"RESTAURANT","longitude":-81.546819,"latitude":28.368153},"name":"Biergarten Restaurant"},{"id":"WaltDisneyWorldEpcot_90001416","waitTime":null,"status":"Operating","active":true,"lastUpdate":"2021-02-08T00:56:13.887Z","meta":{"type":"RESTAURANT","longitude":-81.550458,"singleRider":false,"latitude":28.375096},"fastPass":false,"name":"Coral Reef Restaurant"},{"id":"WaltDisneyWorldEpcot_90001798","waitTime":30,"status":"Operating","active":true,"lastUpdate":"2021-02-08T01:20:27.107Z","meta":{"longitude":-81.551512,"singleRider":false,"latitude":28.371657,"type":"RESTAURANT"},"fastPass":false,"name":"Le Cellier Steakhouse"},{"id":"WaltDisneyWorldEpcot_90002084","waitTime":null,"status":"Operating","active":true,"lastUpdate":"2021-02-07T22:34:20.991Z","name":"Rose & Crown Dining Room","meta":{"longitude":-81.551684,"type":"RESTAURANT","singleRider":false,"latitude":28.370508},"fastPass":false},{"id":"WaltDisneyWorldEpcot_90002100","waitTime":null,"status":"Operating","active":true,"lastUpdate":"2021-02-07T19:53:42.870Z","fastPass":false,"name":"San Angel Inn Restaurante    ","meta":{"longitude":-81.547258,"singleRider":false,"type":"RESTAURANT","latitude":28.371612}},{"id":"WaltDisneyWorldEpcot_90002237","waitTime":null,"status":"Operating","active":true,"lastUpdate":"2021-02-08T00:46:45.455Z","fastPass":false,"meta":{"longitude":-81.552324,"singleRider":false,"type":"RESTAURANT","latitude":28.374039},"name":"Garden Grill Restaurant"},{"id":"WaltDisneyWorldHollywoodStudios_136","waitTime":null,"status":"Closed","active":false,"lastUpdate":"2020-09-15T11:33:12.086Z","fastPass":false,"meta":{"longitude":-81.5586114479,"singleRider":false,"latitude":28.3566700675},"name":"Indiana Jones™ Epic Stunt Spectacular! - Temporarily Unavailable"},{"id":"WaltDisneyWorldHollywoodStudios_17842841","waitTime":null,"status":"Closed","active":false,"lastUpdate":"2020-09-15T11:33:12.046Z","fastPass":false,"meta":{"latitude":28.3568243464,"singleRider":false,"longitude":-81.5596944094},"name":"For the First Time in Forever: A Frozen Sing-Along Celebration - Temporarily Unavailable"},{"id":"WaltDisneyWorldHollywoodStudios_18189394","waitTime":null,"status":"Closed","active":false,"lastUpdate":"2020-09-15T11:33:12.077Z","meta":{"longitude":-81.560938,"latitude":28.35796,"singleRider":false},"name":"Star Wars Launch Bay: Meet Chewbacca - Temporarily Unavailable","fastPass":false},{"id":"WaltDisneyWorldHollywoodStudios_18189398","waitTime":null,"status":"Closed","active":false,"lastUpdate":"2020-09-15T11:33:12.069Z","meta":{"singleRider":false,"latitude":28.35796,"longitude":-81.560938},"fastPass":false,"name":"Star Wars Launch Bay: Encounter Darth Vader - Temporarily Unavailable"},{"id":"WaltDisneyWorldHollywoodStudios_18360041","waitTime":null,"status":"Closed","active":false,"lastUpdate":"2021-01-03T21:23:31.878Z","fastPass":false,"meta":{"longitude":-81.561061,"type":"ATTRACTION","singleRider":false,"latitude":28.357821},"name":"Star Wars Launch Bay Theater - Temporarily Unavailable"},{"id":"WaltDisneyWorldHollywoodStudios_18368385","waitTime":null,"status":"Closed","active":false,"lastUpdate":"2020-09-15T11:33:12.104Z","name":"Celebrity Spotlight - Temporarily Unavailable","fastPass":false,"meta":{"latitude":28.356072,"singleRider":false,"longitude":-81.559158}},{"id":"WaltDisneyWorldHollywoodStudios_18368386","waitTime":null,"status":"Closed","active":false,"lastUpdate":"2020-09-15T11:33:12.095Z","name":"Mickey and Minnie Starring in Red Carpet Dreams - Temporarily Unavailable","meta":{"longitude":-81.559479,"singleRider":false,"latitude":28.356068},"fastPass":false},{"id":"WaltDisneyWorldHollywoodStudios_18669338","waitTime":null,"status":"Closed","active":false,"lastUpdate":"2020-09-15T11:33:12.121Z","fastPass":false,"meta":{"latitude":28.35796,"longitude":-81.560938,"singleRider":false},"name":"BB-8 Astromech on Duty - Temporarily Unavailable"},{"id":"WaltDisneyWorldHollywoodStudios_18770880","waitTime":null,"status":"Closed","active":false,"lastUpdate":"2021-02-07T23:01:22.365Z","fastPass":false,"name":"Walt Disney Presents","meta":{"singleRider":false,"longitude":-81.560982,"type":"ATTRACTION","latitude":28.35686}},{"id":"WaltDisneyWorldHollywoodStudios_18904138","waitTime":null,"status":"Closed","active":false,"lastUpdate":"2021-02-08T00:01:21.418Z","name":"Slinky Dog Dash","meta":{"unsuitableForPregnantPeople":true,"longitude":-81.562786,"latitude":28.356245,"singleRider":false,"type":"ATTRACTION"},"fastPass":false},{"id":"WaltDisneyWorldHollywoodStudios_18904172","waitTime":null,"status":"Closed","active":false,"lastUpdate":"2021-02-08T00:01:22.035Z","meta":{"type":"ATTRACTION","latitude":28.355385,"singleRider":false,"longitude":-81.562379},"fastPass":false,"name":"Alien Swirling Saucers"},{"id":"WaltDisneyWorldHollywoodStudios_19025682","waitTime":null,"status":"Operating","active":true,"lastUpdate":"2020-09-15T14:02:51.117Z","fastPass":false,"name":"Star Wars: Galaxy's Edge","meta":{"latitude":28.355234,"singleRider":false,"longitude":-81.559787}},{"id":"WaltDisneyWorldHollywoodStudios_19152250","waitTime":null,"status":"Closed","active":false,"lastUpdate":"2020-09-15T11:33:12.147Z","meta":{"singleRider":false,"longitude":-81.560984,"latitude":28.356865},"fastPass":false,"name":"Meet Sulley at Walt Disney Presents - Temporarily Unavailable"},{"id":"WaltDisneyWorldHollywoodStudios_19259335","waitTime":null,"status":"Closed","active":false,"lastUpdate":"2021-02-08T00:01:19.408Z","meta":{"type":"ATTRACTION","longitude":-81.5605667783,"singleRider":false,"latitude":28.3566783801},"fastPass":false,"name":"Mickey & Minnie's Runaway Railway"},{"id":"WaltDisneyWorldHollywoodStudios_19263735","waitTime":null,"status":"Closed","active":false,"lastUpdate":"2021-02-08T00:01:22.550Z","name":"Millennium Falcon: Smugglers Run","fastPass":false,"meta":{"latitude":28.353889,"unsuitableForPregnantPeople":true,"longitude":-81.561689,"type":"ATTRACTION","singleRider":true}},{"id":"WaltDisneyWorldHollywoodStudios_19263736","waitTime":null,"status":"Closed","active":false,"lastUpdate":"2021-02-08T00:00:22.661Z","fastPass":false,"meta":{"singleRider":false,"unsuitableForPregnantPeople":true,"longitude":-81.560457,"type":"ATTRACTION","latitude":28.354884},"name":"Star Wars: Rise of the Resistance"},{"id":"WaltDisneyWorldHollywoodStudios_19267226","waitTime":null,"status":"Closed","active":false,"lastUpdate":"2021-01-30T21:13:32.709Z","fastPass":false,"meta":{"longitude":-81.562075,"latitude":28.354095,"singleRider":false,"type":"RESTAURANT"},"name":"Oga's Cantina at the Walt Disney World Resort"},{"id":"WaltDisneyWorldHollywoodStudios_19276204","waitTime":null,"status":"Closed","active":false,"lastUpdate":"2021-02-07T23:01:24.031Z","name":"Lightning McQueen's Racing Academy","meta":{"latitude":28.360035,"singleRider":false,"longitude":-81.560707,"type":"ATTRACTION"},"fastPass":false},{"id":"WaltDisneyWorldHollywoodStudios_19497952","waitTime":null,"status":"Closed","active":false,"lastUpdate":"2021-02-07T23:01:23.233Z","name":"Vacation Fun - An Original Animated Short with Mickey & Minnie","meta":{"type":"ATTRACTION","latitude":28.356316,"singleRider":false,"longitude":-81.559031},"fastPass":false},{"id":"WaltDisneyWorldHollywoodStudios_19582977","waitTime":null,"status":"Closed","active":false,"lastUpdate":"2020-09-15T11:33:12.211Z","name":"Disney Society Orchestra and Friends","fastPass":false,"meta":{"singleRider":false,"longitude":-81.5595985008,"latitude":28.3589162565}},{"id":"WaltDisneyWorldHollywoodStudios_19583373","waitTime":null,"status":"Closed","active":false,"lastUpdate":"2020-09-15T11:33:12.219Z","name":"Disney Junior Play and Dance!","fastPass":false,"meta":{"longitude":-81.560567,"latitude":28.357613,"singleRider":false}},{"id":"WaltDisneyWorldHollywoodStudios_202731","waitTime":null,"status":"Closed","active":false,"lastUpdate":"2020-09-15T11:33:12.226Z","name":"Disney Junior Dance Party! - Temporarily Unavailable","meta":{"latitude":28.357613,"longitude":-81.560567,"singleRider":false},"fastPass":false},{"id":"WaltDisneyWorldHollywoodStudios_209857","waitTime":null,"status":"Closed","active":false,"lastUpdate":"2021-02-08T00:01:23.576Z","meta":{"singleRider":false,"type":"ATTRACTION","latitude":28.356404,"longitude":-81.561894},"name":"Toy Story Mania!","fastPass":false},{"id":"WaltDisneyWorldHollywoodStudios_80010151","waitTime":null,"status":"Closed","active":false,"lastUpdate":"2021-02-07T23:01:19.460Z","fastPass":false,"name":"Muppet*Vision 3D","meta":{"singleRider":false,"latitude":28.3550644708,"longitude":-81.5594643904,"type":"ATTRACTION"}},{"id":"WaltDisneyWorldHollywoodStudios_80010182","waitTime":null,"status":"Closed","active":false,"lastUpdate":"2021-02-08T00:01:20.005Z","meta":{"type":"ATTRACTION","singleRider":true,"longitude":-81.56059,"unsuitableForPregnantPeople":true,"latitude":28.359712},"fastPass":false,"name":"Rock 'n' Roller Coaster Starring Aerosmith"},{"id":"WaltDisneyWorldHollywoodStudios_80010193","waitTime":null,"status":"Closed","active":false,"lastUpdate":"2021-02-08T00:01:20.620Z","fastPass":false,"meta":{"latitude":28.355695,"type":"ATTRACTION","singleRider":false,"unsuitableForPregnantPeople":true,"longitude":-81.558891},"name":"Star Tours – The Adventures Continue"},{"id":"WaltDisneyWorldHollywoodStudios_80010218","waitTime":null,"status":"Closed","active":false,"lastUpdate":"2021-02-08T00:01:23.064Z","meta":{"longitude":-81.559772,"unsuitableForPregnantPeople":true,"singleRider":false,"latitude":28.359553,"type":"ATTRACTION"},"name":"The Twilight Zone Tower of Terror™","fastPass":false},{"id":"WaltDisneyWorldHollywoodStudios_80010848","waitTime":null,"status":"Closed","active":false,"lastUpdate":"2020-09-15T11:33:12.284Z","fastPass":false,"name":"Beauty and the Beast-Live on Stage - Temporarily Unavailable","meta":{"longitude":-81.5595985008,"latitude":28.3589162565,"singleRider":false}},{"id":"WaltDisneyWorldHollywoodStudios_80010896","waitTime":null,"status":"Closed","active":false,"lastUpdate":"2020-09-15T11:33:12.290Z","fastPass":false,"name":"Voyage of The Little Mermaid - Temporarily Unavailable","meta":{"longitude":-81.5608484102,"latitude":28.3574862147,"singleRider":false}},{"id":"WaltDisneyWorldHollywoodStudios_90001216","waitTime":null,"status":"Operating","active":true,"lastUpdate":"2021-02-03T22:32:50.327Z","name":"50's Prime Time Café","meta":{"latitude":28.357444,"longitude":-81.558881,"type":"RESTAURANT","singleRider":false},"fastPass":false},{"id":"WaltDisneyWorldHollywoodStudios_90001744","waitTime":null,"status":"Closed","active":false,"lastUpdate":"2021-01-30T21:13:33.319Z","fastPass":false,"name":"Hollywood & Vine","meta":{"longitude":-81.558975,"singleRider":false,"type":"RESTAURANT","latitude":28.357611}},{"id":"WaltDisneyWorldHollywoodStudios_90001865","waitTime":null,"status":"Operating","active":true,"lastUpdate":"2021-02-07T23:58:15.903Z","name":"Mama Melrose's Ristorante Italiano","meta":{"type":"RESTAURANT","latitude":28.354532,"longitude":-81.559012,"singleRider":false},"fastPass":false},{"id":"WaltDisneyWorldHollywoodStudios_90002114","waitTime":null,"status":"Operating","active":true,"lastUpdate":"2021-02-05T23:36:26.406Z","fastPass":false,"meta":{"singleRider":false,"longitude":-81.559495,"latitude":28.3559,"type":"RESTAURANT"},"name":"Sci-Fi Dine-In Theater Restaurant"},{"id":"WaltDisneyWorldHollywoodStudios_90002245","waitTime":null,"status":"Operating","active":true,"lastUpdate":"2021-02-07T23:56:12.055Z","fastPass":false,"name":"The Hollywood Brown Derby","meta":{"singleRider":false,"type":"RESTAURANT","latitude":28.357648,"longitude":-81.560297}},{"id":"WaltDisneyWorldAnimalKingdom_17421326","waitTime":null,"status":"Closed","active":false,"lastUpdate":"2020-09-15T11:33:02.632Z","name":"Meet Favorite Disney Pals at Adventurers Outpost - Temporarily Unavailable","fastPass":false,"meta":{"longitude":-81.589796,"singleRider":false,"latitude":28.357972}},{"id":"WaltDisneyWorldAnimalKingdom_18069632","waitTime":null,"status":"Operating","active":true,"lastUpdate":"2021-02-07T22:09:29.246Z","name":"Tiffins Restaurant","meta":{"longitude":-81.591487,"singleRider":false,"type":"RESTAURANT","latitude":28.356846},"fastPass":false},{"id":"WaltDisneyWorldAnimalKingdom_18377778","waitTime":null,"status":"Operating","active":true,"lastUpdate":"2021-02-07T21:55:04.407Z","meta":{"longitude":-81.591487,"singleRider":false,"type":"RESTAURANT","latitude":28.356719},"fastPass":false,"name":"Nomad Lounge"},{"id":"WaltDisneyWorldAnimalKingdom_18665185","waitTime":null,"status":"Closed","active":false,"lastUpdate":"2021-02-07T22:01:22.138Z","meta":{"longitude":-81.591641,"type":"ATTRACTION","latitude":28.355257,"singleRider":false},"fastPass":false,"name":"Na'vi River Journey"},{"id":"WaltDisneyWorldAnimalKingdom_18665186","waitTime":null,"status":"Closed","active":false,"lastUpdate":"2021-02-07T22:01:22.671Z","name":"Avatar Flight of Passage","meta":{"singleRider":false,"longitude":-81.592147,"latitude":28.355554,"unsuitableForPregnantPeople":true,"type":"ATTRACTION"},"fastPass":false},{"id":"WaltDisneyWorldAnimalKingdom_19330300","waitTime":null,"status":"Closed","active":false,"lastUpdate":"2021-02-07T22:10:20.899Z","fastPass":false,"name":"The Animation Experience at Conservation Station","meta":{"type":"ATTRACTION","latitude":28.365188,"singleRider":false,"longitude":-81.588669}},{"id":"WaltDisneyWorldAnimalKingdom_26068","waitTime":null,"status":"Closed","active":false,"lastUpdate":"2021-02-07T22:01:23.275Z","name":"Expedition Everest - Legend of the Forbidden Mountain","fastPass":false,"meta":{"latitude":28.3584769119,"unsuitableForPregnantPeople":true,"type":"ATTRACTION","singleRider":false,"longitude":-81.5873781396}},{"id":"WaltDisneyWorldAnimalKingdom_80010123","waitTime":null,"status":"Closed","active":false,"lastUpdate":"2021-02-07T22:01:17.720Z","fastPass":false,"name":"DINOSAUR","meta":{"latitude":28.355307,"singleRider":false,"unsuitableForPregnantPeople":true,"type":"ATTRACTION","longitude":-81.588444}},{"id":"WaltDisneyWorldAnimalKingdom_80010150","waitTime":null,"status":"Closed","active":false,"lastUpdate":"2021-02-07T22:01:23.846Z","name":"It's Tough to be a Bug!","fastPass":false,"meta":{"longitude":-81.590118,"latitude":28.357488,"type":"ATTRACTION","singleRider":false}},{"id":"WaltDisneyWorldAnimalKingdom_80010154","waitTime":null,"status":"Refurbishment","active":false,"lastUpdate":"2021-01-04T05:02:16.994Z","name":"Kali River Rapids","fastPass":false,"meta":{"type":"ATTRACTION","singleRider":false,"longitude":-81.5889412165,"latitude":28.3587834288,"unsuitableForPregnantPeople":true}},{"id":"WaltDisneyWorldAnimalKingdom_80010157","waitTime":null,"status":"Closed","active":false,"lastUpdate":"2021-02-07T22:01:18.437Z","fastPass":false,"name":"Kilimanjaro Safaris","meta":{"unsuitableForPregnantPeople":true,"longitude":-81.59228,"type":"ATTRACTION","latitude":28.359331,"singleRider":false}},{"id":"WaltDisneyWorldAnimalKingdom_80010164","waitTime":null,"status":"Closed","active":false,"lastUpdate":"2021-02-07T22:01:21.614Z","meta":{"latitude":28.359379,"type":"ATTRACTION","longitude":-81.589019,"singleRider":false},"fastPass":false,"name":"Maharajah Jungle Trek"},{"id":"WaltDisneyWorldAnimalKingdom_80010175","waitTime":null,"status":"Closed","active":false,"lastUpdate":"2021-02-07T21:31:21.924Z","name":"Gorilla Falls Exploration Trail","meta":{"singleRider":false,"type":"ATTRACTION","latitude":28.359954,"longitude":-81.592149},"fastPass":false},{"id":"WaltDisneyWorldAnimalKingdom_80010203","waitTime":null,"status":"Closed","active":false,"lastUpdate":"2021-01-03T21:23:41.107Z","fastPass":false,"meta":{"longitude":-81.5884791864,"singleRider":false,"type":"ATTRACTION","latitude":28.3566787564},"name":"The Boneyard - Temporarily Unavailable"},{"id":"WaltDisneyWorldAnimalKingdom_80010228","waitTime":null,"status":"Closed","active":false,"lastUpdate":"2021-02-07T22:01:24.410Z","name":"TriceraTop Spin","fastPass":false,"meta":{"singleRider":false,"type":"ATTRACTION","latitude":28.356503,"longitude":-81.588074}},{"id":"WaltDisneyWorldAnimalKingdom_80010235","waitTime":null,"status":"Closed","active":false,"lastUpdate":"2021-02-07T21:31:21.387Z","name":"Wildlife Express Train","meta":{"latitude":28.3598097347,"type":"ATTRACTION","longitude":-81.5914175464,"singleRider":false},"fastPass":false},{"id":"WaltDisneyWorldMagicKingdom_136550","waitTime":null,"status":"Closed","active":false,"lastUpdate":"2021-01-03T21:24:21.706Z","name":"Monsters, Inc. Laugh Floor - Temporarily Unavailable","meta":{"longitude":-81.5797358751,"singleRider":false,"type":"ATTRACTION","latitude":28.4183977566},"fastPass":false},{"id":"WaltDisneyWorldMagicKingdom_15743682","waitTime":null,"status":"Closed","active":false,"lastUpdate":"2020-09-15T11:33:17.406Z","fastPass":false,"name":"Meet Dashing Disney Pals as Circus Stars at Pete’s Silly Side Show - Temporarily Unavailable","meta":{"longitude":-81.578932,"latitude":28.421282,"singleRider":false}},{"id":"WaltDisneyWorldMagicKingdom_15850196","waitTime":null,"status":"Closed","active":false,"lastUpdate":"2020-09-15T11:33:17.374Z","meta":{"longitude":-81.580746,"singleRider":false,"latitude":28.416727},"name":"Meet Mickey Mouse at Town Square Theater - Temporarily Unavailable","fastPass":false},{"id":"WaltDisneyWorldMagicKingdom_16124144","waitTime":null,"status":"Closed","active":false,"lastUpdate":"2021-02-08T01:01:21.103Z","fastPass":false,"meta":{"singleRider":false,"type":"ATTRACTION","longitude":-81.583738382,"latitude":28.4182264646},"name":"Walt Disney's Enchanted Tiki Room"},{"id":"WaltDisneyWorldMagicKingdom_16414579","waitTime":null,"status":"Closed","active":false,"lastUpdate":"2021-01-24T23:00:36.558Z","name":"Sorcerers of the Magic Kingdom","fastPass":false,"meta":{"latitude":28.416944,"longitude":-81.58163,"singleRider":false,"type":"ATTRACTION"}},{"id":"WaltDisneyWorldMagicKingdom_16491297","waitTime":null,"status":"Closed","active":false,"lastUpdate":"2021-02-08T01:01:26.326Z","meta":{"singleRider":false,"type":"ATTRACTION","longitude":-81.5783907473,"latitude":28.4207661576,"unsuitableForPregnantPeople":true},"fastPass":false,"name":"The Barnstormer"},{"id":"WaltDisneyWorldMagicKingdom_16491299","waitTime":null,"status":"Refurbishment","active":false,"lastUpdate":"2021-01-03T21:24:18.928Z","meta":{"longitude":-81.578368,"singleRider":false,"type":"ATTRACTION","latitude":28.420934},"name":"Walt Disney World Railroad - Fantasyland - Temporarily Unavailable","fastPass":false},{"id":"WaltDisneyWorldMagicKingdom_16660079","waitTime":null,"status":"Operating","active":true,"lastUpdate":"2021-02-08T00:55:45.656Z","name":"Be Our Guest Restaurant","fastPass":false,"meta":{"type":"RESTAURANT","latitude":28.4212491492,"longitude":-81.5807074858,"singleRider":false}},{"id":"WaltDisneyWorldMagicKingdom_16767263","waitTime":null,"status":"Closed","active":false,"lastUpdate":"2021-02-08T01:01:21.647Z","fastPass":false,"meta":{"longitude":-81.5799752427,"singleRider":false,"latitude":28.4211203226,"type":"ATTRACTION"},"name":"Under the Sea ~ Journey of The Little Mermaid"},{"id":"WaltDisneyWorldMagicKingdom_16767276","waitTime":null,"status":"Closed","active":false,"lastUpdate":"2021-01-03T21:24:20.764Z","name":"Enchanted Tales with Belle - Temporarily Unavailable","meta":{"latitude":28.42099058,"singleRider":false,"longitude":-81.58093011,"type":"ATTRACTION"},"fastPass":false},{"id":"WaltDisneyWorldMagicKingdom_16767284","waitTime":null,"status":"Closed","active":false,"lastUpdate":"2021-02-08T01:01:26.813Z","meta":{"latitude":28.42037,"longitude":-81.58031,"unsuitableForPregnantPeople":true,"singleRider":false,"type":"ATTRACTION"},"name":"Seven Dwarfs Mine Train","fastPass":false},{"id":"WaltDisneyWorldMagicKingdom_16874126","waitTime":null,"status":"Closed","active":false,"lastUpdate":"2020-09-15T11:33:17.441Z","meta":{"latitude":28.420893275289,"longitude":-81.579613144497,"singleRider":false},"name":"Meet Ariel at Her Grotto - Temporarily Unavailable","fastPass":false},{"id":"WaltDisneyWorldMagicKingdom_17272158","waitTime":null,"status":"Closed","active":false,"lastUpdate":"2021-01-03T21:24:21.210Z","name":"A Pirate's Adventure ~ Treasures of the Seven Seas - Temporarily Unavailable","meta":{"type":"ATTRACTION","latitude":28.41837254,"longitude":-81.58466913,"singleRider":false},"fastPass":false},{"id":"WaltDisneyWorldMagicKingdom_17505397","waitTime":null,"status":"Closed","active":false,"lastUpdate":"2020-09-15T11:33:17.486Z","meta":{"longitude":-81.580917439677,"latitude":28.420045752669,"singleRider":false},"name":"Meet Rapunzel and Tiana at Princess Fairytale Hall - Temporarily Unavailable","fastPass":false},{"id":"WaltDisneyWorldMagicKingdom_17752793","waitTime":null,"status":"Closed","active":false,"lastUpdate":"2020-09-15T11:33:17.444Z","fastPass":false,"meta":{"longitude":-81.580815,"singleRider":false,"latitude":28.416727},"name":"Meet Tinker Bell at Town Square Theater - Temporarily Unavailable"},{"id":"WaltDisneyWorldMagicKingdom_18185631","waitTime":null,"status":"Operating","active":true,"lastUpdate":"2021-02-07T23:51:36.555Z","fastPass":false,"name":"Jungle Navigation Co. LTD Skipper Canteen","meta":{"longitude":-81.582592,"type":"RESTAURANT","latitude":28.418491,"singleRider":false}},{"id":"WaltDisneyWorldMagicKingdom_18498503","waitTime":null,"status":"Closed","active":false,"lastUpdate":"2020-09-15T11:33:17.494Z","fastPass":false,"meta":{"latitude":28.420012,"singleRider":false,"longitude":-81.58094},"name":"Meet Cinderella and Elena at Princess Fairytale Hall - Temporarily Unavailable"},{"id":"WaltDisneyWorldMagicKingdom_2219610","waitTime":null,"status":"Refurbishment","active":false,"lastUpdate":"2021-01-03T21:23:08.615Z","meta":{"singleRider":false,"longitude":-81.585078,"type":"ATTRACTION","latitude":28.41969},"fastPass":false,"name":"Walt Disney World Railroad - Frontierland - Temporarily Unavailable"},{"id":"WaltDisneyWorldMagicKingdom_387133","waitTime":null,"status":"Closed","active":false,"lastUpdate":"2020-09-15T11:33:17.492Z","fastPass":false,"name":"Meet Daring Disney Pals as Circus Stars at Pete's Silly Side Show - Temporarily Unavailable","meta":{"singleRider":false,"longitude":-81.578932,"latitude":28.421282}},{"id":"WaltDisneyWorldMagicKingdom_80010107","waitTime":null,"status":"Closed","active":false,"lastUpdate":"2021-02-08T01:01:28.767Z","name":"Astro Orbiter","fastPass":false,"meta":{"longitude":-81.5789887902,"latitude":28.4184926179,"type":"ATTRACTION","singleRider":false}},{"id":"WaltDisneyWorldMagicKingdom_80010110","waitTime":null,"status":"Closed","active":false,"lastUpdate":"2021-02-08T01:01:22.176Z","fastPass":false,"meta":{"unsuitableForPregnantPeople":true,"type":"ATTRACTION","longitude":-81.5846422864,"singleRider":false,"latitude":28.4199638504},"name":"Big Thunder Mountain Railroad"},{"id":"WaltDisneyWorldMagicKingdom_80010114","waitTime":null,"status":"Closed","active":false,"lastUpdate":"2021-02-08T01:01:27.283Z","name":"Buzz Lightyear's Space Ranger Spin","fastPass":false,"meta":{"singleRider":false,"longitude":-81.5794086456,"type":"ATTRACTION","latitude":28.4182868839}},{"id":"WaltDisneyWorldMagicKingdom_80010117","waitTime":null,"status":"Closed","active":false,"lastUpdate":"2021-02-08T01:01:29.703Z","meta":{"type":"ATTRACTION","longitude":-81.581255,"latitude":28.420169,"singleRider":false},"name":"Prince Charming Regal Carrousel","fastPass":false},{"id":"WaltDisneyWorldMagicKingdom_80010129","waitTime":null,"status":"Closed","active":false,"lastUpdate":"2021-02-08T01:01:29.226Z","meta":{"type":"ATTRACTION","longitude":-81.5789473057,"latitude":28.420509033,"singleRider":false},"fastPass":false,"name":"Dumbo the Flying Elephant"},{"id":"WaltDisneyWorldMagicKingdom_80010149","waitTime":null,"status":"Closed","active":false,"lastUpdate":"2021-02-08T01:01:30.164Z","meta":{"singleRider":false,"longitude":-81.5820392026,"latitude":28.4204816402,"type":"ATTRACTION"},"fastPass":false,"name":"\"it's a small world\""},{"id":"WaltDisneyWorldMagicKingdom_80010153","waitTime":null,"status":"Closed","active":false,"lastUpdate":"2021-02-08T01:01:30.722Z","meta":{"longitude":-81.5834393157,"singleRider":false,"latitude":28.41797818,"type":"ATTRACTION"},"fastPass":false,"name":"Jungle Cruise"},{"id":"WaltDisneyWorldMagicKingdom_80010160","waitTime":null,"status":"Closed","active":false,"lastUpdate":"2021-02-08T00:01:24.627Z","name":"Liberty Square Riverboat","fastPass":false,"meta":{"latitude":28.4195563399,"longitude":-81.5827982677,"singleRider":false,"type":"ATTRACTION"}},{"id":"WaltDisneyWorldMagicKingdom_80010162","waitTime":null,"status":"Closed","active":false,"lastUpdate":"2021-02-08T01:01:31.652Z","fastPass":false,"name":"Mad Tea Party","meta":{"singleRider":false,"type":"ATTRACTION","longitude":-81.5798248916,"latitude":28.4200230397}},{"id":"WaltDisneyWorldMagicKingdom_80010165","waitTime":null,"status":"Closed","active":false,"lastUpdate":"2021-01-03T21:24:20.300Z","name":"Main Street Vehicles - Temporarily Unavailable","meta":{"longitude":-81.5815081252,"singleRider":false,"type":"ATTRACTION","latitude":28.4168698711},"fastPass":false},{"id":"WaltDisneyWorldMagicKingdom_80010170","waitTime":null,"status":"Closed","active":false,"lastUpdate":"2021-02-08T01:01:20.465Z","fastPass":false,"name":"Mickey's PhilharMagic","meta":{"singleRider":false,"longitude":-81.5814839853,"type":"ATTRACTION","latitude":28.4200304909}},{"id":"WaltDisneyWorldMagicKingdom_80010176","waitTime":null,"status":"Closed","active":false,"lastUpdate":"2021-02-08T01:01:31.188Z","fastPass":false,"meta":{"longitude":-81.5818916811,"singleRider":false,"type":"ATTRACTION","latitude":28.4202640272},"name":"Peter Pan's Flight"},{"id":"WaltDisneyWorldMagicKingdom_80010177","waitTime":null,"status":"Closed","active":false,"lastUpdate":"2021-02-08T01:01:22.692Z","meta":{"latitude":28.41796992,"longitude":-81.5842252,"type":"ATTRACTION","singleRider":false},"name":"Pirates of the Caribbean","fastPass":false},{"id":"WaltDisneyWorldMagicKingdom_80010190","waitTime":null,"status":"Closed","active":false,"lastUpdate":"2021-02-08T01:01:27.763Z","fastPass":false,"meta":{"longitude":-81.5781962872,"latitude":28.4188341691,"type":"ATTRACTION","singleRider":false,"unsuitableForPregnantPeople":true},"name":"Space Mountain"},{"id":"WaltDisneyWorldMagicKingdom_80010192","waitTime":null,"status":"Closed","active":false,"lastUpdate":"2021-02-08T01:01:23.236Z","name":"Splash Mountain","fastPass":false,"meta":{"type":"ATTRACTION","latitude":28.419418,"longitude":-81.58498,"singleRider":false,"unsuitableForPregnantPeople":true}},{"id":"WaltDisneyWorldMagicKingdom_80010196","waitTime":null,"status":"Closed","active":false,"lastUpdate":"2021-02-08T01:01:32.152Z","name":"Swiss Family Treehouse","fastPass":false,"meta":{"latitude":28.4184325517,"longitude":-81.5827982677,"singleRider":false,"type":"ATTRACTION"}},{"id":"WaltDisneyWorldMagicKingdom_80010208","waitTime":null,"status":"Closed","active":false,"lastUpdate":"2021-02-08T01:01:19.803Z","name":"Haunted Mansion","fastPass":false,"meta":{"latitude":28.4202,"longitude":-81.58288,"type":"ATTRACTION","singleRider":false}},{"id":"WaltDisneyWorldMagicKingdom_80010210","waitTime":null,"status":"Closed","active":false,"lastUpdate":"2021-02-08T01:01:28.274Z","fastPass":false,"name":"The Magic Carpets of Aladdin","meta":{"latitude":28.41843,"singleRider":false,"type":"ATTRACTION","longitude":-81.583472}},{"id":"WaltDisneyWorldMagicKingdom_80010213","waitTime":null,"status":"Closed","active":false,"lastUpdate":"2021-02-08T01:01:23.765Z","name":"The Many Adventures of Winnie the Pooh","meta":{"singleRider":false,"type":"ATTRACTION","latitude":28.420212,"longitude":-81.580266},"fastPass":false},{"id":"WaltDisneyWorldMagicKingdom_80010220","waitTime":null,"status":"Closed","active":false,"lastUpdate":"2021-02-07T21:31:20.838Z","meta":{"longitude":-81.58428,"type":"ATTRACTION","latitude":28.419503,"singleRider":false},"name":"Tom Sawyer Island","fastPass":false},{"id":"WaltDisneyWorldMagicKingdom_80010222","waitTime":null,"status":"Closed","active":false,"lastUpdate":"2021-02-08T01:01:32.653Z","meta":{"longitude":-81.579302,"unsuitableForPregnantPeople":true,"singleRider":false,"latitude":28.419368,"type":"ATTRACTION"},"name":"Tomorrowland Speedway","fastPass":false},{"id":"WaltDisneyWorldMagicKingdom_80010224","waitTime":null,"status":"Refurbishment","active":false,"lastUpdate":"2021-01-03T21:24:19.826Z","name":"Tomorrowland Transit Authority PeopleMover - Temporarily Unavailable","fastPass":false,"meta":{"singleRider":false,"type":"ATTRACTION","longitude":-81.579033,"latitude":28.418155}},{"id":"WaltDisneyWorldMagicKingdom_80010230","waitTime":null,"status":"Refurbishment","active":false,"lastUpdate":"2021-01-03T21:23:09.088Z","meta":{"singleRider":false,"type":"ATTRACTION","latitude":28.416543,"longitude":-81.581204},"name":"Walt Disney World Railroad - Main Street, U.S.A. - Temporarily Unavailable","fastPass":false},{"id":"WaltDisneyWorldMagicKingdom_80010232","waitTime":null,"status":"Closed","active":false,"lastUpdate":"2021-02-08T00:01:24.084Z","fastPass":false,"meta":{"type":"ATTRACTION","latitude":28.4180310951,"longitude":-81.5790083064,"singleRider":false},"name":"Walt Disney's Carousel of Progress"},{"id":"WaltDisneyWorldMagicKingdom_80069748","waitTime":null,"status":"Closed","active":false,"lastUpdate":"2021-02-08T01:01:33.127Z","meta":{"type":"ATTRACTION","longitude":-81.5837222887,"singleRider":false,"latitude":28.4187861348},"name":"Country Bear Jamboree","fastPass":false},{"id":"WaltDisneyWorldMagicKingdom_80069754","waitTime":null,"status":"Refurbishment","active":false,"lastUpdate":"2021-01-21T05:00:35.597Z","fastPass":false,"meta":{"singleRider":false,"type":"ATTRACTION","latitude":28.4194484171,"longitude":-81.5823248578},"name":"The Hall of Presidents"},{"id":"WaltDisneyWorldMagicKingdom_90001815","waitTime":null,"status":"Closed","active":false,"lastUpdate":"2021-02-02T05:00:59.870Z","name":"Liberty Square Market - Temporarily Unavailable","meta":{"latitude":28.4195299,"longitude":-81.5825378,"type":"RESTAURANT","singleRider":false},"fastPass":false},{"id":"WaltDisneyWorldMagicKingdom_90001819","waitTime":null,"status":"Operating","active":true,"lastUpdate":"2021-02-08T00:56:12.688Z","meta":{"singleRider":false,"longitude":-81.5826159743,"latitude":28.4191196055,"type":"RESTAURANT"},"fastPass":false,"name":"Liberty Tree Tavern"},{"id":"WaltDisneyWorldMagicKingdom_90002464","waitTime":null,"status":"Operating","active":true,"lastUpdate":"2021-02-06T17:02:04.468Z","name":"Cinderella's Royal Table","meta":{"singleRider":false,"type":"RESTAURANT","longitude":-81.581101,"latitude":28.4195},"fastPass":false},{"id":"WaltDisneyWorldMagicKingdom_90002660","waitTime":null,"status":"Operating","active":true,"lastUpdate":"2021-02-07T23:55:49.088Z","name":"The Crystal Palace","fastPass":false,"meta":{"type":"RESTAURANT","singleRider":false,"longitude":-81.5818970259,"latitude":28.4181214892}},{"id":"WaltDisneyWorldMagicKingdom_90002670","waitTime":null,"status":"Operating","active":true,"lastUpdate":"2021-02-07T23:41:43.584Z","name":"The Plaza Restaurant","meta":{"type":"RESTAURANT","longitude":-81.5809394969,"singleRider":false,"latitude":28.4180247703},"fastPass":false},{"id":"WaltDisneyWorldMagicKingdom_90002678","waitTime":null,"status":"Operating","active":true,"lastUpdate":"2021-02-07T23:57:01.258Z","name":"Tony's Town Square Restaurant","fastPass":false,"meta":{"longitude":-81.5807276023,"type":"RESTAURANT","singleRider":false,"latitude":28.4169323426}},{"id":"WaltDisneyWorldEpcot_107785","waitTime":5,"status":"Operating","active":true,"lastUpdate":"2021-02-08T01:00:23.685Z","name":"The Seas with Nemo & Friends","meta":{"longitude":-81.550852,"type":"ATTRACTION","singleRider":false,"latitude":28.374904},"fastPass":false},{"id":"WaltDisneyWorldEpcot_15525573","waitTime":null,"status":"Operating","active":true,"lastUpdate":"2021-02-07T23:11:39.289Z","name":"La Hacienda de San Angel","meta":{"type":"RESTAURANT","longitude":-81.547532,"singleRider":false,"latitude":28.371221},"fastPass":false},{"id":"WaltDisneyWorldEpcot_17564219","waitTime":null,"status":"Closed","active":false,"lastUpdate":"2020-09-15T11:33:07.103Z","meta":{"latitude":28.37097,"longitude":-81.547134,"singleRider":false},"fastPass":false,"name":"Meet Anna and Elsa at Royal Sommerhus - Temporarily Unavailable"},{"id":"WaltDisneyWorldEpcot_17720675","waitTime":null,"status":"Operating","active":true,"lastUpdate":"2021-02-08T01:35:16.974Z","meta":{"singleRider":false,"type":"RESTAURANT","longitude":-81.551645,"latitude":28.368468},"name":"Spice Road Table","fastPass":false},{"id":"WaltDisneyWorldEpcot_18269694","waitTime":null,"status":"Operating","active":true,"lastUpdate":"2021-02-07T16:01:17.825Z","fastPass":false,"name":"Disney and Pixar Short Film Festival","meta":{"latitude":28.37263,"singleRider":false,"longitude":-81.55115,"type":"ATTRACTION"}},{"id":"WaltDisneyWorldEpcot_18375495","waitTime":15,"status":"Operating","active":true,"lastUpdate":"2021-02-08T01:10:19.936Z","name":"Frozen Ever After","meta":{"type":"ATTRACTION","latitude":28.370745,"longitude":-81.54653,"singleRider":false},"fastPass":false},{"id":"WaltDisneyWorldEpcot_19463785","waitTime":null,"status":"Closed","active":false,"lastUpdate":"2021-02-07T23:01:18.931Z","meta":{"latitude":28.368864,"type":"ATTRACTION","longitude":-81.552978,"singleRider":false},"name":"Beauty and the Beast Sing-Along","fastPass":false},{"id":"WaltDisneyWorldEpcot_19473173","waitTime":null,"status":"Operating","active":true,"lastUpdate":"2021-02-07T16:01:19.187Z","meta":{"longitude":-81.552138,"singleRider":false,"type":"ATTRACTION","latitude":28.374301},"name":"Awesome Planet","fastPass":false},{"id":"WaltDisneyWorldEpcot_20194","waitTime":20,"status":"Operating","active":true,"lastUpdate":"2021-02-08T01:44:23.677Z","meta":{"longitude":-81.552248,"latitude":28.373592,"singleRider":false,"type":"ATTRACTION"},"name":"Soarin' Around the World","fastPass":false},{"id":"WaltDisneyWorldEpcot_207395","waitTime":5,"status":"Operating","active":true,"lastUpdate":"2021-02-07T16:25:22.423Z","name":"Gran Fiesta Tour Starring The Three Caballeros","fastPass":false,"meta":{"longitude":-81.547368,"type":"ATTRACTION","latitude":28.371649,"singleRider":false}},{"id":"WaltDisneyWorldEpcot_62992","waitTime":null,"status":"Closed","active":false,"lastUpdate":"2021-01-03T21:23:09.564Z","fastPass":false,"name":"Turtle Talk With Crush - Temporarily Unavailable","meta":{"longitude":-81.551047,"singleRider":false,"type":"ATTRACTION","latitude":28.375255}},{"id":"WaltDisneyWorldEpcot_80010145","waitTime":null,"status":"Closed","active":false,"lastUpdate":"2021-02-08T01:46:19.436Z","name":"Impressions de France","meta":{"singleRider":false,"type":"ATTRACTION","latitude":28.368864,"longitude":-81.552978},"fastPass":false},{"id":"WaltDisneyWorldEpcot_80010152","waitTime":5,"status":"Operating","active":true,"lastUpdate":"2021-02-08T01:00:23.112Z","name":"Journey Into Imagination With Figment","meta":{"longitude":-81.551401,"singleRider":false,"type":"ATTRACTION","latitude":28.372994},"fastPass":false},{"id":"WaltDisneyWorldEpcot_80010161","waitTime":5,"status":"Operating","active":true,"lastUpdate":"2021-02-08T01:00:24.437Z","meta":{"singleRider":false,"latitude":28.374245,"longitude":-81.552301,"type":"ATTRACTION"},"fastPass":false,"name":"Living with the Land"},{"id":"WaltDisneyWorldEpcot_80010173","waitTime":20,"status":"Operating","active":true,"lastUpdate":"2021-02-07T19:09:22.934Z","fastPass":false,"name":"Mission: SPACE","meta":{"singleRider":false,"latitude":28.373927,"longitude":-81.547156,"type":"ATTRACTION","unsuitableForPregnantPeople":true}},{"id":"WaltDisneyWorldEpcot_80010174","waitTime":null,"status":"Closed","active":false,"lastUpdate":"2021-02-08T01:46:18.810Z","fastPass":false,"name":"Canada Far and Wide in Circle-Vision 360","meta":{"latitude":28.371694,"longitude":-81.55196,"singleRider":false,"type":"ATTRACTION"}},{"id":"WaltDisneyWorldEpcot_80010180","waitTime":null,"status":"Operating","active":true,"lastUpdate":"2021-02-07T16:01:25.297Z","meta":{"type":"ATTRACTION","latitude":28.369791,"singleRider":false,"longitude":-81.546381},"name":"Reflections of China","fastPass":false},{"id":"WaltDisneyWorldEpcot_80010191","waitTime":5,"status":"Operating","active":true,"lastUpdate":"2021-02-07T22:48:22.800Z","fastPass":false,"name":"Spaceship Earth","meta":{"latitude":28.375583,"type":"ATTRACTION","longitude":-81.549401,"singleRider":false}},{"id":"WaltDisneyWorldEpcot_80010199","waitTime":20,"status":"Operating","active":true,"lastUpdate":"2021-02-08T01:55:18.636Z","fastPass":false,"name":"Test Track","meta":{"longitude":-81.547489,"latitude":28.373228,"type":"ATTRACTION","singleRider":true,"unsuitableForPregnantPeople":true}},{"id":"WaltDisneyWorldEpcot_80010200","waitTime":null,"status":"Operating","active":true,"lastUpdate":"2021-02-07T16:01:22.141Z","fastPass":false,"name":"The American Adventure","meta":{"singleRider":false,"longitude":-81.549446,"latitude":28.367517,"type":"ATTRACTION"}},{"id":"WaltDisneyWorldEpcot_90001292","waitTime":null,"status":"Operating","active":true,"lastUpdate":"2021-02-08T00:56:13.344Z","fastPass":false,"meta":{"singleRider":false,"type":"RESTAURANT","longitude":-81.546819,"latitude":28.368153},"name":"Biergarten Restaurant"},{"id":"WaltDisneyWorldEpcot_90001416","waitTime":null,"status":"Operating","active":true,"lastUpdate":"2021-02-08T00:56:13.887Z","meta":{"type":"RESTAURANT","longitude":-81.550458,"singleRider":false,"latitude":28.375096},"fastPass":false,"name":"Coral Reef Restaurant"},{"id":"WaltDisneyWorldEpcot_90001798","waitTime":null,"status":"Operating","active":true,"lastUpdate":"2021-02-08T01:34:47.783Z","meta":{"longitude":-81.551512,"singleRider":false,"latitude":28.371657,"type":"RESTAURANT"},"fastPass":false,"name":"Le Cellier Steakhouse"},{"id":"WaltDisneyWorldEpcot_90002084","waitTime":null,"status":"Operating","active":true,"lastUpdate":"2021-02-07T22:34:20.991Z","name":"Rose & Crown Dining Room","meta":{"longitude":-81.551684,"type":"RESTAURANT","singleRider":false,"latitude":28.370508},"fastPass":false},{"id":"WaltDisneyWorldEpcot_90002100","waitTime":null,"status":"Operating","active":true,"lastUpdate":"2021-02-07T19:53:42.870Z","fastPass":false,"name":"San Angel Inn Restaurante    ","meta":{"longitude":-81.547258,"singleRider":false,"type":"RESTAURANT","latitude":28.371612}},{"id":"WaltDisneyWorldEpcot_90002237","waitTime":null,"status":"Operating","active":true,"lastUpdate":"2021-02-08T00:46:45.455Z","fastPass":false,"meta":{"longitude":-81.552324,"singleRider":false,"type":"RESTAURANT","latitude":28.374039},"name":"Garden Grill Restaurant"},{"id":"WaltDisneyWorldHollywoodStudios_136","waitTime":null,"status":"Closed","active":false,"lastUpdate":"2020-09-15T11:33:12.086Z","fastPass":false,"meta":{"longitude":-81.5586114479,"singleRider":false,"latitude":28.3566700675},"name":"Indiana Jones™ Epic Stunt Spectacular! - Temporarily Unavailable"},{"id":"WaltDisneyWorldHollywoodStudios_17842841","waitTime":null,"status":"Closed","active":false,"lastUpdate":"2020-09-15T11:33:12.046Z","fastPass":false,"meta":{"latitude":28.3568243464,"singleRider":false,"longitude":-81.5596944094},"name":"For the First Time in Forever: A Frozen Sing-Along Celebration - Temporarily Unavailable"},{"id":"WaltDisneyWorldHollywoodStudios_18189394","waitTime":null,"status":"Closed","active":false,"lastUpdate":"2020-09-15T11:33:12.077Z","meta":{"longitude":-81.560938,"latitude":28.35796,"singleRider":false},"name":"Star Wars Launch Bay: Meet Chewbacca - Temporarily Unavailable","fastPass":false},{"id":"WaltDisneyWorldHollywoodStudios_18189398","waitTime":null,"status":"Closed","active":false,"lastUpdate":"2020-09-15T11:33:12.069Z","meta":{"singleRider":false,"latitude":28.35796,"longitude":-81.560938},"fastPass":false,"name":"Star Wars Launch Bay: Encounter Darth Vader - Temporarily Unavailable"},{"id":"WaltDisneyWorldHollywoodStudios_18360041","waitTime":null,"status":"Closed","active":false,"lastUpdate":"2021-01-03T21:23:31.878Z","fastPass":false,"meta":{"longitude":-81.561061,"type":"ATTRACTION","singleRider":false,"latitude":28.357821},"name":"Star Wars Launch Bay Theater - Temporarily Unavailable"},{"id":"WaltDisneyWorldHollywoodStudios_18368385","waitTime":null,"status":"Closed","active":false,"lastUpdate":"2020-09-15T11:33:12.104Z","name":"Celebrity Spotlight - Temporarily Unavailable","fastPass":false,"meta":{"latitude":28.356072,"singleRider":false,"longitude":-81.559158}},{"id":"WaltDisneyWorldHollywoodStudios_18368386","waitTime":null,"status":"Closed","active":false,"lastUpdate":"2020-09-15T11:33:12.095Z","name":"Mickey and Minnie Starring in Red Carpet Dreams - Temporarily Unavailable","meta":{"longitude":-81.559479,"singleRider":false,"latitude":28.356068},"fastPass":false},{"id":"WaltDisneyWorldHollywoodStudios_18669338","waitTime":null,"status":"Closed","active":false,"lastUpdate":"2020-09-15T11:33:12.121Z","fastPass":false,"meta":{"latitude":28.35796,"longitude":-81.560938,"singleRider":false},"name":"BB-8 Astromech on Duty - Temporarily Unavailable"},{"id":"WaltDisneyWorldHollywoodStudios_18770880","waitTime":null,"status":"Closed","active":false,"lastUpdate":"2021-02-07T23:01:22.365Z","fastPass":false,"name":"Walt Disney Presents","meta":{"singleRider":false,"longitude":-81.560982,"type":"ATTRACTION","latitude":28.35686}},